{"122001":[{"address3":"Gurgaon Sector 17","state":"Haryana","state_code":"10","district":"Gurgaon","district_code":"086","address1":"Sector-17","address2":"","latitude":"28.418","longitude":"76.9839","accuracy":"1"},{"address3":"Shivaji Nagar (Gurgaon)","state":"Haryana","state_code":"10","district":"Gurgaon","district_code":"086","address1":"Shivaji Nagar","address2":"","latitude":"28.418","longitude":"76.9839","accuracy":"1"},{"address3":"Mini Sectt.","state":"Haryana","state_code":"10","district":"Gurgaon","district_code":"086","address1":"Mini Sectt.","address2":"","latitude":"28.418","longitude":"76.9839","accuracy":"1"},{"address3":"Gurgaon South City I","state":"Haryana","state_code":"10","district":"Gurgaon","district_code":"086","address1":"NA","address2":"","latitude":"28.418","longitude":"76.9839","accuracy":"1"},{"address3":"New Colony (Gurgaon)","state":"Haryana","state_code":"10","district":"Gurgaon","district_code":"086","address1":"New Colony","address2":"","latitude":"28.418","longitude":"76.9839","accuracy":"1"},{"address3":"Khandsa Road","state":"Haryana","state_code":"10","district":"Gurgaon","district_code":"086","address1":"Gurgaon","address2":"","latitude":"28.418","longitude":"76.9839","accuracy":"1"},{"address3":"Gurgaon H.O","state":"Haryana","state_code":"10","district":"Gurgaon","district_code":"086","address1":"Sadar Bazar","address2":"","latitude":"28.418","longitude":"76.9839","accuracy":"1"},{"address3":"Urban Estate (Gurgaon)","state":"Haryana","state_code":"10","district":"Gurgaon","district_code":"086","address1":"Urban Estate","address2":"","latitude":"28.418","longitude":"76.9839","accuracy":"1"},{"address3":"Arjun Nagar","state":"Haryana","state_code":"10","district":"Gurgaon","district_code":"086","address1":"Arjun Nagar","address2":"","latitude":"28.418","longitude":"76.9839","accuracy":"1"},{"address3":"Basai Road","state":"Haryana","state_code":"10","district":"Gurgaon","district_code":"086","address1":"Basai Road","address2":"","latitude":"28.418","longitude":"76.9839","accuracy":"1"},{"address3":"Gurgaon Kty.","state":"Haryana","state_code":"10","district":"Gurgaon","district_code":"086","address1":"Gurgaon Kty.","address2":"","latitude":"28.418","longitude":"76.9839","accuracy":"1"}],"122002":[{"address3":"DLF QE","state":"Haryana","state_code":"10","district":"Gurgaon","district_code":"086","address1":"Dlf Qe","address2":"","latitude":"28.418","longitude":"76.9839","accuracy":"1"}],"122003":[{"address3":"Smaspur","state":"Haryana","state_code":"10","district":"Gurgaon","district_code":"086","address1":"NA","address2":"","latitude":"28.418","longitude":"76.9839","accuracy":"1"},{"address3":"Gurgaon Sector 45","state":"Haryana","state_code":"10","district":"Gurgaon","district_code":"086","address1":"Sector -45","address2":"","latitude":"28.418","longitude":"76.9839","accuracy":"1"},{"address3":"Gwal Pahari","state":"Haryana","state_code":"10","district":"Gurgaon","district_code":"086","address1":"NA","address2":"","latitude":"28.418","longitude":"76.9839","accuracy":"1"},{"address3":"Wazirabad","state":"Haryana","state_code":"10","district":"Gurgaon","district_code":"086","address1":"NA","address2":"","latitude":"28.418","longitude":"76.9839","accuracy":"1"},{"address3":"Jharsa","state":"Haryana","state_code":"10","district":"Gurgaon","district_code":"086","address1":"NA","address2":"","latitude":"28.418","longitude":"76.9839","accuracy":"1"}],"122004":[{"address3":"Kherki Daula","state":"Haryana","state_code":"10","district":"Gurgaon","district_code":"086","address1":"NA","address2":"","latitude":"28.4032","longitude":"76.9848","accuracy":"4"},{"address3":"Sikanderpur","state":"Haryana","state_code":"10","district":"Gurgaon","district_code":"086","address1":"NA","address2":"","latitude":"28.4077","longitude":"76.9836","accuracy":"3"},{"address3":"Khandsa","state":"Haryana","state_code":"10","district":"Gurgaon","district_code":"086","address1":"NA","address2":"","latitude":"28.4348","longitude":"77.0034","accuracy":"4"},{"address3":"Sikohpur","state":"Haryana","state_code":"10","district":"Gurgaon","district_code":"086","address1":"NA","address2":"","latitude":"28.4077","longitude":"76.9836","accuracy":"3"},{"address3":"Lakhnaula","state":"Haryana","state_code":"10","district":"Gurgaon","district_code":"086","address1":"NA","address2":"","latitude":"28.3792","longitude":"76.9522","accuracy":"4"},{"address3":"Narsinghpur","state":"Haryana","state_code":"10","district":"Gurgaon","district_code":"086","address1":"Narsinghpur","address2":"","latitude":"28.4135","longitude":"76.9942","accuracy":"4"}],"122005":[{"address3":"Air Force","state":"Haryana","state_code":"10","district":"Gurgaon","district_code":"086","address1":"Air Force","address2":"","latitude":"28.418","longitude":"76.9839","accuracy":"1"}],"122006":[{"address3":"Basai","state":"Haryana","state_code":"10","district":"Gurgaon","district_code":"086","address1":"NA","address2":"","latitude":"28.4592","longitude":"76.985","accuracy":"4"},{"address3":"Railwary Road","state":"Haryana","state_code":"10","district":"Gurgaon","district_code":"086","address1":"Railway Road","address2":"","latitude":"28.4592","longitude":"76.985","accuracy":"3"},{"address3":"Daultabad","state":"Haryana","state_code":"10","district":"Gurgaon","district_code":"086","address1":"NA","address2":"","latitude":"28.4592","longitude":"76.985","accuracy":"3"},{"address3":"Gurgaon Village","state":"Haryana","state_code":"10","district":"Gurgaon","district_code":"086","address1":"NA","address2":"","latitude":"28.4592","longitude":"76.985","accuracy":"3"}],"122007":[{"address3":"Industrial Estate (Gurgaon)","state":"Haryana","state_code":"10","district":"Gurgaon","district_code":"086","address1":"Industrial Estate","address2":"","latitude":"28.418","longitude":"76.9839","accuracy":"1"}],"122008":[{"address3":"DLF Ph-II","state":"Haryana","state_code":"10","district":"Gurgaon","district_code":"086","address1":"Dlf Ph-ii","address2":"","latitude":"28.418","longitude":"76.9839","accuracy":"1"}],"122009":[{"address3":"Galleria DLF-IV","state":"Haryana","state_code":"10","district":"Gurgaon","district_code":"086","address1":"Galleria Dlf-iv","address2":"","latitude":"28.418","longitude":"76.9839","accuracy":"1"}],"122010":[{"address3":"DLF Ph-III","state":"Haryana","state_code":"10","district":"Gurgaon","district_code":"086","address1":"Dlf Ph-iii","address2":"","latitude":"28.4001","longitude":"76.9661","accuracy":"1"}],"122011":[{"address3":"Gurgaon Sector 56","state":"Haryana","state_code":"10","district":"Gurgaon","district_code":"086","address1":"NA","address2":"","latitude":"28.4001","longitude":"76.9661","accuracy":"1"}],"122012":[{"address3":"Vatika India Sector 82 Gurgaon","state":"Haryana","state_code":"10","district":"Gurgaon","district_code":"086","address1":"GURGAON","address2":"","latitude":"28.4001","longitude":"76.9661","accuracy":"1"}],"122015":[{"address3":"Palam Road","state":"Haryana","state_code":"10","district":"Gurgaon","district_code":"086","address1":"Palam Road","address2":"","latitude":"28.4001","longitude":"76.9661","accuracy":"1"}],"122016":[{"address3":"Industrial Complex Dundahera","state":"Haryana","state_code":"10","district":"Gurgaon","district_code":"086","address1":"Industrial Complex Dundahera","address2":"","latitude":"28.4001","longitude":"76.9661","accuracy":"1"}],"122017":[{"address3":"Carterpuri","state":"Haryana","state_code":"10","district":"Gurgaon","district_code":"086","address1":"NA","address2":"","latitude":"28.4001","longitude":"76.9661","accuracy":"1"},{"address3":"Palam Vihar (Gurgaon)","state":"Haryana","state_code":"10","district":"Gurgaon","district_code":"086","address1":"Palam Vihar","address2":"","latitude":"28.4001","longitude":"76.9661","accuracy":"1"}],"122018":[{"address3":"Gurgaon South City II","state":"Haryana","state_code":"10","district":"Gurgaon","district_code":"086","address1":"NA","address2":"","latitude":"28.4001","longitude":"76.9661","accuracy":"1"}],"122051":[{"address3":"Nsg Camp Manesar","state":"Haryana","state_code":"10","district":"Gurgaon","district_code":"086","address1":"Nsg Camp Manesar","address2":"","latitude":"28.3553","longitude":"76.9215","accuracy":"3"},{"address3":"Manesar","state":"Haryana","state_code":"10","district":"Gurgaon","district_code":"086","address1":"NA","address2":"","latitude":"28.3531","longitude":"76.9404","accuracy":"4"},{"address3":"Kasan","state":"Haryana","state_code":"10","district":"Gurgaon","district_code":"086","address1":"NA","address2":"","latitude":"28.3574","longitude":"76.9026","accuracy":"4"}],"122052":[{"address3":"IMT Manesar","state":"Haryana","state_code":"10","district":"Gurgaon","district_code":"086","address1":"Manesar","address2":"","latitude":"28.3553","longitude":"76.9215","accuracy":"1"}],"122098":[{"address3":"CRPF Kadarpur","state":"Haryana","state_code":"10","district":"Gurgaon","district_code":"086","address1":"GURGAON","address2":"","latitude":"28.4001","longitude":"76.9661","accuracy":"1"}],"122101":[{"address3":"Kadipur","state":"Haryana","state_code":"10","district":"Gurgaon","district_code":"086","address1":"NA","address2":"","latitude":"28.4832","longitude":"76.8026","accuracy":"3"},{"address3":"Paltra","state":"Haryana","state_code":"10","district":"Gurgaon","district_code":"086","address1":"NA","address2":"","latitude":"28.3681","longitude":"76.9408","accuracy":"4"},{"address3":"Teekli","state":"Haryana","state_code":"10","district":"Gurgaon","district_code":"086","address1":"NA","address2":"","latitude":"28.4832","longitude":"76.8026","accuracy":"3"},{"address3":"Fazilpur","state":"Haryana","state_code":"10","district":"Gurgaon","district_code":"086","address1":"NA","address2":"","latitude":"28.4077","longitude":"76.8268","accuracy":"4"},{"address3":"Badshahpur","state":"Haryana","state_code":"10","district":"Gurgaon","district_code":"086","address1":"Badshahpur","address2":"","latitude":"28.3932","longitude":"77.0492","accuracy":"4"}],"122102":[{"address3":"Raisina","state":"Haryana","state_code":"10","district":"Gurgaon","district_code":"086","address1":"NA","address2":"","latitude":"27.9738","longitude":"76.9248","accuracy":"3"},{"address3":"Damdama","state":"Haryana","state_code":"10","district":"Gurgaon","district_code":"086","address1":"NA","address2":"","latitude":"28.3681","longitude":"76.9408","accuracy":"4"},{"address3":"Bhondsi","state":"Haryana","state_code":"10","district":"Gurgaon","district_code":"086","address1":"Bhondsi","address2":"","latitude":"27.9738","longitude":"76.9248","accuracy":"3"},{"address3":"Rithoj","state":"Haryana","state_code":"10","district":"Gurgaon","district_code":"086","address1":"NA","address2":"","latitude":"27.9738","longitude":"76.9248","accuracy":"3"},{"address3":"Maruthi Kunj","state":"Haryana","state_code":"10","district":"Gurgaon","district_code":"086","address1":"NA","address2":"","latitude":"27.9738","longitude":"76.9248","accuracy":"3"},{"address3":"Ghamroj","state":"Haryana","state_code":"10","district":"Gurgaon","district_code":"086","address1":"NA","address2":"","latitude":"27.9738","longitude":"76.9248","accuracy":"3"},{"address3":"Kherla","state":"Haryana","state_code":"10","district":"Gurgaon","district_code":"086","address1":"NA","address2":"","latitude":"27.9738","longitude":"76.9248","accuracy":"3"}],"122103":[{"address3":"Bhirauti","state":"Haryana","state_code":"10","district":"Gurgaon","district_code":"086","address1":"NA","address2":"","latitude":"28.1902","longitude":"77.0669","accuracy":"3"},{"address3":"Ghasera","state":"Haryana","state_code":"10","district":"Gurgaon","district_code":"086","address1":"NA","address2":"","latitude":"28.3681","longitude":"76.9408","accuracy":"4"},{"address3":"Garhi Bajidpur","state":"Haryana","state_code":"10","district":"Gurgaon","district_code":"086","address1":"Sohna","address2":"","latitude":"28.1902","longitude":"77.0669","accuracy":"3"},{"address3":"Sohna","state":"Haryana","state_code":"10","district":"Gurgaon","district_code":"086","address1":"Sohna","address2":"","latitude":"28.2474","longitude":"77.0654","accuracy":"4"},{"address3":"Rojka Meo","state":"Haryana","state_code":"10","district":"Gurgaon","district_code":"086","address1":"NA","address2":"","latitude":"28.1902","longitude":"77.0669","accuracy":"3"},{"address3":"Rewasan","state":"Haryana","state_code":"10","district":"Gurgaon","district_code":"086","address1":"NA","address2":"","latitude":"28.1902","longitude":"77.0669","accuracy":"3"},{"address3":"Ghungola","state":"Haryana","state_code":"10","district":"Gurgaon","district_code":"086","address1":"NA","address2":"","latitude":"28.1902","longitude":"77.0669","accuracy":"3"},{"address3":"KherliLala","state":"Haryana","state_code":"10","district":"Gurgaon","district_code":"086","address1":"Sohna","address2":"","latitude":"28.1902","longitude":"77.0669","accuracy":"3"},{"address3":"Daulah","state":"Haryana","state_code":"10","district":"Gurgaon","district_code":"086","address1":"NA","address2":"","latitude":"28.1902","longitude":"77.0669","accuracy":"3"},{"address3":"Kiranj","state":"Haryana","state_code":"10","district":"Gurgaon","district_code":"086","address1":"NA","address2":"","latitude":"28.1902","longitude":"77.0669","accuracy":"3"},{"address3":"Chapera","state":"Haryana","state_code":"10","district":"Gurgaon","district_code":"086","address1":"NA","address2":"","latitude":"28.1902","longitude":"77.0669","accuracy":"3"},{"address3":"Indir Mewat","state":"Haryana","state_code":"10","district":"Gurgaon","district_code":"086","address1":"NA","address2":"","latitude":"28.1902","longitude":"77.0669","accuracy":"3"}],"122104":[{"address3":"Ferozepur Jhirka","state":"Haryana","state_code":"10","district":"Gurgaon","district_code":"086","address1":"Ferozepur Jhirka","address2":"","latitude":"28.3681","longitude":"76.9408","accuracy":"4"},{"address3":"Doha","state":"Haryana","state_code":"10","district":"Gurgaon","district_code":"086","address1":"NA","address2":"","latitude":"28.3681","longitude":"76.9408","accuracy":"4"},{"address3":"Agon","state":"Haryana","state_code":"10","district":"Gurgaon","district_code":"086","address1":"NA","address2":"","latitude":"27.7501","longitude":"76.9567","accuracy":"3"},{"address3":"Rawli","state":"Haryana","state_code":"10","district":"Gurgaon","district_code":"086","address1":"NA","address2":"","latitude":"27.7501","longitude":"76.9567","accuracy":"3"},{"address3":"Bewan","state":"Haryana","state_code":"10","district":"Gurgaon","district_code":"086","address1":"NA","address2":"","latitude":"27.7501","longitude":"76.9567","accuracy":"3"},{"address3":"Hirwari","state":"Haryana","state_code":"10","district":"Gurgaon","district_code":"086","address1":"NA","address2":"","latitude":"28.3681","longitude":"76.9408","accuracy":"4"}],"122105":[{"address3":"Hasanpur","state":"Haryana","state_code":"10","district":"Gurgaon","district_code":"086","address1":"NA","address2":"","latitude":"28.3681","longitude":"76.9408","accuracy":"4"},{"address3":"Rathiwas","state":"Haryana","state_code":"10","district":"Gurgaon","district_code":"086","address1":"NA","address2":"","latitude":"28.262","longitude":"76.8518","accuracy":"4"},{"address3":"Baghanki","state":"Haryana","state_code":"10","district":"Gurgaon","district_code":"086","address1":"Tauru","address2":"","latitude":"28.3681","longitude":"76.9408","accuracy":"4"},{"address3":"Dulawat","state":"Haryana","state_code":"10","district":"Gurgaon","district_code":"086","address1":"NA","address2":"","latitude":"28.1702","longitude":"76.9233","accuracy":"3"},{"address3":"Chharoda","state":"Haryana","state_code":"10","district":"Gurgaon","district_code":"086","address1":"Tauru","address2":"","latitude":"28.1702","longitude":"76.9233","accuracy":"3"},{"address3":"Kalwari","state":"Haryana","state_code":"10","district":"Gurgaon","district_code":"086","address1":"NA","address2":"","latitude":"28.3681","longitude":"76.9408","accuracy":"4"},{"address3":"Jhamuwas","state":"Haryana","state_code":"10","district":"Gurgaon","district_code":"086","address1":"Tauru","address2":"","latitude":"28.1702","longitude":"76.9233","accuracy":"3"},{"address3":"Sundh","state":"Haryana","state_code":"10","district":"Gurgaon","district_code":"086","address1":"NA","address2":"","latitude":"28.3681","longitude":"76.9408","accuracy":"4"},{"address3":"Jawasi","state":"Haryana","state_code":"10","district":"Gurgaon","district_code":"086","address1":"NA","address2":"","latitude":"28.1702","longitude":"76.9233","accuracy":"3"},{"address3":"Mohamadpur Ahir","state":"Haryana","state_code":"10","district":"Gurgaon","district_code":"086","address1":"NA","address2":"","latitude":"28.1702","longitude":"76.9233","accuracy":"3"},{"address3":"Tauru","state":"Haryana","state_code":"10","district":"Gurgaon","district_code":"086","address1":"Tauru","address2":"","latitude":"28.1702","longitude":"76.9233","accuracy":"3"}],"122107":[{"address3":"Malab","state":"Haryana","state_code":"10","district":"Gurgaon","district_code":"086","address1":"NA","address2":"","latitude":"28.3681","longitude":"76.9408","accuracy":"4"},{"address3":"Akhera","state":"Haryana","state_code":"10","district":"Gurgaon","district_code":"086","address1":"NA","address2":"","latitude":"28.0827","longitude":"77.021","accuracy":"3"},{"address3":"Ujina","state":"Haryana","state_code":"10","district":"Gurgaon","district_code":"086","address1":"NA","address2":"","latitude":"28.3681","longitude":"76.9408","accuracy":"4"},{"address3":"Nuh","state":"Haryana","state_code":"10","district":"Gurgaon","district_code":"086","address1":"Nuh","address2":"","latitude":"28.3681","longitude":"76.9408","accuracy":"4"},{"address3":"Ferozepur Namak","state":"Haryana","state_code":"10","district":"Gurgaon","district_code":"086","address1":"NA","address2":"","latitude":"28.0827","longitude":"77.021","accuracy":"3"},{"address3":"Tapkan","state":"Haryana","state_code":"10","district":"Gurgaon","district_code":"086","address1":"NA","address2":"","latitude":"28.3681","longitude":"76.9408","accuracy":"4"},{"address3":"Mini Sectt Nuh","state":"Haryana","state_code":"10","district":"Gurgaon","district_code":"086","address1":"Nuh","address2":"","latitude":"28.0827","longitude":"77.021","accuracy":"3"},{"address3":"Kurthala","state":"Haryana","state_code":"10","district":"Gurgaon","district_code":"086","address1":"NA","address2":"","latitude":"28.0827","longitude":"77.021","accuracy":"3"},{"address3":"Tain","state":"Haryana","state_code":"10","district":"Gurgaon","district_code":"086","address1":"NA","address2":"","latitude":"28.0827","longitude":"77.021","accuracy":"3"},{"address3":"Sudaka","state":"Haryana","state_code":"10","district":"Gurgaon","district_code":"086","address1":"NA","address2":"","latitude":"28.0827","longitude":"77.021","accuracy":"3"}],"122108":[{"address3":"Bhadas","state":"Haryana","state_code":"10","district":"Gurgaon","district_code":"086","address1":"NA","address2":"","latitude":"28.3681","longitude":"76.9408","accuracy":"4"},{"address3":"Moolthan","state":"Haryana","state_code":"10","district":"Gurgaon","district_code":"086","address1":"NA","address2":"","latitude":"27.9256","longitude":"77.0174","accuracy":"3"},{"address3":"Sakras","state":"Haryana","state_code":"10","district":"Gurgaon","district_code":"086","address1":"NA","address2":"","latitude":"28.3681","longitude":"76.9408","accuracy":"4"},{"address3":"Nagina (Gurgaon)","state":"Haryana","state_code":"10","district":"Gurgaon","district_code":"086","address1":"Nagina","address2":"","latitude":"27.9256","longitude":"77.0174","accuracy":"3"},{"address3":"Umra","state":"Haryana","state_code":"10","district":"Gurgaon","district_code":"086","address1":"NA","address2":"","latitude":"28.3681","longitude":"76.9408","accuracy":"4"},{"address3":"Budarpur","state":"Haryana","state_code":"10","district":"Gurgaon","district_code":"086","address1":"NA","address2":"","latitude":"27.9256","longitude":"77.0174","accuracy":"3"},{"address3":"Mandikhera","state":"Haryana","state_code":"10","district":"Gurgaon","district_code":"086","address1":"NA","address2":"","latitude":"28.3681","longitude":"76.9408","accuracy":"4"}],"122413":[{"address3":"Pathreri","state":"Haryana","state_code":"10","district":"Gurgaon","district_code":"086","address1":"NA","address2":"","latitude":"28.2178","longitude":"76.7962","accuracy":"3"},{"address3":"Bhorakalan","state":"Haryana","state_code":"10","district":"Gurgaon","district_code":"086","address1":"Bhorakalan","address2":"","latitude":"28.2178","longitude":"76.7962","accuracy":"3"},{"address3":"Bilaspur Khurd","state":"Haryana","state_code":"10","district":"Gurgaon","district_code":"086","address1":"NA","address2":"","latitude":"28.2885","longitude":"76.8717","accuracy":"4"},{"address3":"Sidhrawali","state":"Haryana","state_code":"10","district":"Gurgaon","district_code":"086","address1":"NA","address2":"","latitude":"28.2178","longitude":"76.7962","accuracy":"3"},{"address3":"Moklawas","state":"Haryana","state_code":"10","district":"Gurgaon","district_code":"086","address1":"NA","address2":"","latitude":"28.2178","longitude":"76.7962","accuracy":"3"},{"address3":"Pachgaon","state":"Haryana","state_code":"10","district":"Gurgaon","district_code":"086","address1":"NA","address2":"","latitude":"28.3681","longitude":"76.9408","accuracy":"4"},{"address3":"Dhani Chitarsain","state":"Haryana","state_code":"10","district":"Gurgaon","district_code":"086","address1":"NA","address2":"","latitude":"28.2178","longitude":"76.7962","accuracy":"3"}],"122414":[{"address3":"Khatauli","state":"Haryana","state_code":"10","district":"Gurgaon","district_code":"086","address1":"NA","address2":"","latitude":"28.3681","longitude":"76.9408","accuracy":"4"},{"address3":"Inchhapuri","state":"Haryana","state_code":"10","district":"Gurgaon","district_code":"086","address1":"NA","address2":"","latitude":"28.3116","longitude":"76.7202","accuracy":"4"},{"address3":"Lokra","state":"Haryana","state_code":"10","district":"Gurgaon","district_code":"086","address1":"NA","address2":"","latitude":"28.2694","longitude":"76.7717","accuracy":"4"},{"address3":"Khor","state":"Haryana","state_code":"10","district":"Gurgaon","district_code":"086","address1":"NA","address2":"","latitude":"28.2948","longitude":"76.7445","accuracy":"4"},{"address3":"Syed Shahpur","state":"Haryana","state_code":"10","district":"Gurgaon","district_code":"086","address1":"NA","address2":"","latitude":"28.8208","longitude":"76.7655","accuracy":"3"},{"address3":"Nanukalan","state":"Haryana","state_code":"10","district":"Gurgaon","district_code":"086","address1":"Nanukalan","address2":"","latitude":"28.8208","longitude":"76.7655","accuracy":"3"}],"122502":[{"address3":"Cheelarh","state":"Haryana","state_code":"10","district":"Gurgaon","district_code":"086","address1":"NA","address2":"","latitude":"28.2486","longitude":"76.696","accuracy":"3"},{"address3":"Ramgarh","state":"Haryana","state_code":"10","district":"Gurgaon","district_code":"086","address1":"NA","address2":"","latitude":"28.3681","longitude":"76.9408","accuracy":"4"},{"address3":"Khalilpur","state":"Haryana","state_code":"10","district":"Gurgaon","district_code":"086","address1":"Khalilpur","address2":"","latitude":"28.2747","longitude":"76.6806","accuracy":"4"},{"address3":"Pahari","state":"Haryana","state_code":"10","district":"Gurgaon","district_code":"086","address1":"NA","address2":"","latitude":"28.3049","longitude":"76.7101","accuracy":"4"},{"address3":"Jagat","state":"Haryana","state_code":"10","district":"Gurgaon","district_code":"086","address1":"NA","address2":"","latitude":"28.2486","longitude":"76.696","accuracy":"3"},{"address3":"Jant","state":"Haryana","state_code":"10","district":"Gurgaon","district_code":"086","address1":"NA","address2":"","latitude":"28.3681","longitude":"76.9408","accuracy":"4"},{"address3":"Jaitpur","state":"Haryana","state_code":"10","district":"Gurgaon","district_code":"086","address1":"NA","address2":"","latitude":"28.3681","longitude":"76.9408","accuracy":"4"},{"address3":"Sherpur","state":"Haryana","state_code":"10","district":"Gurgaon","district_code":"086","address1":"NA","address2":"","latitude":"28.3255","longitude":"76.6958","accuracy":"4"},{"address3":"Mirpur","state":"Haryana","state_code":"10","district":"Gurgaon","district_code":"086","address1":"NA","address2":"","latitude":"28.3681","longitude":"76.9408","accuracy":"4"},{"address3":"Tatarpur","state":"Haryana","state_code":"10","district":"Gurgaon","district_code":"086","address1":"NA","address2":"","latitude":"28.3424","longitude":"76.8641","accuracy":"4"},{"address3":"Turkiawas","state":"Haryana","state_code":"10","district":"Gurgaon","district_code":"086","address1":"NA","address2":"","latitude":"28.2486","longitude":"76.696","accuracy":"3"},{"address3":"Kakoria","state":"Haryana","state_code":"10","district":"Gurgaon","district_code":"086","address1":"NA","address2":"","latitude":"28.2486","longitude":"76.696","accuracy":"3"}],"122503":[{"address3":"Baspadamka","state":"Haryana","state_code":"10","district":"Gurgaon","district_code":"086","address1":"NA","address2":"","latitude":"28.3413","longitude":"76.8058","accuracy":"3"},{"address3":"Janaula","state":"Haryana","state_code":"10","district":"Gurgaon","district_code":"086","address1":"NA","address2":"","latitude":"28.3392","longitude":"76.8028","accuracy":"4"},{"address3":"Jamalpur","state":"Haryana","state_code":"10","district":"Gurgaon","district_code":"086","address1":"NA","address2":"","latitude":"28.372","longitude":"76.8387","accuracy":"4"},{"address3":"Unchamajra","state":"Haryana","state_code":"10","district":"Gurgaon","district_code":"086","address1":"NA","address2":"","latitude":"28.3413","longitude":"76.8058","accuracy":"3"},{"address3":"Pataudi","state":"Haryana","state_code":"10","district":"Gurgaon","district_code":"086","address1":"Pataudi","address2":"","latitude":"28.3255","longitude":"76.7786","accuracy":"4"},{"address3":"Narhera","state":"Haryana","state_code":"10","district":"Gurgaon","district_code":"086","address1":"NA","address2":"","latitude":"28.3284","longitude":"76.8032","accuracy":"4"},{"address3":"Baslambi","state":"Haryana","state_code":"10","district":"Gurgaon","district_code":"086","address1":"NA","address2":"","latitude":"28.3413","longitude":"76.8058","accuracy":"3"}],"122504":[{"address3":"Gudhana","state":"Haryana","state_code":"10","district":"Gurgaon","district_code":"086","address1":"Haillymandi","address2":"","latitude":"28.3461","longitude":"76.6928","accuracy":"4"},{"address3":"Haillymandi","state":"Haryana","state_code":"10","district":"Gurgaon","district_code":"086","address1":"Haillymandi","address2":"","latitude":"28.3598","longitude":"76.7487","accuracy":"3"},{"address3":"Khandewia","state":"Haryana","state_code":"10","district":"Gurgaon","district_code":"086","address1":"NA","address2":"","latitude":"28.3598","longitude":"76.7487","accuracy":"3"},{"address3":"Jatauli","state":"Haryana","state_code":"10","district":"Gurgaon","district_code":"086","address1":"NA","address2":"","latitude":"28.3504","longitude":"76.7545","accuracy":"4"},{"address3":"Noorgarh","state":"Haryana","state_code":"10","district":"Gurgaon","district_code":"086","address1":"NA","address2":"","latitude":"28.3598","longitude":"76.7487","accuracy":"3"},{"address3":"Jataula","state":"Haryana","state_code":"10","district":"Gurgaon","district_code":"086","address1":"NA","address2":"","latitude":"28.383","longitude":"76.7989","accuracy":"4"},{"address3":"Karola","state":"Haryana","state_code":"10","district":"Gurgaon","district_code":"086","address1":"NA","address2":"","latitude":"28.3598","longitude":"76.7487","accuracy":"3"},{"address3":"Mehchana","state":"Haryana","state_code":"10","district":"Gurgaon","district_code":"086","address1":"NA","address2":"","latitude":"28.3598","longitude":"76.7487","accuracy":"3"}],"122505":[{"address3":"Mankdola","state":"Haryana","state_code":"10","district":"Gurgaon","district_code":"086","address1":"Garhi Harsaru","address2":"","latitude":"28.4655","longitude":"76.9372","accuracy":"3"},{"address3":"Dhankot","state":"Haryana","state_code":"10","district":"Gurgaon","district_code":"086","address1":"NA","address2":"","latitude":"28.4741","longitude":"76.9593","accuracy":"4"},{"address3":"Bhangrola","state":"Haryana","state_code":"10","district":"Gurgaon","district_code":"086","address1":"NA","address2":"","latitude":"28.4655","longitude":"76.9372","accuracy":"3"},{"address3":"Garhi Harsaru","state":"Haryana","state_code":"10","district":"Gurgaon","district_code":"086","address1":"Garhi Harsaru","address2":"","latitude":"28.4451","longitude":"76.9395","accuracy":"4"},{"address3":"Wazipur","state":"Haryana","state_code":"10","district":"Gurgaon","district_code":"086","address1":"NA","address2":"","latitude":"28.4655","longitude":"76.9372","accuracy":"3"},{"address3":"Budhera","state":"Haryana","state_code":"10","district":"Gurgaon","district_code":"086","address1":"NA","address2":"","latitude":"28.4773","longitude":"76.9127","accuracy":"4"}],"122506":[{"address3":"Sultanpur","state":"Haryana","state_code":"10","district":"Gurgaon","district_code":"086","address1":"NA","address2":"","latitude":"28.4616","longitude":"76.8708","accuracy":"4"},{"address3":"Khera Khurampur","state":"Haryana","state_code":"10","district":"Gurgaon","district_code":"086","address1":"NA","address2":"","latitude":"28.4616","longitude":"76.8708","accuracy":"3"},{"address3":"Farrukh Nagar","state":"Haryana","state_code":"10","district":"Gurgaon","district_code":"086","address1":"Farrukh Nagar","address2":"","latitude":"28.4616","longitude":"76.8708","accuracy":"3"},{"address3":"Sewari","state":"Haryana","state_code":"10","district":"Gurgaon","district_code":"086","address1":"NA","address2":"","latitude":"28.4616","longitude":"76.8708","accuracy":"3"},{"address3":"Patil R.S.","state":"Haryana","state_code":"10","district":"Gurgaon","district_code":"086","address1":"NA","address2":"","latitude":"28.4616","longitude":"76.8708","accuracy":"3"}],"122508":[{"address3":"Gulalta","state":"Haryana","state_code":"10","district":"Gurgaon","district_code":"086","address1":"NA","address2":"","latitude":"28.3681","longitude":"76.9408","accuracy":"4"},{"address3":"Punhana","state":"Haryana","state_code":"10","district":"Gurgaon","district_code":"086","address1":"Punhana","address2":"","latitude":"27.9627","longitude":"77.1646","accuracy":"3"},{"address3":"Nai","state":"Haryana","state_code":"10","district":"Gurgaon","district_code":"086","address1":"NA","address2":"","latitude":"28.3681","longitude":"76.9408","accuracy":"4"},{"address3":"Bichhor","state":"Haryana","state_code":"10","district":"Gurgaon","district_code":"086","address1":"NA","address2":"","latitude":"28.3681","longitude":"76.9408","accuracy":"4"},{"address3":"Khanpur Ghati BO","state":"Haryana","state_code":"10","district":"Gurgaon","district_code":"086","address1":"Punhana","address2":"","latitude":"27.9627","longitude":"77.1646","accuracy":"3"},{"address3":"Sihri Singhalheri","state":"Haryana","state_code":"10","district":"Gurgaon","district_code":"086","address1":"NA","address2":"","latitude":"27.9627","longitude":"77.1646","accuracy":"3"},{"address3":"Bisru","state":"Haryana","state_code":"10","district":"Gurgaon","district_code":"086","address1":"NA","address2":"","latitude":"28.3681","longitude":"76.9408","accuracy":"4"},{"address3":"Naheda","state":"Haryana","state_code":"10","district":"Gurgaon","district_code":"086","address1":"NA","address2":"","latitude":"27.9627","longitude":"77.1646","accuracy":"3"},{"address3":"Singar","state":"Haryana","state_code":"10","district":"Gurgaon","district_code":"086","address1":"NA","address2":"","latitude":"28.3681","longitude":"76.9408","accuracy":"4"},{"address3":"Pingwan","state":"Haryana","state_code":"10","district":"Gurgaon","district_code":"086","address1":"NA","address2":"","latitude":"27.9627","longitude":"77.1646","accuracy":"3"},{"address3":"Sikrawa","state":"Haryana","state_code":"10","district":"Gurgaon","district_code":"086","address1":"NA","address2":"","latitude":"28.3681","longitude":"76.9408","accuracy":"4"},{"address3":"Baded","state":"Haryana","state_code":"10","district":"Gurgaon","district_code":"086","address1":"NA","address2":"","latitude":"27.9627","longitude":"77.1646","accuracy":"3"},{"address3":"Jamalgarh","state":"Haryana","state_code":"10","district":"Gurgaon","district_code":"086","address1":"NA","address2":"","latitude":"28.3681","longitude":"76.9408","accuracy":"4"},{"address3":"Rethath","state":"Haryana","state_code":"10","district":"Gurgaon","district_code":"086","address1":"NA","address2":"","latitude":"27.9627","longitude":"77.1646","accuracy":"3"},{"address3":"Badli","state":"Haryana","state_code":"10","district":"Gurgaon","district_code":"086","address1":"NA","address2":"","latitude":"28.3681","longitude":"76.9408","accuracy":"4"},{"address3":"Shahchokha","state":"Haryana","state_code":"10","district":"Gurgaon","district_code":"086","address1":"NA","address2":"","latitude":"27.9627","longitude":"77.1646","accuracy":"3"},{"address3":"Lohinga Kalan","state":"Haryana","state_code":"10","district":"Gurgaon","district_code":"086","address1":"NA","address2":"","latitude":"27.9627","longitude":"77.1646","accuracy":"3"}],"credits":[{"name":"geonames","url":"https://www.geonames.org"}],"last_update":"2019-03-01T09:01:30.460Z"}