{"124001":[{"address3":"Rohtak Town","state":"Haryana","state_code":"10","district":"Rohtak","district_code":"082","address1":"Rohtak","address2":"","latitude":"28.8917","longitude":"76.6118","accuracy":"4"},{"address3":"Rohtak Sector I","state":"Haryana","state_code":"10","district":"Rohtak","district_code":"082","address1":"Rohtak","address2":"","latitude":"28.8917","longitude":"76.6118","accuracy":"3"},{"address3":"Model Town (Rohtak)","state":"Haryana","state_code":"10","district":"Rohtak","district_code":"082","address1":"Rohtak","address2":"","latitude":"28.8917","longitude":"76.6118","accuracy":"4"},{"address3":"Shivaji Colony","state":"Haryana","state_code":"10","district":"Rohtak","district_code":"082","address1":"Rohtak","address2":"","latitude":"28.8917","longitude":"76.6118","accuracy":"3"},{"address3":"Bus Stand","state":"Haryana","state_code":"10","district":"Rohtak","district_code":"082","address1":"Rohak","address2":"","latitude":"28.8917","longitude":"76.6118","accuracy":"3"},{"address3":"M.D. University Rohtak","state":"Haryana","state_code":"10","district":"Rohtak","district_code":"082","address1":"Rohtak","address2":"","latitude":"28.8917","longitude":"76.6118","accuracy":"3"},{"address3":"Hissar Road Rohtak","state":"Haryana","state_code":"10","district":"Rohtak","district_code":"082","address1":"Rohtak","address2":"","latitude":"28.8917","longitude":"76.6118","accuracy":"3"},{"address3":"Rohtak H.O","state":"Haryana","state_code":"10","district":"Rohtak","district_code":"082","address1":"Rohtak","address2":"","latitude":"28.8917","longitude":"76.6118","accuracy":"3"},{"address3":"Medical College (Rohtak)","state":"Haryana","state_code":"10","district":"Rohtak","district_code":"082","address1":"Rohtak","address2":"","latitude":"28.8917","longitude":"76.6118","accuracy":"3"},{"address3":"Janta Colony Rohtak","state":"Haryana","state_code":"10","district":"Rohtak","district_code":"082","address1":"Rohtak","address2":"","latitude":"28.8917","longitude":"76.6118","accuracy":"3"},{"address3":"Jhajjar Road Rohtak","state":"Haryana","state_code":"10","district":"Rohtak","district_code":"082","address1":"Rohtak","address2":"","latitude":"28.8917","longitude":"76.6118","accuracy":"3"},{"address3":"Gohana Road (Rohtak)","state":"Haryana","state_code":"10","district":"Rohtak","district_code":"082","address1":"Rohtak","address2":"","latitude":"28.8917","longitude":"76.6118","accuracy":"3"},{"address3":"Gandhi Camp","state":"Haryana","state_code":"10","district":"Rohtak","district_code":"082","address1":"Rohtak","address2":"","latitude":"28.8917","longitude":"76.6118","accuracy":"3"},{"address3":"DLF Colony Rohtak","state":"Haryana","state_code":"10","district":"Rohtak","district_code":"082","address1":"Rohtak","address2":"","latitude":"28.8917","longitude":"76.6118","accuracy":"3"}],"124010":[{"address3":"Sunari Kalan","state":"Haryana","state_code":"10","district":"Rohtak","district_code":"082","address1":"Rohtak","address2":"","latitude":"28.861","longitude":"76.569","accuracy":"4"},{"address3":"Dobh","state":"Haryana","state_code":"10","district":"Rohtak","district_code":"082","address1":"Rohtak","address2":"","latitude":"28.8748","longitude":"76.5296","accuracy":"4"},{"address3":"Baland","state":"Haryana","state_code":"10","district":"Rohtak","district_code":"082","address1":"Rohtak","address2":"","latitude":"28.8006","longitude":"76.5845","accuracy":"4"},{"address3":"Police Training College Sunaria","state":"Haryana","state_code":"10","district":"Rohtak","district_code":"082","address1":"Rohtak","address2":"","latitude":"28.8571","longitude":"76.5513","accuracy":"3"},{"address3":"Gaddi Kheri","state":"Haryana","state_code":"10","district":"Rohtak","district_code":"082","address1":"Rohtak","address2":"","latitude":"28.892","longitude":"76.522","accuracy":"4"},{"address3":"Bhali Anandpur","state":"Haryana","state_code":"10","district":"Rohtak","district_code":"082","address1":"Rohtak","address2":"","latitude":"28.8571","longitude":"76.5513","accuracy":"3"},{"address3":"Marodi Jatan","state":"Haryana","state_code":"10","district":"Rohtak","district_code":"082","address1":"Rohtak","address2":"","latitude":"28.8571","longitude":"76.5513","accuracy":"3"},{"address3":"Karontha","state":"Haryana","state_code":"10","district":"Rohtak","district_code":"082","address1":"Rohtak","address2":"","latitude":"28.8571","longitude":"76.5513","accuracy":"3"}],"124021":[{"address3":"Asthal Bohar","state":"Haryana","state_code":"10","district":"Rohtak","district_code":"082","address1":"Rohtak","address2":"","latitude":"28.8773","longitude":"76.6443","accuracy":"4"},{"address3":"Kheri Sadh","state":"Haryana","state_code":"10","district":"Rohtak","district_code":"082","address1":"Rohtak","address2":"","latitude":"28.8601","longitude":"76.6691","accuracy":"4"},{"address3":"Kharawar","state":"Haryana","state_code":"10","district":"Rohtak","district_code":"082","address1":"Rohtak","address2":"","latitude":"28.8338","longitude":"76.6857","accuracy":"4"},{"address3":"Bhambhewa","state":"Haryana","state_code":"10","district":"Rohtak","district_code":"082","address1":"Rohtak","address2":"","latitude":"28.8631","longitude":"76.6515","accuracy":"3"},{"address3":"Bohar","state":"Haryana","state_code":"10","district":"Rohtak","district_code":"082","address1":"Rohtak","address2":"","latitude":"28.8969","longitude":"76.6537","accuracy":"4"},{"address3":"Kanheli","state":"Haryana","state_code":"10","district":"Rohtak","district_code":"082","address1":"Rothak","address2":"","latitude":"28.8631","longitude":"76.6515","accuracy":"3"},{"address3":"Maina","state":"Haryana","state_code":"10","district":"Rohtak","district_code":"082","address1":"Rohtak","address2":"","latitude":"28.8475","longitude":"76.6048","accuracy":"4"},{"address3":"Karor","state":"Haryana","state_code":"10","district":"Rohtak","district_code":"082","address1":"Rohtak","address2":"","latitude":"28.8631","longitude":"76.6515","accuracy":"3"},{"address3":"Pehrawar","state":"Haryana","state_code":"10","district":"Rohtak","district_code":"082","address1":"Rohtak","address2":"","latitude":"28.8631","longitude":"76.6515","accuracy":"3"}],"124022":[{"address3":"Mokhra","state":"Haryana","state_code":"10","district":"Rohtak","district_code":"082","address1":"Mehem","address2":"","latitude":"28.8875","longitude":"76.429","accuracy":"4"},{"address3":"Bahu Akbarpur","state":"Haryana","state_code":"10","district":"Rohtak","district_code":"082","address1":"Rohtak","address2":"","latitude":"28.91","longitude":"76.4767","accuracy":"4"},{"address3":"Basana","state":"Haryana","state_code":"10","district":"Rohtak","district_code":"082","address1":"Mehem","address2":"","latitude":"28.8939","longitude":"76.3718","accuracy":"4"}],"124102":[{"address3":"Mehrana","state":"Haryana","state_code":"10","district":"Jhajjar","district_code":"083","address1":"Jhajjar","address2":"","latitude":"28.6048","longitude":"76.6494","accuracy":"4"},{"address3":"Dujana","state":"Haryana","state_code":"10","district":"Jhajjar","district_code":"083","address1":"Jhajjar","address2":"","latitude":"28.6811","longitude":"76.622","accuracy":"4"},{"address3":"Birdhana","state":"Haryana","state_code":"10","district":"Jhajjar","district_code":"083","address1":"Jhajjar","address2":"","latitude":"28.6679","longitude":"76.5496","accuracy":"3"},{"address3":"Seria","state":"Haryana","state_code":"10","district":"Jhajjar","district_code":"083","address1":"Jhajjar","address2":"","latitude":"28.7174","longitude":"76.6099","accuracy":"4"},{"address3":"Chamanpura","state":"Haryana","state_code":"10","district":"Jhajjar","district_code":"083","address1":"Jhajjar","address2":"","latitude":"28.6679","longitude":"76.5496","accuracy":"3"},{"address3":"Madana Kalan","state":"Haryana","state_code":"10","district":"Jhajjar","district_code":"083","address1":"Jhajjar","address2":"","latitude":"28.7162","longitude":"76.643","accuracy":"4"}],"124103":[{"address3":"Jahazgarh","state":"Haryana","state_code":"10","district":"Jhajjar","district_code":"083","address1":"Jhajjar","address2":"","latitude":"28.639","longitude":"76.5591","accuracy":"4"},{"address3":"Palra","state":"Haryana","state_code":"10","district":"Jhajjar","district_code":"083","address1":"Jhajjar","address2":"","latitude":"28.6048","longitude":"76.6494","accuracy":"4"},{"address3":"Talao","state":"Haryana","state_code":"10","district":"Jhajjar","district_code":"083","address1":"Jhajjar","address2":"","latitude":"28.6071","longitude":"76.6201","accuracy":"4"},{"address3":"Silana","state":"Haryana","state_code":"10","district":"Jhajjar","district_code":"083","address1":"Jhajjar","address2":"","latitude":"28.5467","longitude":"76.6818","accuracy":"4"},{"address3":"Dawla Raiya","state":"Haryana","state_code":"10","district":"Jhajjar","district_code":"083","address1":"Jhajjar","address2":"","latitude":"28.6344","longitude":"76.688","accuracy":"3"},{"address3":"Hasanpur","state":"Haryana","state_code":"10","district":"Jhajjar","district_code":"083","address1":"Jhajjar","address2":"","latitude":"28.5391","longitude":"76.6115","accuracy":"4"},{"address3":"Dadri Toe","state":"Haryana","state_code":"10","district":"Jhajjar","district_code":"083","address1":"Jhajjar","address2":"","latitude":"28.6344","longitude":"76.688","accuracy":"3"},{"address3":"Jhajjar","state":"Haryana","state_code":"10","district":"Jhajjar","district_code":"083","address1":"Jhajjar","address2":"","latitude":"28.6063","longitude":"76.6565","accuracy":"4"},{"address3":"Gawalison","state":"Haryana","state_code":"10","district":"Jhajjar","district_code":"083","address1":"Jhajjar","address2":"","latitude":"28.6344","longitude":"76.688","accuracy":"3"},{"address3":"Gudha","state":"Haryana","state_code":"10","district":"Jhajjar","district_code":"083","address1":"Jhajjar","address2":"","latitude":"28.6412","longitude":"76.6402","accuracy":"4"},{"address3":"Jondhi","state":"Haryana","state_code":"10","district":"Jhajjar","district_code":"083","address1":"Jondhi","address2":"","latitude":"28.6344","longitude":"76.688","accuracy":"3"},{"address3":"Dadanpur","state":"Haryana","state_code":"10","district":"Jhajjar","district_code":"083","address1":"Jhajjar","address2":"","latitude":"28.5053","longitude":"76.662","accuracy":"4"},{"address3":"Yakubpur","state":"Haryana","state_code":"10","district":"Jhajjar","district_code":"083","address1":"Jhajjr","address2":"","latitude":"28.6344","longitude":"76.688","accuracy":"3"},{"address3":"Khatiwas","state":"Haryana","state_code":"10","district":"Jhajjar","district_code":"083","address1":"Jahjjar","address2":"","latitude":"28.6277","longitude":"76.6007","accuracy":"4"},{"address3":"Utlodha","state":"Haryana","state_code":"10","district":"Jhajjar","district_code":"083","address1":"Jhajjar","address2":"","latitude":"28.6344","longitude":"76.688","accuracy":"3"},{"address3":"Sulodha","state":"Haryana","state_code":"10","district":"Jhajjar","district_code":"083","address1":"Jhajjar","address2":"","latitude":"28.6344","longitude":"76.688","accuracy":"3"},{"address3":"Gurukul Jhajjar","state":"Haryana","state_code":"10","district":"Jhajjar","district_code":"083","address1":"Jhajjar","address2":"","latitude":"28.6344","longitude":"76.688","accuracy":"3"},{"address3":"Court Complex Jhajjar","state":"Haryana","state_code":"10","district":"Jhajjar","district_code":"083","address1":"Jhajjar","address2":"","latitude":"28.6344","longitude":"76.688","accuracy":"3"},{"address3":"Kheri Kumar","state":"Haryana","state_code":"10","district":"Jhajjar","district_code":"083","address1":"Jhajajr","address2":"","latitude":"28.6344","longitude":"76.688","accuracy":"3"},{"address3":"Silani","state":"Haryana","state_code":"10","district":"Jhajjar","district_code":"083","address1":"Jhajjar","address2":"","latitude":"28.6344","longitude":"76.688","accuracy":"3"},{"address3":"M.P.Majra","state":"Haryana","state_code":"10","district":"Jhajjar","district_code":"083","address1":"Jhajjar","address2":"","latitude":"28.6344","longitude":"76.688","accuracy":"3"}],"124104":[{"address3":"Kablana","state":"Haryana","state_code":"10","district":"Jhajjar","district_code":"083","address1":"Jhajjar","address2":"","latitude":"28.6199","longitude":"76.7444","accuracy":"4"},{"address3":"Jnv Kiloi","state":"Haryana","state_code":"10","district":"Jhajjar","district_code":"083","address1":"Jhajjar","address2":"","latitude":"28.6197","longitude":"76.737","accuracy":"3"},{"address3":"Bhadani","state":"Haryana","state_code":"10","district":"Jhajjar","district_code":"083","address1":"Jhajjar","address2":"","latitude":"28.6388","longitude":"76.7249","accuracy":"4"},{"address3":"Surha","state":"Haryana","state_code":"10","district":"Jhajjar","district_code":"083","address1":"Jhajjar","address2":"","latitude":"28.6197","longitude":"76.737","accuracy":"3"},{"address3":"Kheri Asra","state":"Haryana","state_code":"10","district":"Jhajjar","district_code":"083","address1":"Jhajjar","address2":"","latitude":"28.6594","longitude":"76.7247","accuracy":"4"},{"address3":"Bajidpur Tappa Haveli","state":"Haryana","state_code":"10","district":"Jhajjar","district_code":"083","address1":"Jhajjar","address2":"","latitude":"28.6197","longitude":"76.737","accuracy":"3"},{"address3":"Jahangirpur","state":"Haryana","state_code":"10","district":"Jhajjar","district_code":"083","address1":"NA","address2":"","latitude":"28.5773","longitude":"76.7393","accuracy":"4"},{"address3":"Ukhal Channa","state":"Haryana","state_code":"10","district":"Jhajjar","district_code":"083","address1":"Jhajjar","address2":"","latitude":"28.6197","longitude":"76.737","accuracy":"3"},{"address3":"Khungai","state":"Haryana","state_code":"10","district":"Jhajjar","district_code":"083","address1":"Jhajjar","address2":"","latitude":"28.6033","longitude":"76.7516","accuracy":"4"},{"address3":"Nehru College Jhajjar","state":"Haryana","state_code":"10","district":"Jhajjar","district_code":"083","address1":"Jhajjar","address2":"","latitude":"28.6197","longitude":"76.737","accuracy":"3"}],"124105":[{"address3":"Sondhi","state":"Haryana","state_code":"10","district":"Jhajjar","district_code":"083","address1":"Jhajjar","address2":"","latitude":"28.5137","longitude":"76.7952","accuracy":"4"},{"address3":"Gubhana","state":"Haryana","state_code":"10","district":"Jhajjar","district_code":"083","address1":"Jhajjar","address2":"","latitude":"28.6019","longitude":"76.8432","accuracy":"4"},{"address3":"Badsa","state":"Haryana","state_code":"10","district":"Jhajjar","district_code":"083","address1":"Jhajjar","address2":"","latitude":"28.5542","longitude":"76.8032","accuracy":"3"},{"address3":"Bamnaula","state":"Haryana","state_code":"10","district":"Jhajjar","district_code":"083","address1":"Jhajjar","address2":"","latitude":"28.539","longitude":"76.7668","accuracy":"4"},{"address3":"Deverkhana","state":"Haryana","state_code":"10","district":"Jhajjar","district_code":"083","address1":"Jhajjar","address2":"","latitude":"28.5542","longitude":"76.8032","accuracy":"3"},{"address3":"Badli (Jhajjar)","state":"Haryana","state_code":"10","district":"Jhajjar","district_code":"083","address1":"Jhajjar","address2":"","latitude":"28.5732","longitude":"76.8096","accuracy":"4"},{"address3":"Bhupnia","state":"Haryana","state_code":"10","district":"Jhajjar","district_code":"083","address1":"Jhajjar","address2":"","latitude":"28.5542","longitude":"76.8032","accuracy":"3"},{"address3":"Kheri Jat","state":"Haryana","state_code":"10","district":"Jhajjar","district_code":"083","address1":"Jhajjar","address2":"","latitude":"28.5972","longitude":"76.7843","accuracy":"4"},{"address3":"Pelpa","state":"Haryana","state_code":"10","district":"Jhajjar","district_code":"083","address1":"Jhajjar","address2":"","latitude":"28.5352","longitude":"76.7997","accuracy":"4"},{"address3":"Ladpur","state":"Haryana","state_code":"10","district":"Jhajjar","district_code":"083","address1":"Bahadurgarh","address2":"","latitude":"28.5553","longitude":"76.7818","accuracy":"4"},{"address3":"Mundakhera","state":"Haryana","state_code":"10","district":"Jhajjar","district_code":"083","address1":"Jhajjar","address2":"","latitude":"28.5181","longitude":"76.8449","accuracy":"4"}],"124106":[{"address3":"Khachrauli","state":"Haryana","state_code":"10","district":"Jhajjar","district_code":"083","address1":"Jhajjar","address2":"","latitude":"28.5606","longitude":"76.4471","accuracy":"3"},{"address3":"Marot","state":"Haryana","state_code":"10","district":"Jhajjar","district_code":"083","address1":"Jhajjar","address2":"","latitude":"28.5913","longitude":"76.5431","accuracy":"4"},{"address3":"Matanhail","state":"Haryana","state_code":"10","district":"Jhajjar","district_code":"083","address1":"Jhajjar","address2":"","latitude":"28.5606","longitude":"76.4471","accuracy":"3"},{"address3":"Birohar","state":"Haryana","state_code":"10","district":"Jhajjar","district_code":"083","address1":"Jhajjar","address2":"","latitude":"28.5842","longitude":"76.38","accuracy":"4"},{"address3":"Nogawan","state":"Haryana","state_code":"10","district":"Jhajjar","district_code":"083","address1":"NA","address2":"","latitude":"28.5606","longitude":"76.4471","accuracy":"3"},{"address3":"Sasroli","state":"Haryana","state_code":"10","district":"Jhajjar","district_code":"083","address1":"Jhajjar","address2":"","latitude":"28.5255","longitude":"76.3963","accuracy":"4"},{"address3":"Sehlenga","state":"Haryana","state_code":"10","district":"Jhajjar","district_code":"083","address1":"Jhajjar","address2":"","latitude":"28.5606","longitude":"76.4471","accuracy":"3"},{"address3":"Jharli","state":"Haryana","state_code":"10","district":"Jhajjar","district_code":"083","address1":"Jharli","address2":"","latitude":"28.4972","longitude":"76.385","accuracy":"4"},{"address3":"Chhuchhakwas","state":"Haryana","state_code":"10","district":"Jhajjar","district_code":"083","address1":"Jhajjar","address2":"","latitude":"28.5606","longitude":"76.4471","accuracy":"3"},{"address3":"Mundsa","state":"Haryana","state_code":"10","district":"Jhajjar","district_code":"083","address1":"Jhajjar","address2":"","latitude":"28.5464","longitude":"76.4781","accuracy":"4"},{"address3":"Achhej","state":"Haryana","state_code":"10","district":"Jhajjar","district_code":"083","address1":"Jhajjar","address2":"","latitude":"28.6192","longitude":"76.4997","accuracy":"4"}],"124107":[{"address3":"Chhochi","state":"Haryana","state_code":"10","district":"Jhajjar","district_code":"083","address1":"Jhajjar","address2":"","latitude":"28.752","longitude":"76.635","accuracy":"3"},{"address3":"Dighal","state":"Haryana","state_code":"10","district":"Jhajjar","district_code":"083","address1":"Jhajjar","address2":"","latitude":"28.7671","longitude":"76.6341","accuracy":"4"},{"address3":"Dhandlan","state":"Haryana","state_code":"10","district":"Jhajjar","district_code":"083","address1":"Jhajjar","address2":"","latitude":"28.752","longitude":"76.635","accuracy":"3"},{"address3":"Barhana","state":"Haryana","state_code":"10","district":"Jhajjar","district_code":"083","address1":"Jhajjar","address2":"","latitude":"28.7572","longitude":"76.6738","accuracy":"4"},{"address3":"Gochhi","state":"Haryana","state_code":"10","district":"Jhajjar","district_code":"083","address1":"Jhajjar","address2":"","latitude":"28.7316","longitude":"76.5971","accuracy":"4"}],"124108":[{"address3":"Lohari","state":"Haryana","state_code":"10","district":"Jhajjar","district_code":"083","address1":"Jhajjar","address2":"","latitude":"28.6048","longitude":"76.6494","accuracy":"4"},{"address3":"Kahri","state":"Haryana","state_code":"10","district":"Jhajjar","district_code":"083","address1":"Jhajjar","address2":"","latitude":"28.4612","longitude":"76.6784","accuracy":"4"},{"address3":"Chhappar","state":"Haryana","state_code":"10","district":"Jhajjar","district_code":"083","address1":"Jhajjar","address2":"","latitude":"28.6048","longitude":"76.6494","accuracy":"4"},{"address3":"Ahri","state":"Haryana","state_code":"10","district":"Jhajjar","district_code":"083","address1":"Jhajjar","address2":"","latitude":"28.4459","longitude":"76.6307","accuracy":"4"},{"address3":"Pataudah","state":"Haryana","state_code":"10","district":"Jhajjar","district_code":"083","address1":"Jhajjar","address2":"","latitude":"29.0372","longitude":"76.7097","accuracy":"3"},{"address3":"Khudan","state":"Haryana","state_code":"10","district":"Jhajjar","district_code":"083","address1":"Jhajjar","address2":"","latitude":"28.4629","longitude":"76.6158","accuracy":"4"},{"address3":"Machrauli","state":"Haryana","state_code":"10","district":"Jhajjar","district_code":"083","address1":"Jhajjar","address2":"","latitude":"28.6048","longitude":"76.6494","accuracy":"4"},{"address3":"Bhatera","state":"Haryana","state_code":"10","district":"Jhajjar","district_code":"083","address1":"Jhajjar","address2":"","latitude":"29.0372","longitude":"76.7097","accuracy":"3"}],"124109":[{"address3":"Darauli","state":"Haryana","state_code":"10","district":"Jhajjar","district_code":"083","address1":"Jhajjar","address2":"","latitude":"28.6048","longitude":"76.6494","accuracy":"4"},{"address3":"Khetawas","state":"Haryana","state_code":"10","district":"Jhajjar","district_code":"083","address1":"Jhajjar","address2":"","latitude":"28.5481","longitude":"76.518","accuracy":"4"},{"address3":"Bilochpura","state":"Haryana","state_code":"10","district":"Jhajjar","district_code":"083","address1":"Jhajjar","address2":"","latitude":"28.6048","longitude":"76.6494","accuracy":"4"},{"address3":"Kasni","state":"Haryana","state_code":"10","district":"Jhajjar","district_code":"083","address1":"Jhajar","address2":"","latitude":"28.5047","longitude":"76.589","accuracy":"4"},{"address3":"Niwada","state":"Haryana","state_code":"10","district":"Jhajjar","district_code":"083","address1":"Jhajjar","address2":"","latitude":"28.6311","longitude":"76.5723","accuracy":"3"},{"address3":"Subana","state":"Haryana","state_code":"10","district":"Jhajjar","district_code":"083","address1":"Jhajjar","address2":"","latitude":"28.4673","longitude":"76.5698","accuracy":"4"},{"address3":"Dhakla","state":"Haryana","state_code":"10","district":"Jhajjar","district_code":"083","address1":"Jhajjar","address2":"","latitude":"28.6048","longitude":"76.6494","accuracy":"4"},{"address3":"Tumbaheri","state":"Haryana","state_code":"10","district":"Jhajjar","district_code":"083","address1":"NA","address2":"","latitude":"28.414","longitude":"76.5403","accuracy":"4"},{"address3":"Surheti","state":"Haryana","state_code":"10","district":"Jhajjar","district_code":"083","address1":"Jhajjar","address2":"","latitude":"28.6311","longitude":"76.5723","accuracy":"3"},{"address3":"Bhindawas","state":"Haryana","state_code":"10","district":"Jhajjar","district_code":"083","address1":"Jhajjar","address2":"","latitude":"28.5541","longitude":"76.5542","accuracy":"4"},{"address3":"Samaspur Majra","state":"Haryana","state_code":"10","district":"Jhajjar","district_code":"083","address1":"Jhajjr","address2":"","latitude":"28.6311","longitude":"76.5723","accuracy":"3"}],"124111":[{"address3":"Girawar","state":"Haryana","state_code":"10","district":"Rohtak","district_code":"082","address1":"Rohtak","address2":"","latitude":"28.957","longitude":"76.4015","accuracy":"3"},{"address3":"Madina","state":"Haryana","state_code":"10","district":"Rohtak","district_code":"082","address1":"Mehem","address2":"","latitude":"28.9421","longitude":"76.4365","accuracy":"4"},{"address3":"Ajaib","state":"Haryana","state_code":"10","district":"Rohtak","district_code":"082","address1":"Rohtak","address2":"","latitude":"28.9828","longitude":"76.4177","accuracy":"4"},{"address3":"Bharan","state":"Haryana","state_code":"10","district":"Rohtak","district_code":"082","address1":"Rohtak","address2":"","latitude":"28.9683","longitude":"76.3874","accuracy":"4"},{"address3":"Kharkhara","state":"Haryana","state_code":"10","district":"Rohtak","district_code":"082","address1":"Mehem","address2":"","latitude":"28.935","longitude":"76.3645","accuracy":"4"}],"124112":[{"address3":"Bhaini Chanderpal","state":"Haryana","state_code":"10","district":"Rohtak","district_code":"082","address1":"Mehem","address2":"","latitude":"29.3352","longitude":"76.1416","accuracy":"3"},{"address3":"Behlba","state":"Haryana","state_code":"10","district":"Rohtak","district_code":"082","address1":"Mehem","address2":"","latitude":"29.3352","longitude":"76.1416","accuracy":"3"},{"address3":"Bhaini Surjan","state":"Haryana","state_code":"10","district":"Rohtak","district_code":"082","address1":"Mehem","address2":"","latitude":"29.3352","longitude":"76.1416","accuracy":"3"},{"address3":"Bhaini Bharon","state":"Haryana","state_code":"10","district":"Rohtak","district_code":"082","address1":"Mehem","address2":"","latitude":"29.3352","longitude":"76.1416","accuracy":"3"},{"address3":"Farmana","state":"Haryana","state_code":"10","district":"Rohtak","district_code":"082","address1":"Mehem","address2":"","latitude":"29.0495","longitude":"76.3494","accuracy":"4"},{"address3":"Sisarkhas","state":"Haryana","state_code":"10","district":"Rohtak","district_code":"082","address1":"Mehem","address2":"","latitude":"29.3352","longitude":"76.1416","accuracy":"3"},{"address3":"Mehem","state":"Haryana","state_code":"10","district":"Rohtak","district_code":"082","address1":"Mehem","address2":"","latitude":"29.3352","longitude":"76.1416","accuracy":"3"},{"address3":"Bhanimaharajpur","state":"Haryana","state_code":"10","district":"Rohtak","district_code":"082","address1":"Mehem","address2":"","latitude":"29.3352","longitude":"76.1416","accuracy":"3"},{"address3":"Saman","state":"Haryana","state_code":"10","district":"Rohtak","district_code":"082","address1":"NA","address2":"","latitude":"28.9145","longitude":"76.5292","accuracy":"4"}],"124113":[{"address3":"Kalanaur (Rohtak)","state":"Haryana","state_code":"10","district":"Rohtak","district_code":"082","address1":"Rohtak","address2":"","latitude":"28.1853","longitude":"77.4127","accuracy":"3"},{"address3":"Khairari","state":"Haryana","state_code":"10","district":"Rohtak","district_code":"082","address1":"Rohtak","address2":"","latitude":"28.1853","longitude":"77.4127","accuracy":"3"},{"address3":"Katesra","state":"Haryana","state_code":"10","district":"Rohtak","district_code":"082","address1":"Rohtak","address2":"","latitude":"28.9145","longitude":"76.5292","accuracy":"4"},{"address3":"Nigana","state":"Haryana","state_code":"10","district":"Rohtak","district_code":"082","address1":"Rohtak","address2":"","latitude":"28.1853","longitude":"77.4127","accuracy":"3"},{"address3":"Sampel","state":"Haryana","state_code":"10","district":"Rohtak","district_code":"082","address1":"Rohtak","address2":"","latitude":"28.1853","longitude":"77.4127","accuracy":"3"}],"124141":[{"address3":"Power Plant Jharli","state":"Haryana","state_code":"10","district":"Rohtak","district_code":"082","address1":"Rohtak","address2":"","latitude":"28.4763","longitude":"76.3987","accuracy":"1"}],"124142":[{"address3":"Bahu","state":"Haryana","state_code":"10","district":"Jhajjar","district_code":"083","address1":"Jhajjar","address2":"","latitude":"28.4539","longitude":"76.3276","accuracy":"4"},{"address3":"Goria","state":"Haryana","state_code":"10","district":"Jhajjar","district_code":"083","address1":"Jhajjar","address2":"","latitude":"28.4547","longitude":"76.3798","accuracy":"4"},{"address3":"Khorra","state":"Haryana","state_code":"10","district":"Jhajjar","district_code":"083","address1":"Jhajjar","address2":"","latitude":"28.4821","longitude":"76.3036","accuracy":"4"},{"address3":"Jhamri","state":"Haryana","state_code":"10","district":"Jhajjar","district_code":"083","address1":"NA","address2":"","latitude":"28.5031","longitude":"76.3459","accuracy":"4"},{"address3":"Khanpur Khurd","state":"Haryana","state_code":"10","district":"Jhajjar","district_code":"083","address1":"Jhajjar","address2":"","latitude":"28.4703","longitude":"76.3532","accuracy":"4"}],"124146":[{"address3":"Jhanswa Kalan","state":"Haryana","state_code":"10","district":"Jhajjar","district_code":"083","address1":"Jhanswakalan","address2":"","latitude":"28.482","longitude":"76.4931","accuracy":"3"},{"address3":"Bhurawas","state":"Haryana","state_code":"10","district":"Jhajjar","district_code":"083","address1":"Jhajjar","address2":"","latitude":"28.4734","longitude":"76.4903","accuracy":"4"},{"address3":"Akheri Madanpur","state":"Haryana","state_code":"10","district":"Jhajjar","district_code":"083","address1":"Jhajjar","address2":"","latitude":"28.482","longitude":"76.4931","accuracy":"3"},{"address3":"Nilaheri","state":"Haryana","state_code":"10","district":"Jhajjar","district_code":"083","address1":"Jhajjar","address2":"","latitude":"28.4898","longitude":"76.5159","accuracy":"4"},{"address3":"Birar","state":"Haryana","state_code":"10","district":"Jhajjar","district_code":"083","address1":"Jhajjar","address2":"","latitude":"28.482","longitude":"76.4931","accuracy":"3"},{"address3":"Ladain","state":"Haryana","state_code":"10","district":"Jhajjar","district_code":"083","address1":"Jhamri","address2":"","latitude":"28.483","longitude":"76.4732","accuracy":"4"},{"address3":"Sahlawas","state":"Haryana","state_code":"10","district":"Jhajjar","district_code":"083","address1":"Jhajjar","address2":"","latitude":"28.482","longitude":"76.4931","accuracy":"3"},{"address3":"Mundahera","state":"Haryana","state_code":"10","district":"Jhajjar","district_code":"083","address1":"Jhajjar","address2":"","latitude":"28.482","longitude":"76.4931","accuracy":"3"}],"124201":[{"address3":"Dhaur","state":"Haryana","state_code":"10","district":"Jhajjar","district_code":"083","address1":"Jhajjar","address2":"","latitude":"28.6555","longitude":"76.6092","accuracy":"4"},{"address3":"Ritauli","state":"Haryana","state_code":"10","district":"Jhajjar","district_code":"083","address1":"Jhajjar","address2":"","latitude":"28.6048","longitude":"76.6494","accuracy":"4"},{"address3":"Beri","state":"Haryana","state_code":"10","district":"Jhajjar","district_code":"083","address1":"Jhajjar","address2":"","latitude":"28.7015","longitude":"76.5771","accuracy":"4"},{"address3":"Bishan","state":"Haryana","state_code":"10","district":"Jhajjar","district_code":"083","address1":"Jhajjar","address2":"","latitude":"28.9176","longitude":"76.6176","accuracy":"3"},{"address3":"Kabulpur","state":"Haryana","state_code":"10","district":"Jhajjar","district_code":"083","address1":"Jhajjar","address2":"","latitude":"28.6048","longitude":"76.6494","accuracy":"4"},{"address3":"Bakra","state":"Haryana","state_code":"10","district":"Jhajjar","district_code":"083","address1":"Jhajjar","address2":"","latitude":"28.9176","longitude":"76.6176","accuracy":"3"},{"address3":"Baghpur","state":"Haryana","state_code":"10","district":"Jhajjar","district_code":"083","address1":"Jhajjar","address2":"","latitude":"28.9176","longitude":"76.6176","accuracy":"3"}],"124202":[{"address3":"Majra","state":"Haryana","state_code":"10","district":"Jhajjar","district_code":"083","address1":"Jhajjar","address2":"","latitude":"28.6681","longitude":"76.455","accuracy":"4"},{"address3":"Pilana","state":"Haryana","state_code":"10","district":"Jhajjar","district_code":"083","address1":"Jhajjar","address2":"","latitude":"28.6853","longitude":"76.4613","accuracy":"3"},{"address3":"Dubaldhan","state":"Haryana","state_code":"10","district":"Jhajjar","district_code":"083","address1":"Jhajjar","address2":"","latitude":"28.6831","longitude":"76.4881","accuracy":"4"},{"address3":"Sewana","state":"Haryana","state_code":"10","district":"Jhajjar","district_code":"083","address1":"Jhajjar","address2":"","latitude":"28.7048","longitude":"76.4408","accuracy":"4"}],"124303":[{"address3":"Chamaria","state":"Haryana","state_code":"10","district":"Rohtak","district_code":"082","address1":"Rohtak","address2":"","latitude":"29.0038","longitude":"76.6257","accuracy":"3"},{"address3":"Khidwali","state":"Haryana","state_code":"10","district":"Rohtak","district_code":"082","address1":"Rohtak","address2":"","latitude":"29.0038","longitude":"76.6257","accuracy":"3"},{"address3":"Sanghi","state":"Haryana","state_code":"10","district":"Rohtak","district_code":"082","address1":"Rohtak","address2":"","latitude":"29.0286","longitude":"76.6155","accuracy":"4"},{"address3":"Jassia","state":"Haryana","state_code":"10","district":"Rohtak","district_code":"082","address1":"Rohtak","address2":"","latitude":"29.0038","longitude":"76.6257","accuracy":"3"},{"address3":"Rithal","state":"Haryana","state_code":"10","district":"Rohtak","district_code":"082","address1":"Rohtak","address2":"","latitude":"29.0038","longitude":"76.6257","accuracy":"3"},{"address3":"Jindran","state":"Haryana","state_code":"10","district":"Rohtak","district_code":"082","address1":"Rohtak","address2":"","latitude":"28.9974","longitude":"76.5745","accuracy":"4"},{"address3":"Ghillaur Kalan","state":"Haryana","state_code":"10","district":"Rohtak","district_code":"082","address1":"Rohtak","address2":"","latitude":"29.0038","longitude":"76.6257","accuracy":"3"},{"address3":"Kahni","state":"Haryana","state_code":"10","district":"Rohtak","district_code":"082","address1":"Rohtak","address2":"","latitude":"29.0149","longitude":"76.6758","accuracy":"4"},{"address3":"Basantpur","state":"Haryana","state_code":"10","district":"Rohtak","district_code":"082","address1":"Rohtak","address2":"","latitude":"28.9742","longitude":"76.6369","accuracy":"4"}],"124401":[{"address3":"Baliana","state":"Haryana","state_code":"10","district":"Rohtak","district_code":"082","address1":"Rohtak","address2":"","latitude":"28.8803","longitude":"76.6922","accuracy":"4"},{"address3":"Dhamar","state":"Haryana","state_code":"10","district":"Rohtak","district_code":"082","address1":"Rohtak","address2":"","latitude":"28.964","longitude":"76.6757","accuracy":"4"},{"address3":"Makrauli Kalan","state":"Haryana","state_code":"10","district":"Rohtak","district_code":"082","address1":"Rohtak","address2":"","latitude":"28.9498","longitude":"76.6444","accuracy":"4"},{"address3":"Rurkee","state":"Haryana","state_code":"10","district":"Rohtak","district_code":"082","address1":"Rohtak","address2":"","latitude":"28.9324","longitude":"76.6991","accuracy":"3"},{"address3":"Polangi","state":"Haryana","state_code":"10","district":"Rohtak","district_code":"082","address1":"Rohtak","address2":"","latitude":"28.9491","longitude":"76.7593","accuracy":"4"},{"address3":"Mungain","state":"Haryana","state_code":"10","district":"Rohtak","district_code":"082","address1":"Rohtak","address2":"","latitude":"28.9324","longitude":"76.6991","accuracy":"3"},{"address3":"Kiloi","state":"Haryana","state_code":"10","district":"Rohtak","district_code":"082","address1":"Rohtak","address2":"","latitude":"28.9465","longitude":"76.7174","accuracy":"4"},{"address3":"Paksma","state":"Haryana","state_code":"10","district":"Rohtak","district_code":"082","address1":"Rohtak","address2":"","latitude":"28.9324","longitude":"76.6991","accuracy":"3"},{"address3":"Bhalaut","state":"Haryana","state_code":"10","district":"Rohtak","district_code":"082","address1":"Rohtak","address2":"","latitude":"28.9045","longitude":"76.7059","accuracy":"4"},{"address3":"Ladout","state":"Haryana","state_code":"10","district":"Rohtak","district_code":"082","address1":"Rohtak","address2":"","latitude":"28.9324","longitude":"76.6991","accuracy":"3"}],"124404":[{"address3":"Nilothi","state":"Haryana","state_code":"10","district":"Rohtak","district_code":"082","address1":"Rohtak","address2":"","latitude":"28.9145","longitude":"76.5292","accuracy":"4"},{"address3":"Samchana","state":"Haryana","state_code":"10","district":"Rohtak","district_code":"082","address1":"Rohtak","address2":"","latitude":"28.8379","longitude":"76.8077","accuracy":"4"},{"address3":"Hassangarh","state":"Haryana","state_code":"10","district":"Jhajjar","district_code":"083","address1":"Bahadurgarh","address2":"","latitude":"28.8238","longitude":"76.8415","accuracy":"3"}],"124406":[{"address3":"Morekheri","state":"Haryana","state_code":"10","district":"Rohtak","district_code":"082","address1":"Rohtak","address2":"","latitude":"28.9046","longitude":"76.8039","accuracy":"3"},{"address3":"Bakheta","state":"Haryana","state_code":"10","district":"Rohtak","district_code":"082","address1":"Rohtak","address2":"","latitude":"28.9213","longitude":"76.8122","accuracy":"4"},{"address3":"Assan","state":"Haryana","state_code":"10","district":"Rohtak","district_code":"082","address1":"Rohtak","address2":"","latitude":"28.9046","longitude":"76.8039","accuracy":"3"},{"address3":"Kansala","state":"Haryana","state_code":"10","district":"Rohtak","district_code":"082","address1":"Rohtak","address2":"","latitude":"28.8934","longitude":"76.7823","accuracy":"4"},{"address3":"Humayunpur","state":"Haryana","state_code":"10","district":"Rohtak","district_code":"082","address1":"Rohtak","address2":"","latitude":"28.8992","longitude":"76.8172","accuracy":"4"}],"124411":[{"address3":"Patwapur","state":"Haryana","state_code":"10","district":"Rohtak","district_code":"082","address1":"Rohtak","address2":"","latitude":"28.818","longitude":"76.4997","accuracy":"4"},{"address3":"Garhi Ballab","state":"Haryana","state_code":"10","district":"Rohtak","district_code":"082","address1":"Rohtak","address2":"","latitude":"28.8308","longitude":"76.4667","accuracy":"3"},{"address3":"Banyani","state":"Haryana","state_code":"10","district":"Rohtak","district_code":"082","address1":"Rohtak","address2":"","latitude":"28.8308","longitude":"76.4667","accuracy":"3"},{"address3":"Lahli","state":"Haryana","state_code":"10","district":"Rohtak","district_code":"082","address1":"Rohtak","address2":"","latitude":"28.8528","longitude":"76.4546","accuracy":"4"},{"address3":"Anwal","state":"Haryana","state_code":"10","district":"Rohtak","district_code":"082","address1":"Rohtak","address2":"","latitude":"28.8216","longitude":"76.4457","accuracy":"4"}],"124412":[{"address3":"Garnauthi","state":"Haryana","state_code":"10","district":"Rohtak","district_code":"082","address1":"Rohtak","address2":"","latitude":"28.7686","longitude":"76.5125","accuracy":"3"},{"address3":"Dharana","state":"Haryana","state_code":"10","district":"Rohtak","district_code":"082","address1":"Rohtak","address2":"","latitude":"28.7686","longitude":"76.5125","accuracy":"3"},{"address3":"Sundana","state":"Haryana","state_code":"10","district":"Rohtak","district_code":"082","address1":"Rohtak","address2":"","latitude":"28.7826","longitude":"76.5292","accuracy":"4"},{"address3":"Chimni","state":"Haryana","state_code":"10","district":"Rohtak","district_code":"082","address1":"Rohtak","address2":"","latitude":"28.9145","longitude":"76.5292","accuracy":"4"},{"address3":"Kakrana","state":"Haryana","state_code":"10","district":"Rohtak","district_code":"082","address1":"Rohtak","address2":"","latitude":"28.8034","longitude":"76.5486","accuracy":"4"},{"address3":"Kahnaur","state":"Haryana","state_code":"10","district":"Rohtak","district_code":"082","address1":"Rohtak","address2":"","latitude":"28.7614","longitude":"76.489","accuracy":"4"}],"124501":[{"address3":"Nonand","state":"Haryana","state_code":"10","district":"Rohtak","district_code":"082","address1":"Rohtak","address2":"","latitude":"28.8388","longitude":"76.8036","accuracy":"3"},{"address3":"Bhaproda","state":"Haryana","state_code":"10","district":"Rohtak","district_code":"082","address1":"Rohtak","address2":"","latitude":"28.8388","longitude":"76.8036","accuracy":"3"},{"address3":"Gijhi","state":"Haryana","state_code":"10","district":"Rohtak","district_code":"082","address1":"Rohtak","address2":"","latitude":"28.8111","longitude":"76.7749","accuracy":"4"},{"address3":"Garhi","state":"Haryana","state_code":"10","district":"Rohtak","district_code":"082","address1":"NA","address2":"","latitude":"28.8388","longitude":"76.8036","accuracy":"3"},{"address3":"Matan","state":"Haryana","state_code":"10","district":"Rohtak","district_code":"082","address1":"Rohtak","address2":"","latitude":"28.9145","longitude":"76.5292","accuracy":"4"},{"address3":"Chuliyana","state":"Haryana","state_code":"10","district":"Rohtak","district_code":"082","address1":"Rohtak","address2":"","latitude":"28.8388","longitude":"76.8036","accuracy":"3"},{"address3":"Gandhra","state":"Haryana","state_code":"10","district":"Rohtak","district_code":"082","address1":"Rohtak","address2":"","latitude":"28.8303","longitude":"76.7288","accuracy":"4"},{"address3":"Dehkora","state":"Haryana","state_code":"10","district":"Rohtak","district_code":"082","address1":"Rohtak","address2":"","latitude":"28.8388","longitude":"76.8036","accuracy":"3"},{"address3":"Rohad","state":"Haryana","state_code":"10","district":"Rohtak","district_code":"082","address1":"Rohtak","address2":"","latitude":"28.9145","longitude":"76.5292","accuracy":"4"},{"address3":"Ismaila","state":"Haryana","state_code":"10","district":"Rohtak","district_code":"082","address1":"Rohtak","address2":"","latitude":"28.7942","longitude":"76.7383","accuracy":"4"},{"address3":"Kharhar","state":"Haryana","state_code":"10","district":"Rohtak","district_code":"082","address1":"Rohtak","address2":"","latitude":"28.9145","longitude":"76.5292","accuracy":"4"},{"address3":"Kultana","state":"Haryana","state_code":"10","district":"Rohtak","district_code":"082","address1":"Rohtak","address2":"","latitude":"28.9145","longitude":"76.5292","accuracy":"4"},{"address3":"Loharheri","state":"Haryana","state_code":"10","district":"Rohtak","district_code":"082","address1":"Rohtak","address2":"","latitude":"28.9145","longitude":"76.5292","accuracy":"4"},{"address3":"Bhainsru Kalan","state":"Haryana","state_code":"10","district":"Rohtak","district_code":"082","address1":"Rohtak","address2":"","latitude":"28.9145","longitude":"76.5292","accuracy":"4"},{"address3":"Atail","state":"Haryana","state_code":"10","district":"Rohtak","district_code":"082","address1":"Rohtak","address2":"","latitude":"28.9145","longitude":"76.5292","accuracy":"4"},{"address3":"Naya Bans","state":"Haryana","state_code":"10","district":"Rohtak","district_code":"082","address1":"Rohtak","address2":"","latitude":"28.9145","longitude":"76.5292","accuracy":"4"},{"address3":"Sampla","state":"Haryana","state_code":"10","district":"Jhajjar","district_code":"083","address1":"Bahadurgarh","address2":"","latitude":"28.6048","longitude":"76.6494","accuracy":"4"}],"124504":[{"address3":"Chudani","state":"Haryana","state_code":"10","district":"Jhajjar","district_code":"083","address1":"Bahadurgarh","address2":"","latitude":"28.7918","longitude":"76.8258","accuracy":"1"},{"address3":"Charra","state":"Haryana","state_code":"10","district":"Jhajjar","district_code":"083","address1":"Bahadurgarh","address2":"","latitude":"28.7918","longitude":"76.8258","accuracy":"1"},{"address3":"Rewari Khera","state":"Haryana","state_code":"10","district":"Jhajjar","district_code":"083","address1":"Bahadurgarh","address2":"","latitude":"28.7918","longitude":"76.8258","accuracy":"1"}],"124505":[{"address3":"Barahi","state":"Haryana","state_code":"10","district":"Jhajjar","district_code":"083","address1":"Bahadurgarh","address2":"","latitude":"28.7356","longitude":"76.895","accuracy":"4"},{"address3":"Assaudha","state":"Haryana","state_code":"10","district":"Jhajjar","district_code":"083","address1":"Bahadurgarh","address2":"","latitude":"28.7554","longitude":"76.904","accuracy":"3"},{"address3":"Jakhauda","state":"Haryana","state_code":"10","district":"Jhajjar","district_code":"083","address1":"Bahadurgarh","address2":"","latitude":"28.7262","longitude":"76.8722","accuracy":"4"},{"address3":"Bamnoli","state":"Haryana","state_code":"10","district":"Jhajjar","district_code":"083","address1":"Bahadurgarh","address2":"","latitude":"28.7554","longitude":"76.904","accuracy":"3"},{"address3":"Kulasi","state":"Haryana","state_code":"10","district":"Jhajjar","district_code":"083","address1":"Bahadurgarh","address2":"","latitude":"28.7729","longitude":"76.9124","accuracy":"4"},{"address3":"Kanonda","state":"Haryana","state_code":"10","district":"Jhajjar","district_code":"083","address1":"Bahadurgarh","address2":"","latitude":"28.7554","longitude":"76.904","accuracy":"3"},{"address3":"Ladrawan","state":"Haryana","state_code":"10","district":"Jhajjar","district_code":"083","address1":"Bahadurgarh","address2":"","latitude":"28.7866","longitude":"76.9365","accuracy":"4"},{"address3":"Jassaur Kheri","state":"Haryana","state_code":"10","district":"Jhajjar","district_code":"083","address1":"Bahadurgarh","address2":"","latitude":"28.7554","longitude":"76.904","accuracy":"3"}],"124506":[{"address3":"Tandaheri","state":"Haryana","state_code":"10","district":"Jhajjar","district_code":"083","address1":"Jhajjar","address2":"","latitude":"28.691","longitude":"76.8561","accuracy":"4"},{"address3":"Mandothi","state":"Haryana","state_code":"10","district":"Jhajjar","district_code":"083","address1":"Bahadurgarh","address2":"","latitude":"28.691","longitude":"76.8561","accuracy":"3"}],"124507":[{"address3":"Bahadurgarh Sector 6","state":"Haryana","state_code":"10","district":"Jhajjar","district_code":"083","address1":"Bahadurgarh","address2":"","latitude":"28.7918","longitude":"76.8258","accuracy":"1"},{"address3":"Line Par Bahadurgarh","state":"Haryana","state_code":"10","district":"Jhajjar","district_code":"083","address1":"Bahadurgarh","address2":"","latitude":"28.7918","longitude":"76.8258","accuracy":"1"},{"address3":"Main Bazar,Bahadurgarh ","state":"Haryana","state_code":"10","district":"Jhajjar","district_code":"083","address1":"Bahadurgarh","address2":"","latitude":"28.7918","longitude":"76.8258","accuracy":"1"},{"address3":"I.A.Bahadurgarh","state":"Haryana","state_code":"10","district":"Jhajjar","district_code":"083","address1":"Bahadurgarh","address2":"","latitude":"28.7918","longitude":"76.8258","accuracy":"1"},{"address3":"Bahadurgarh H.O","state":"Haryana","state_code":"10","district":"Jhajjar","district_code":"083","address1":"Bahadurgarh","address2":"","latitude":"28.7918","longitude":"76.8258","accuracy":"1"}],"124508":[{"address3":"Sankhol","state":"Haryana","state_code":"10","district":"Jhajjar","district_code":"083","address1":"Bahadurgarh","address2":"","latitude":"28.6328","longitude":"76.7875","accuracy":"3"},{"address3":"Dulhera","state":"Haryana","state_code":"10","district":"Jhajjar","district_code":"083","address1":"Bahadurgarh","address2":"","latitude":"28.6457","longitude":"76.7865","accuracy":"4"},{"address3":"Kharman","state":"Haryana","state_code":"10","district":"Jhajjar","district_code":"083","address1":"Bahadurgarh","address2":"","latitude":"28.6328","longitude":"76.7875","accuracy":"3"},{"address3":"Goela Kalan","state":"Haryana","state_code":"10","district":"Jhajjar","district_code":"083","address1":"Bahadurgarh","address2":"","latitude":"28.6199","longitude":"76.7885","accuracy":"4"},{"address3":"Luksar","state":"Haryana","state_code":"10","district":"Jhajjar","district_code":"083","address1":"Bahaudrgarh","address2":"","latitude":"28.6328","longitude":"76.7875","accuracy":"3"},{"address3":"Soldha","state":"Haryana","state_code":"10","district":"Jhajjar","district_code":"083","address1":"Bahadurarh","address2":"","latitude":"28.6328","longitude":"76.7875","accuracy":"3"},{"address3":"Noona Majra","state":"Haryana","state_code":"10","district":"Jhajjar","district_code":"083","address1":"Bahadurgarh","address2":"","latitude":"28.6328","longitude":"76.7875","accuracy":"3"},{"address3":"Bahadurgarh Mandi","state":"Haryana","state_code":"10","district":"Jhajjar","district_code":"083","address1":"Bahadurgarh","address2":"","latitude":"28.6328","longitude":"76.7875","accuracy":"3"},{"address3":"Kassar","state":"Haryana","state_code":"10","district":"Jhajjar","district_code":"083","address1":"Bahadurgarh","address2":"","latitude":"28.6328","longitude":"76.7875","accuracy":"3"},{"address3":"Daboda Kalan","state":"Haryana","state_code":"10","district":"Jhajjar","district_code":"083","address1":"Bahadurgarh","address2":"","latitude":"28.6328","longitude":"76.7875","accuracy":"3"},{"address3":"Daboda Khurd","state":"Haryana","state_code":"10","district":"Jhajjar","district_code":"083","address1":"Bahadurgarh","address2":"","latitude":"28.6328","longitude":"76.7875","accuracy":"3"},{"address3":"Lowa Kalan","state":"Haryana","state_code":"10","district":"Jhajjar","district_code":"083","address1":"Bahaudrgarh","address2":"","latitude":"28.6328","longitude":"76.7875","accuracy":"3"}],"124513":[{"address3":"Nindana","state":"Haryana","state_code":"10","district":"Rohtak","district_code":"082","address1":"Mehem","address2":"","latitude":"28.9642","longitude":"76.4989","accuracy":"1"}],"124514":[{"address3":"Singhpura Kalan","state":"Haryana","state_code":"10","district":"Rohtak","district_code":"082","address1":"Rohtak","address2":"","latitude":"28.9233","longitude":"76.5485","accuracy":"4"},{"address3":"Sunderpur","state":"Haryana","state_code":"10","district":"Rohtak","district_code":"082","address1":"Rohtak","address2":"","latitude":"28.9145","longitude":"76.5292","accuracy":"4"},{"address3":"Bainsi","state":"Haryana","state_code":"10","district":"Rohtak","district_code":"082","address1":"Mehem","address2":"","latitude":"29.0339","longitude":"76.416","accuracy":"4"},{"address3":"Nandal","state":"Haryana","state_code":"10","district":"Rohtak","district_code":"082","address1":"Mehem","address2":"","latitude":"29.0664","longitude":"76.4983","accuracy":"4"},{"address3":"Gharauthi","state":"Haryana","state_code":"10","district":"Rohtak","district_code":"082","address1":"NA","address2":"","latitude":"28.9642","longitude":"76.4989","accuracy":"3"},{"address3":"Titauli","state":"Haryana","state_code":"10","district":"Rohtak","district_code":"082","address1":"Rohtak","address2":"","latitude":"28.9642","longitude":"76.4989","accuracy":"3"},{"address3":"Chiri","state":"Haryana","state_code":"10","district":"Rohtak","district_code":"082","address1":"Rohtak","address2":"","latitude":"29.0602","longitude":"76.535","accuracy":"4"},{"address3":"Nidana","state":"Haryana","state_code":"10","district":"Rohtak","district_code":"082","address1":"Mehem","address2":"","latitude":"29.0095","longitude":"76.3762","accuracy":"4"},{"address3":"Samargopalpur","state":"Haryana","state_code":"10","district":"Rohtak","district_code":"082","address1":"Rohtak","address2":"","latitude":"28.9642","longitude":"76.4989","accuracy":"3"},{"address3":"Kharainti","state":"Haryana","state_code":"10","district":"Rohtak","district_code":"082","address1":"Mehem","address2":"","latitude":"28.9642","longitude":"76.4989","accuracy":"3"},{"address3":"Gugaheri","state":"Haryana","state_code":"10","district":"Rohtak","district_code":"082","address1":"Mehem","address2":"","latitude":"29.0491","longitude":"76.4024","accuracy":"4"},{"address3":"Bhagwatipur","state":"Haryana","state_code":"10","district":"Rohtak","district_code":"082","address1":"Mehem","address2":"","latitude":"28.9642","longitude":"76.4989","accuracy":"3"},{"address3":"Chandi","state":"Haryana","state_code":"10","district":"Rohtak","district_code":"082","address1":"Mehem","address2":"","latitude":"29.0312","longitude":"76.5027","accuracy":"4"},{"address3":"Lakhan Majra","state":"Haryana","state_code":"10","district":"Rohtak","district_code":"082","address1":"Mehem","address2":"","latitude":"29.0443","longitude":"76.4776","accuracy":"4"}],"credits":[{"name":"geonames","url":"https://www.geonames.org"}],"last_update":"2019-03-01T09:01:30.423Z"}