{"141001":[{"address3":"Sidhpeeth","state":"Punjab","state_code":"23","district":"Ludhiana","district_code":"041","address1":"Ludhiana","address2":"","latitude":"31.3267","longitude":"75.6916","accuracy":"1"},{"address3":"Sarabha Nagar","state":"Punjab","state_code":"23","district":"Ludhiana","district_code":"041","address1":"Ludhiana","address2":"","latitude":"31.3267","longitude":"75.6916","accuracy":"1"},{"address3":"P&t Colony (Ludhiana)","state":"Punjab","state_code":"23","district":"Ludhiana","district_code":"041","address1":"Ludhiana","address2":"","latitude":"31.3267","longitude":"75.6916","accuracy":"1"},{"address3":"Ludhiana H.O","state":"Punjab","state_code":"23","district":"Ludhiana","district_code":"041","address1":"Bharat Nagar Chowk","address2":"","latitude":"31.3267","longitude":"75.6916","accuracy":"1"},{"address3":"Ludhiana Kty","state":"Punjab","state_code":"23","district":"Ludhiana","district_code":"041","address1":"Ludhiana","address2":"","latitude":"31.3267","longitude":"75.6916","accuracy":"1"},{"address3":"New Courts","state":"Punjab","state_code":"23","district":"Ludhiana","district_code":"041","address1":"NA","address2":"","latitude":"31.3267","longitude":"75.6916","accuracy":"1"},{"address3":"Durgapuri","state":"Punjab","state_code":"23","district":"Ludhiana","district_code":"041","address1":"Ludhiana","address2":"","latitude":"31.3267","longitude":"75.6916","accuracy":"1"},{"address3":"Bharat Nagar (Ludhiana)","state":"Punjab","state_code":"23","district":"Ludhiana","district_code":"041","address1":"Ludhiana","address2":"","latitude":"31.3267","longitude":"75.6916","accuracy":"1"},{"address3":"Satsang Road","state":"Punjab","state_code":"23","district":"Ludhiana","district_code":"041","address1":"Ludhiana","address2":"","latitude":"31.3267","longitude":"75.6916","accuracy":"1"}],"141002":[{"address3":"New Model Town","state":"Punjab","state_code":"23","district":"Ludhiana","district_code":"041","address1":"Ludhiana","address2":"","latitude":"30.8087","longitude":"75.8382","accuracy":"4"},{"address3":"Model Town (Ludhiana)","state":"Punjab","state_code":"23","district":"Ludhiana","district_code":"041","address1":"Ludhiana","address2":"","latitude":"31.3801","longitude":"75.3811","accuracy":"3"}],"141003":[{"address3":"Indl  Colony","state":"Punjab","state_code":"23","district":"Ludhiana","district_code":"041","address1":"Ludhiana","address2":"","latitude":"31.3267","longitude":"75.6916","accuracy":"1"},{"address3":"Shimlapuri","state":"Punjab","state_code":"23","district":"Ludhiana","district_code":"041","address1":"Ludhiana","address2":"","latitude":"31.3267","longitude":"75.6916","accuracy":"1"},{"address3":"Labour Colony (Ludhiana)","state":"Punjab","state_code":"23","district":"Ludhiana","district_code":"041","address1":"Ludhiana","address2":"","latitude":"31.3267","longitude":"75.6916","accuracy":"1"},{"address3":"Millerganj","state":"Punjab","state_code":"23","district":"Ludhiana","district_code":"041","address1":"Ludhiana","address2":"","latitude":"31.3267","longitude":"75.6916","accuracy":"1"},{"address3":"A.P. Basti","state":"Punjab","state_code":"23","district":"Ludhiana","district_code":"041","address1":"Ludhiana","address2":"","latitude":"31.3267","longitude":"75.6916","accuracy":"1"},{"address3":"Janta Nagar","state":"Punjab","state_code":"23","district":"Ludhiana","district_code":"041","address1":"Ludhiana","address2":"","latitude":"31.3267","longitude":"75.6916","accuracy":"1"}],"141004":[{"address3":"P.A.U.","state":"Punjab","state_code":"23","district":"Ludhiana","district_code":"041","address1":"Ludhiana","address2":"","latitude":"31.3267","longitude":"75.6916","accuracy":"1"}],"141006":[{"address3":"Gne College","state":"Punjab","state_code":"23","district":"Ludhiana","district_code":"041","address1":"Ludhiana","address2":"","latitude":"31.3267","longitude":"75.6916","accuracy":"1"}],"141007":[{"address3":"Hawas","state":"Punjab","state_code":"23","district":"Ludhiana","district_code":"041","address1":"NA","address2":"","latitude":"30.9647","longitude":"75.9547","accuracy":"4"},{"address3":"Eros Bajra Road","state":"Punjab","state_code":"23","district":"Ludhiana","district_code":"041","address1":"Ludhiana","address2":"","latitude":"30.9724","longitude":"75.9345","accuracy":"3"},{"address3":"Mangat","state":"Punjab","state_code":"23","district":"Ludhiana","district_code":"041","address1":"NA","address2":"","latitude":"30.98","longitude":"75.9144","accuracy":"4"},{"address3":"Noorwala","state":"Punjab","state_code":"23","district":"Ludhiana","district_code":"041","address1":"NA","address2":"","latitude":"30.9724","longitude":"75.9345","accuracy":"3"},{"address3":"Mattewara","state":"Punjab","state_code":"23","district":"Ludhiana","district_code":"041","address1":"NA","address2":"","latitude":"30.9724","longitude":"75.9345","accuracy":"3"},{"address3":"Boothgarh","state":"Punjab","state_code":"23","district":"Ludhiana","district_code":"041","address1":"NA","address2":"","latitude":"30.9724","longitude":"75.9345","accuracy":"3"},{"address3":"Khwajke","state":"Punjab","state_code":"23","district":"Ludhiana","district_code":"041","address1":"NA","address2":"","latitude":"30.9724","longitude":"75.9345","accuracy":"3"},{"address3":"Basti Jodhewal","state":"Punjab","state_code":"23","district":"Ludhiana","district_code":"041","address1":"Ludhiana","address2":"","latitude":"30.9724","longitude":"75.9345","accuracy":"3"}],"141008":[{"address3":"B.R Street","state":"Punjab","state_code":"23","district":"Ludhiana","district_code":"041","address1":"Ludhiana","address2":"","latitude":"31.982","longitude":"75.5161","accuracy":"3"},{"address3":"Bhattia","state":"Punjab","state_code":"23","district":"Ludhiana","district_code":"041","address1":"NA","address2":"","latitude":"30.8087","longitude":"75.8382","accuracy":"4"},{"address3":"Partpsinghwala","state":"Punjab","state_code":"23","district":"Ludhiana","district_code":"041","address1":"Ludhiana","address2":"","latitude":"31.982","longitude":"75.5161","accuracy":"3"},{"address3":"Madhopuri","state":"Punjab","state_code":"23","district":"Ludhiana","district_code":"041","address1":"Ludhiana","address2":"","latitude":"31.982","longitude":"75.5161","accuracy":"3"},{"address3":"L.R Market","state":"Punjab","state_code":"23","district":"Ludhiana","district_code":"041","address1":"Ludhiana","address2":"","latitude":"31.982","longitude":"75.5161","accuracy":"3"},{"address3":"Iqbal Ganj","state":"Punjab","state_code":"23","district":"Ludhiana","district_code":"041","address1":"Ludhiana","address2":"","latitude":"31.982","longitude":"75.5161","accuracy":"3"},{"address3":"Netaji Nagar (Ludhiana)","state":"Punjab","state_code":"23","district":"Ludhiana","district_code":"041","address1":"Ludhiana","address2":"","latitude":"31.982","longitude":"75.5161","accuracy":"3"},{"address3":"New Hargobind Nagar","state":"Punjab","state_code":"23","district":"Ludhiana","district_code":"041","address1":"Ludhiana","address2":"","latitude":"31.982","longitude":"75.5161","accuracy":"3"},{"address3":"Guru Arjan Dev Nagar","state":"Punjab","state_code":"23","district":"Ludhiana","district_code":"041","address1":"Ludhiana","address2":"","latitude":"31.982","longitude":"75.5161","accuracy":"3"},{"address3":"Samrala Road","state":"Punjab","state_code":"23","district":"Ludhiana","district_code":"041","address1":"Ludhiana","address2":"","latitude":"31.982","longitude":"75.5161","accuracy":"3"},{"address3":"Shivpuri (Ludhiana)","state":"Punjab","state_code":"23","district":"Ludhiana","district_code":"041","address1":"Ludhiana","address2":"","latitude":"31.982","longitude":"75.5161","accuracy":"3"},{"address3":"Central Post Office","state":"Punjab","state_code":"23","district":"Ludhiana","district_code":"041","address1":"Ludhiana","address2":"","latitude":"31.982","longitude":"75.5161","accuracy":"3"},{"address3":"CMC (Ludhiana)","state":"Punjab","state_code":"23","district":"Ludhiana","district_code":"041","address1":"Ludhiana","address2":"","latitude":"31.982","longitude":"75.5161","accuracy":"3"},{"address3":"Baggakhurd","state":"Punjab","state_code":"23","district":"Ludhiana","district_code":"041","address1":"NA","address2":"","latitude":"31.982","longitude":"75.5161","accuracy":"3"},{"address3":"Nurpurbet","state":"Punjab","state_code":"23","district":"Ludhiana","district_code":"041","address1":"NA","address2":"","latitude":"31.982","longitude":"75.5161","accuracy":"3"},{"address3":"Lodhowal","state":"Punjab","state_code":"23","district":"Ludhiana","district_code":"041","address1":"NA","address2":"","latitude":"31.982","longitude":"75.5161","accuracy":"3"}],"141010":[{"address3":"Jamalpur Awana","state":"Punjab","state_code":"23","district":"Ludhiana","district_code":"041","address1":"Ludhiana","address2":"","latitude":"30.8485","longitude":"76.141","accuracy":"1"},{"address3":"Focal Point","state":"Punjab","state_code":"23","district":"Ludhiana","district_code":"041","address1":"Ludhiana","address2":"","latitude":"30.8485","longitude":"76.141","accuracy":"1"},{"address3":"Moti Nagar","state":"Punjab","state_code":"23","district":"Ludhiana","district_code":"041","address1":"Ludhiana","address2":"","latitude":"30.8485","longitude":"76.141","accuracy":"1"}],"141012":[{"address3":"Rajguru Nagar","state":"Punjab","state_code":"23","district":"Ludhiana","district_code":"041","address1":"Ludhiana","address2":"","latitude":"30.8485","longitude":"76.141","accuracy":"1"}],"141013":[{"address3":"Passi Nagar","state":"Punjab","state_code":"23","district":"Ludhiana","district_code":"041","address1":"Ludhiana","address2":"","latitude":"30.8485","longitude":"76.141","accuracy":"1"},{"address3":"Basant Avenue","state":"Punjab","state_code":"23","district":"Ludhiana","district_code":"041","address1":"Ludhiana","address2":"","latitude":"30.8485","longitude":"76.141","accuracy":"1"}],"141014":[{"address3":"Daba Road","state":"Punjab","state_code":"23","district":"Ludhiana","district_code":"041","address1":"Ludhiana","address2":"","latitude":"30.8646","longitude":"75.9185","accuracy":"3"},{"address3":"Dhandari Kalan","state":"Punjab","state_code":"23","district":"Ludhiana","district_code":"041","address1":"Ludhiana","address2":"","latitude":"30.8646","longitude":"75.9185","accuracy":"4"}],"141015":[{"address3":"Karyana Kalan","state":"Punjab","state_code":"23","district":"Ludhiana","district_code":"041","address1":"NA","address2":"","latitude":"30.8975","longitude":"75.9316","accuracy":"3"},{"address3":"Mundian Kalan","state":"Punjab","state_code":"23","district":"Ludhiana","district_code":"041","address1":"Ludhiana","address2":"","latitude":"30.8975","longitude":"75.9316","accuracy":"4"}],"141016":[{"address3":"Lohora","state":"Punjab","state_code":"23","district":"Ludhiana","district_code":"041","address1":"NA","address2":"","latitude":"30.8087","longitude":"75.8382","accuracy":"4"}],"141017":[{"address3":"Jugiana","state":"Punjab","state_code":"23","district":"Ludhiana","district_code":"041","address1":"Ludhiana","address2":"","latitude":"30.8549","longitude":"75.9405","accuracy":"4"}],"141101":[{"address3":"Jangpura","state":"Punjab","state_code":"23","district":"Ludhiana","district_code":"041","address1":"Ludhiana","address2":"","latitude":"30.8381","longitude":"75.6614","accuracy":"3"},{"address3":"Rurka","state":"Punjab","state_code":"23","district":"Ludhiana","district_code":"041","address1":"Ludhiana","address2":"","latitude":"30.8249","longitude":"75.7077","accuracy":"4"},{"address3":"Dakha Mandi","state":"Punjab","state_code":"23","district":"Ludhiana","district_code":"041","address1":"Ludhiana (West)","address2":"","latitude":"30.8381","longitude":"75.6614","accuracy":"3"},{"address3":"Mullanpur","state":"Punjab","state_code":"23","district":"Ludhiana","district_code":"041","address1":"Ludhiana","address2":"","latitude":"30.8546","longitude":"75.6609","accuracy":"4"},{"address3":"Dhatt","state":"Punjab","state_code":"23","district":"Ludhiana","district_code":"041","address1":"Ludhiana","address2":"","latitude":"30.8381","longitude":"75.6614","accuracy":"3"},{"address3":"Pandori","state":"Punjab","state_code":"23","district":"Ludhiana","district_code":"041","address1":"Ludhiana","address2":"","latitude":"30.8297","longitude":"75.6417","accuracy":"4"},{"address3":"Mandiani","state":"Punjab","state_code":"23","district":"Ludhiana","district_code":"041","address1":"Ludhiana","address2":"","latitude":"30.8433","longitude":"75.6353","accuracy":"4"}],"141102":[{"address3":"Issewal","state":"Punjab","state_code":"23","district":"Ludhiana","district_code":"041","address1":"Ludhiana","address2":"","latitude":"30.8722","longitude":"75.7053","accuracy":"3"},{"address3":"Dewatwal","state":"Punjab","state_code":"23","district":"Ludhiana","district_code":"041","address1":"Ludhiana","address2":"","latitude":"30.885","longitude":"75.7183","accuracy":"4"},{"address3":"Gahaur","state":"Punjab","state_code":"23","district":"Ludhiana","district_code":"041","address1":"Ludhiana","address2":"","latitude":"30.8722","longitude":"75.7053","accuracy":"3"},{"address3":"Dakha","state":"Punjab","state_code":"23","district":"Ludhiana","district_code":"041","address1":"Ludhiana","address2":"","latitude":"30.8595","longitude":"75.6923","accuracy":"4"},{"address3":"Bhanohar","state":"Punjab","state_code":"23","district":"Ludhiana","district_code":"041","address1":"Ludhiana","address2":"","latitude":"30.8722","longitude":"75.7053","accuracy":"3"},{"address3":"Hassanpur","state":"Punjab","state_code":"23","district":"Ludhiana","district_code":"041","address1":"Ludhiana","address2":"","latitude":"30.8722","longitude":"75.7053","accuracy":"3"}],"141103":[{"address3":"Khandur","state":"Punjab","state_code":"23","district":"Ludhiana","district_code":"041","address1":"Khanna","address2":"","latitude":"30.7984","longitude":"75.7216","accuracy":"4"},{"address3":"Mohie","state":"Punjab","state_code":"23","district":"Ludhiana","district_code":"041","address1":"Ludhiana","address2":"","latitude":"30.7984","longitude":"75.7216","accuracy":"3"}],"141104":[{"address3":"Ghuman","state":"Punjab","state_code":"23","district":"Ludhiana","district_code":"041","address1":"Ludhiana","address2":"","latitude":"30.8087","longitude":"75.8382","accuracy":"4"},{"address3":"Sudhar","state":"Punjab","state_code":"23","district":"Ludhiana","district_code":"041","address1":"Ludhiana","address2":"","latitude":"31.0092","longitude":"75.7534","accuracy":"3"},{"address3":"Akalgarh","state":"Punjab","state_code":"23","district":"Ludhiana","district_code":"041","address1":"Ludhiana","address2":"","latitude":"30.7595","longitude":"75.6457","accuracy":"4"},{"address3":"KCG Sudhar","state":"Punjab","state_code":"23","district":"Ludhiana","district_code":"041","address1":"Ludhiana (East)","address2":"","latitude":"31.0092","longitude":"75.7534","accuracy":"3"}],"141105":[{"address3":"Rattowal","state":"Punjab","state_code":"23","district":"Ludhiana","district_code":"041","address1":"Ludhiana","address2":"","latitude":"30.8087","longitude":"75.8382","accuracy":"4"},{"address3":"Abbowal","state":"Punjab","state_code":"23","district":"Ludhiana","district_code":"041","address1":"Raikot","address2":"","latitude":"31.3755","longitude":"75.5361","accuracy":"3"},{"address3":"Sahauli","state":"Punjab","state_code":"23","district":"Ludhiana","district_code":"041","address1":"Ludhiana","address2":"","latitude":"30.7742","longitude":"75.6877","accuracy":"4"},{"address3":"Tossey","state":"Punjab","state_code":"23","district":"Ludhiana","district_code":"041","address1":"Ludhiana","address2":"","latitude":"31.3755","longitude":"75.5361","accuracy":"3"},{"address3":"Sarabha","state":"Punjab","state_code":"23","district":"Ludhiana","district_code":"041","address1":"Ludhiana","address2":"","latitude":"31.3755","longitude":"75.5361","accuracy":"3"}],"141106":[{"address3":"Halwara Aerodrome","state":"Punjab","state_code":"23","district":"Ludhiana","district_code":"041","address1":"Ludhiana (East)","address2":"","latitude":"30.9228","longitude":"75.6892","accuracy":"1"}],"141107":[{"address3":"Burj Hakima","state":"Punjab","state_code":"23","district":"Ludhiana","district_code":"041","address1":"Ludhiana","address2":"","latitude":"30.8406","longitude":"75.6779","accuracy":"3"},{"address3":"Nurpur","state":"Punjab","state_code":"23","district":"Ludhiana","district_code":"041","address1":"Ludhiana","address2":"","latitude":"30.9562","longitude":"75.7133","accuracy":"4"},{"address3":"Barhmi","state":"Punjab","state_code":"23","district":"Ludhiana","district_code":"041","address1":"Ludhiana","address2":"","latitude":"30.8406","longitude":"75.6779","accuracy":"3"},{"address3":"Halwara","state":"Punjab","state_code":"23","district":"Ludhiana","district_code":"041","address1":"Ludhiana","address2":"","latitude":"30.7251","longitude":"75.6425","accuracy":"4"},{"address3":"Heeran Hans","state":"Punjab","state_code":"23","district":"Ludhiana","district_code":"041","address1":"Ludhiana (East)","address2":"","latitude":"30.8406","longitude":"75.6779","accuracy":"3"},{"address3":"Rajoana Kalan","state":"Punjab","state_code":"23","district":"Ludhiana","district_code":"041","address1":"Ludhiana","address2":"","latitude":"30.8406","longitude":"75.6779","accuracy":"3"},{"address3":"Litter","state":"Punjab","state_code":"23","district":"Ludhiana","district_code":"041","address1":"Ludhiana","address2":"","latitude":"30.8406","longitude":"75.6779","accuracy":"3"},{"address3":"Kailey","state":"Punjab","state_code":"23","district":"Ludhiana","district_code":"041","address1":"Raikot","address2":"","latitude":"30.8406","longitude":"75.6779","accuracy":"3"},{"address3":"Attiana","state":"Punjab","state_code":"23","district":"Ludhiana","district_code":"041","address1":"Ludhiana","address2":"","latitude":"30.8406","longitude":"75.6779","accuracy":"3"}],"141108":[{"address3":"Rajgarh","state":"Punjab","state_code":"23","district":"Ludhiana","district_code":"041","address1":"Ludhiana","address2":"","latitude":"30.8087","longitude":"75.8382","accuracy":"4"},{"address3":"Pakhowal","state":"Punjab","state_code":"23","district":"Ludhiana","district_code":"041","address1":"Ludhiana","address2":"","latitude":"30.8087","longitude":"75.8382","accuracy":"4"},{"address3":"Nangal Khurd","state":"Punjab","state_code":"23","district":"Ludhiana","district_code":"041","address1":"Ludhiana","address2":"","latitude":"30.8087","longitude":"75.8382","accuracy":"4"},{"address3":"Nangal Kalan","state":"Punjab","state_code":"23","district":"Ludhiana","district_code":"041","address1":"Ludhiana","address2":"","latitude":"30.8087","longitude":"75.8382","accuracy":"4"},{"address3":"Bhainidarera","state":"Punjab","state_code":"23","district":"Ludhiana","district_code":"041","address1":"Ludhiana","address2":"","latitude":"30.9684","longitude":"75.5535","accuracy":"3"},{"address3":"Andlu","state":"Punjab","state_code":"23","district":"Ludhiana","district_code":"041","address1":"Ludhiana","address2":"","latitude":"30.9684","longitude":"75.5535","accuracy":"3"},{"address3":"Leel","state":"Punjab","state_code":"23","district":"Ludhiana","district_code":"041","address1":"Ludhiana","address2":"","latitude":"30.9684","longitude":"75.5535","accuracy":"3"}],"141109":[{"address3":"Tajpura","state":"Punjab","state_code":"23","district":"Ludhiana","district_code":"041","address1":"Ludhiana","address2":"","latitude":"30.8087","longitude":"75.8382","accuracy":"4"},{"address3":"Lohat baddi","state":"Punjab","state_code":"23","district":"Ludhiana","district_code":"041","address1":"Raikot","address2":"","latitude":"30.6572","longitude":"76.0842","accuracy":"3"},{"address3":"Burj Hari Singh Wala","state":"Punjab","state_code":"23","district":"Ludhiana","district_code":"041","address1":"Ludhiana","address2":"","latitude":"30.6918","longitude":"75.5881","accuracy":"4"},{"address3":"Dadahur","state":"Punjab","state_code":"23","district":"Ludhiana","district_code":"041","address1":"Raikot","address2":"","latitude":"30.6572","longitude":"76.0842","accuracy":"3"},{"address3":"Gondwal","state":"Punjab","state_code":"23","district":"Ludhiana","district_code":"041","address1":"Ludhiana","address2":"","latitude":"30.6572","longitude":"76.0842","accuracy":"3"},{"address3":"Kalas","state":"Punjab","state_code":"23","district":"Ludhiana","district_code":"041","address1":"Raikot","address2":"","latitude":"30.6572","longitude":"76.0842","accuracy":"3"},{"address3":"Bhaini Baringa","state":"Punjab","state_code":"23","district":"Ludhiana","district_code":"041","address1":"Ludhiana","address2":"","latitude":"30.6572","longitude":"76.0842","accuracy":"3"},{"address3":"Raekot","state":"Punjab","state_code":"23","district":"Ludhiana","district_code":"041","address1":"Ludhiana","address2":"","latitude":"30.6572","longitude":"76.0842","accuracy":"3"},{"address3":"Kalsian","state":"Punjab","state_code":"23","district":"Ludhiana","district_code":"041","address1":"Raikot","address2":"","latitude":"30.6572","longitude":"76.0842","accuracy":"3"},{"address3":"Sehbazpura","state":"Punjab","state_code":"23","district":"Ludhiana","district_code":"041","address1":"Raikot","address2":"","latitude":"30.6572","longitude":"76.0842","accuracy":"3"},{"address3":"Johalan","state":"Punjab","state_code":"23","district":"Ludhiana","district_code":"041","address1":"Raikot","address2":"","latitude":"30.6572","longitude":"76.0842","accuracy":"3"},{"address3":"Jalaldiwal","state":"Punjab","state_code":"23","district":"Ludhiana","district_code":"041","address1":"Raikot","address2":"","latitude":"30.6572","longitude":"76.0842","accuracy":"3"},{"address3":"Talwandi Rai","state":"Punjab","state_code":"23","district":"Ludhiana","district_code":"041","address1":"Ludhiana","address2":"","latitude":"30.6572","longitude":"76.0842","accuracy":"3"}],"141110":[{"address3":"Purain","state":"Punjab","state_code":"23","district":"Ludhiana","district_code":"041","address1":"Ludhiana","address2":"","latitude":"30.9207","longitude":"75.619","accuracy":"4"},{"address3":"Hambran","state":"Punjab","state_code":"23","district":"Ludhiana","district_code":"041","address1":"Ludhiana (West)","address2":"","latitude":"30.9417","longitude":"75.6723","accuracy":"4"},{"address3":"Chak Kalan","state":"Punjab","state_code":"23","district":"Ludhiana","district_code":"041","address1":"Ludhiana (West)","address2":"","latitude":"30.8087","longitude":"75.8382","accuracy":"4"},{"address3":"Bassian Bet","state":"Punjab","state_code":"23","district":"Ludhiana","district_code":"041","address1":"Ludhiana","address2":"","latitude":"31.0136","longitude":"75.6088","accuracy":"3"},{"address3":"Bhatta Dhahan","state":"Punjab","state_code":"23","district":"Ludhiana","district_code":"041","address1":"Ludhiana","address2":"","latitude":"31.0136","longitude":"75.6088","accuracy":"3"}],"141112":[{"address3":"Jandiali","state":"Punjab","state_code":"23","district":"Ludhiana","district_code":"041","address1":"Ludhiana","address2":"","latitude":"30.8671","longitude":"75.9938","accuracy":"4"},{"address3":"Budhewal","state":"Punjab","state_code":"23","district":"Ludhiana","district_code":"041","address1":"Ludhiana","address2":"","latitude":"30.8087","longitude":"75.8382","accuracy":"4"},{"address3":"Heeran","state":"Punjab","state_code":"23","district":"Ludhiana","district_code":"041","address1":"Ludhiana","address2":"","latitude":"31.1555","longitude":"75.9107","accuracy":"3"},{"address3":"Kohara","state":"Punjab","state_code":"23","district":"Ludhiana","district_code":"041","address1":"Ludhiana","address2":"","latitude":"30.8674","longitude":"76.0058","accuracy":"4"},{"address3":"Gaddowal","state":"Punjab","state_code":"23","district":"Ludhiana","district_code":"041","address1":"Ludhiana","address2":"","latitude":"31.1555","longitude":"75.9107","accuracy":"3"},{"address3":"Dhanansu","state":"Punjab","state_code":"23","district":"Ludhiana","district_code":"041","address1":"Ludhiana","address2":"","latitude":"30.9303","longitude":"76.0006","accuracy":"4"},{"address3":"Bhagpura","state":"Punjab","state_code":"23","district":"Ludhiana","district_code":"041","address1":"Ludhiana","address2":"","latitude":"31.1555","longitude":"75.9107","accuracy":"3"},{"address3":"Bhairro Munna","state":"Punjab","state_code":"23","district":"Ludhiana","district_code":"041","address1":"Ludhiana","address2":"","latitude":"31.1555","longitude":"75.9107","accuracy":"3"}],"141113":[{"address3":"Katani Kalan","state":"Punjab","state_code":"23","district":"Ludhiana","district_code":"041","address1":"Ludhiana","address2":"","latitude":"30.8445","longitude":"76.0807","accuracy":"4"},{"address3":"Kot Gangu Rai","state":"Punjab","state_code":"23","district":"Ludhiana","district_code":"041","address1":"Ludhiana","address2":"","latitude":"30.8445","longitude":"76.0807","accuracy":"3"},{"address3":"Chhandran","state":"Punjab","state_code":"23","district":"Ludhiana","district_code":"041","address1":"Ludhiana","address2":"","latitude":"30.8445","longitude":"76.0807","accuracy":"3"},{"address3":"Uppal","state":"Punjab","state_code":"23","district":"Ludhiana","district_code":"041","address1":"Ludhiana","address2":"","latitude":"30.8445","longitude":"76.0807","accuracy":"3"}],"141114":[{"address3":"Shamspur","state":"Punjab","state_code":"23","district":"Ludhiana","district_code":"041","address1":"Ludhiana","address2":"","latitude":"30.9478","longitude":"76.1505","accuracy":"4"},{"address3":"Rajewal","state":"Punjab","state_code":"23","district":"Ludhiana","district_code":"041","address1":"Ludhiana","address2":"","latitude":"30.8025","longitude":"76.1923","accuracy":"4"},{"address3":"Samrala","state":"Punjab","state_code":"23","district":"Ludhiana","district_code":"041","address1":"Ludhiana","address2":"","latitude":"30.836","longitude":"76.1932","accuracy":"4"},{"address3":"Kotla Samashpur","state":"Punjab","state_code":"23","district":"Ludhiana","district_code":"041","address1":"Ludhiana","address2":"","latitude":"30.808","longitude":"76.1567","accuracy":"3"},{"address3":"Madpur","state":"Punjab","state_code":"23","district":"Ludhiana","district_code":"041","address1":"Ludhiana","address2":"","latitude":"30.8237","longitude":"76.1254","accuracy":"4"},{"address3":"Sarwarpur","state":"Punjab","state_code":"23","district":"Ludhiana","district_code":"041","address1":"Ludhiana","address2":"","latitude":"30.7937","longitude":"76.2517","accuracy":"4"},{"address3":"Bhagwanpura Road Samrala","state":"Punjab","state_code":"23","district":"Ludhiana","district_code":"041","address1":"Samrala","address2":"","latitude":"30.808","longitude":"76.1567","accuracy":"3"},{"address3":"Dhindsa","state":"Punjab","state_code":"23","district":"Ludhiana","district_code":"041","address1":"Ludhiana","address2":"","latitude":"30.8014","longitude":"76.1383","accuracy":"4"},{"address3":"Otalan","state":"Punjab","state_code":"23","district":"Ludhiana","district_code":"041","address1":"Ludhiana","address2":"","latitude":"30.808","longitude":"76.1567","accuracy":"3"},{"address3":"Bhagwanpura","state":"Punjab","state_code":"23","district":"Ludhiana","district_code":"041","address1":"Ludhiana","address2":"","latitude":"30.8251","longitude":"76.1605","accuracy":"4"},{"address3":"Muskabad","state":"Punjab","state_code":"23","district":"Ludhiana","district_code":"041","address1":"Ludhiana","address2":"","latitude":"30.808","longitude":"76.1567","accuracy":"3"},{"address3":"Nagra","state":"Punjab","state_code":"23","district":"Ludhiana","district_code":"041","address1":"Ludhiana","address2":"","latitude":"30.7996","longitude":"76.1564","accuracy":"4"},{"address3":"Manki Bhagour","state":"Punjab","state_code":"23","district":"Ludhiana","district_code":"041","address1":"Ludhiana","address2":"","latitude":"30.808","longitude":"76.1567","accuracy":"3"},{"address3":"Ladhran","state":"Punjab","state_code":"23","district":"Ludhiana","district_code":"041","address1":"Ludhiana","address2":"","latitude":"30.8461","longitude":"76.1463","accuracy":"4"},{"address3":"Mal Majra","state":"Punjab","state_code":"23","district":"Ludhiana","district_code":"041","address1":"Ludhiana","address2":"","latitude":"30.808","longitude":"76.1567","accuracy":"3"},{"address3":"Bharthala","state":"Punjab","state_code":"23","district":"Ludhiana","district_code":"041","address1":"Ludhiana","address2":"","latitude":"30.5692","longitude":"76.0795","accuracy":"4"},{"address3":"Heddon","state":"Punjab","state_code":"23","district":"Ludhiana","district_code":"041","address1":"Ludhiana","address2":"","latitude":"30.808","longitude":"76.1567","accuracy":"3"},{"address3":"Ghulal","state":"Punjab","state_code":"23","district":"Ludhiana","district_code":"041","address1":"Ludhiana","address2":"","latitude":"30.8428","longitude":"76.1289","accuracy":"4"},{"address3":"Ghungrali Sikhan","state":"Punjab","state_code":"23","district":"Ludhiana","district_code":"041","address1":"Samrala","address2":"","latitude":"30.808","longitude":"76.1567","accuracy":"3"},{"address3":"Bondli","state":"Punjab","state_code":"23","district":"Ludhiana","district_code":"041","address1":"Samrala","address2":"","latitude":"30.808","longitude":"76.1567","accuracy":"3"},{"address3":"Neelon Kalan","state":"Punjab","state_code":"23","district":"Ludhiana","district_code":"041","address1":"Ludhiana","address2":"","latitude":"30.808","longitude":"76.1567","accuracy":"3"}],"141115":[{"address3":"Hambowal","state":"Punjab","state_code":"23","district":"Ludhiana","district_code":"041","address1":"Ludhiana","address2":"","latitude":"30.9516","longitude":"76.2508","accuracy":"4"},{"address3":"Takhran","state":"Punjab","state_code":"23","district":"Ludhiana","district_code":"041","address1":"Ludhiana","address2":"","latitude":"30.8834","longitude":"76.1358","accuracy":"4"},{"address3":"Punjgarain","state":"Punjab","state_code":"23","district":"Ludhiana","district_code":"041","address1":"Ludhiana","address2":"","latitude":"30.9291","longitude":"76.198","accuracy":"3"},{"address3":"Machhiwara","state":"Punjab","state_code":"23","district":"Ludhiana","district_code":"041","address1":"Samrala","address2":"","latitude":"30.9156","longitude":"76.2002","accuracy":"4"},{"address3":"Lubangarh","state":"Punjab","state_code":"23","district":"Ludhiana","district_code":"041","address1":"Ludhiana","address2":"","latitude":"30.9291","longitude":"76.198","accuracy":"3"},{"address3":"Jodhwal","state":"Punjab","state_code":"23","district":"Ludhiana","district_code":"041","address1":"Ludhiana","address2":"","latitude":"30.9659","longitude":"76.2052","accuracy":"4"}],"141116":[{"address3":"Sarih","state":"Punjab","state_code":"23","district":"Ludhiana","district_code":"041","address1":"Ludhiana","address2":"","latitude":"30.7948","longitude":"75.874","accuracy":"4"},{"address3":"Dhandran","state":"Punjab","state_code":"23","district":"Ludhiana","district_code":"041","address1":"Ludhiana","address2":"","latitude":"30.8","longitude":"75.8529","accuracy":"3"},{"address3":"Alamgir","state":"Punjab","state_code":"23","district":"Ludhiana","district_code":"041","address1":"Ludhiana","address2":"","latitude":"30.8014","longitude":"75.8602","accuracy":"4"},{"address3":"Gill","state":"Punjab","state_code":"23","district":"Ludhiana","district_code":"041","address1":"Ludhiana","address2":"","latitude":"30.8","longitude":"75.8529","accuracy":"3"},{"address3":"Jassowal","state":"Punjab","state_code":"23","district":"Ludhiana","district_code":"041","address1":"Ludhiana","address2":"","latitude":"30.8039","longitude":"75.8245","accuracy":"4"},{"address3":"Dulley","state":"Punjab","state_code":"23","district":"Ludhiana","district_code":"041","address1":"Ludhiana (West)","address2":"","latitude":"30.8","longitude":"75.8529","accuracy":"3"}],"141117":[{"address3":"Hans Kalan","state":"Punjab","state_code":"23","district":"Ludhiana","district_code":"041","address1":"Payal","address2":"","latitude":"31.164","longitude":"75.8672","accuracy":"3"},{"address3":"Sihar","state":"Punjab","state_code":"23","district":"Ludhiana","district_code":"041","address1":"Ludhiana","address2":"","latitude":"31.164","longitude":"75.8672","accuracy":"3"},{"address3":"Lehal","state":"Punjab","state_code":"23","district":"Ludhiana","district_code":"041","address1":"Ludhiana","address2":"","latitude":"30.8087","longitude":"75.8382","accuracy":"4"},{"address3":"Kalahar","state":"Punjab","state_code":"23","district":"Ludhiana","district_code":"041","address1":"Ludhiana","address2":"","latitude":"31.164","longitude":"75.8672","accuracy":"3"},{"address3":"Karamsar","state":"Punjab","state_code":"23","district":"Ludhiana","district_code":"041","address1":"Payal","address2":"","latitude":"31.164","longitude":"75.8672","accuracy":"3"},{"address3":"Nanakpur Jagera","state":"Punjab","state_code":"23","district":"Ludhiana","district_code":"041","address1":"Ludhiana","address2":"","latitude":"31.164","longitude":"75.8672","accuracy":"3"},{"address3":"Saharan Majra","state":"Punjab","state_code":"23","district":"Ludhiana","district_code":"041","address1":"Ludhiana","address2":"","latitude":"31.164","longitude":"75.8672","accuracy":"3"},{"address3":"Jhamat","state":"Punjab","state_code":"23","district":"Ludhiana","district_code":"041","address1":"Ludhiana","address2":"","latitude":"31.164","longitude":"75.8672","accuracy":"3"}],"141118":[{"address3":"Butaheri","state":"Punjab","state_code":"23","district":"Ludhiana","district_code":"041","address1":"Ludhiana","address2":"","latitude":"31.1215","longitude":"75.8715","accuracy":"3"},{"address3":"Saya Kalan","state":"Punjab","state_code":"23","district":"Ludhiana","district_code":"041","address1":"Ludhiana","address2":"","latitude":"30.7667","longitude":"75.8448","accuracy":"4"},{"address3":"Khatorachuharam","state":"Punjab","state_code":"23","district":"Ludhiana","district_code":"041","address1":"Ludhiana (East)","address2":"","latitude":"31.1215","longitude":"75.8715","accuracy":"3"},{"address3":"Lehra","state":"Punjab","state_code":"23","district":"Ludhiana","district_code":"041","address1":"Ludhiana","address2":"","latitude":"30.8087","longitude":"75.8382","accuracy":"4"},{"address3":"Dehlon","state":"Punjab","state_code":"23","district":"Ludhiana","district_code":"041","address1":"Ludhiana","address2":"","latitude":"30.742","longitude":"75.8486","accuracy":"4"}],"141119":[{"address3":"Ber Khurd","state":"Punjab","state_code":"23","district":"Ludhiana","district_code":"041","address1":"Ludhiana","address2":"","latitude":"30.472","longitude":"76.1022","accuracy":"3"},{"address3":"Dhudhal Kalan","state":"Punjab","state_code":"23","district":"Ludhiana","district_code":"041","address1":"Payal","address2":"","latitude":"30.472","longitude":"76.1022","accuracy":"3"},{"address3":"Babarpur","state":"Punjab","state_code":"23","district":"Ludhiana","district_code":"041","address1":"Ludhiana","address2":"","latitude":"30.8087","longitude":"75.8382","accuracy":"4"},{"address3":"Kuhli Kalan","state":"Punjab","state_code":"23","district":"Ludhiana","district_code":"041","address1":"Ludhiana","address2":"","latitude":"30.472","longitude":"76.1022","accuracy":"3"},{"address3":"Sihan Daud","state":"Punjab","state_code":"23","district":"Ludhiana","district_code":"041","address1":"Ludhiana","address2":"","latitude":"30.472","longitude":"76.1022","accuracy":"3"},{"address3":"Maloudh","state":"Punjab","state_code":"23","district":"Ludhiana","district_code":"041","address1":"Payal","address2":"","latitude":"30.472","longitude":"76.1022","accuracy":"3"},{"address3":"Ramgarh Sardaran","state":"Punjab","state_code":"23","district":"Ludhiana","district_code":"041","address1":"Ludhiana","address2":"","latitude":"30.472","longitude":"76.1022","accuracy":"3"}],"141120":[{"address3":"Nandpur","state":"Punjab","state_code":"23","district":"Ludhiana","district_code":"041","address1":"Ludhiana (East)","address2":"","latitude":"30.8414","longitude":"75.9658","accuracy":"4"},{"address3":"Bilga","state":"Punjab","state_code":"23","district":"Ludhiana","district_code":"041","address1":"Ludhiana","address2":"","latitude":"30.8087","longitude":"75.8382","accuracy":"4"},{"address3":"Pawa","state":"Punjab","state_code":"23","district":"Ludhiana","district_code":"041","address1":"Ludhiana","address2":"","latitude":"30.887","longitude":"75.8887","accuracy":"3"},{"address3":"Sanehwal","state":"Punjab","state_code":"23","district":"Ludhiana","district_code":"041","address1":"Ludhiana (East)","address2":"","latitude":"30.8413","longitude":"75.9855","accuracy":"4"},{"address3":"Kanech","state":"Punjab","state_code":"23","district":"Ludhiana","district_code":"041","address1":"Ludhiana (East)","address2":"","latitude":"30.887","longitude":"75.8887","accuracy":"3"},{"address3":"Tibba","state":"Punjab","state_code":"23","district":"Ludhiana","district_code":"041","address1":"Ludhiana","address2":"","latitude":"30.8154","longitude":"75.949","accuracy":"4"}],"141121":[{"address3":"Sherpur Bet","state":"Punjab","state_code":"23","district":"Ludhiana","district_code":"041","address1":"Samrala","address2":"","latitude":"30.9575","longitude":"75.9386","accuracy":"1"},{"address3":"Pawat","state":"Punjab","state_code":"23","district":"Ludhiana","district_code":"041","address1":"Ludhiana","address2":"","latitude":"30.9575","longitude":"75.9386","accuracy":"1"},{"address3":"Behlolpur","state":"Punjab","state_code":"23","district":"Ludhiana","district_code":"041","address1":"Ludhiana","address2":"","latitude":"30.9575","longitude":"75.9386","accuracy":"1"},{"address3":"Chhourian","state":"Punjab","state_code":"23","district":"Ludhiana","district_code":"041","address1":"Ludhiana","address2":"","latitude":"30.9575","longitude":"75.9386","accuracy":"1"}],"141122":[{"address3":"Sangowal","state":"Punjab","state_code":"23","district":"Ludhiana","district_code":"041","address1":"Ludhiana","address2":"","latitude":"30.8289","longitude":"75.8919","accuracy":"4"},{"address3":"Natt","state":"Punjab","state_code":"23","district":"Ludhiana","district_code":"041","address1":"Ludhiana","address2":"","latitude":"30.8289","longitude":"75.8919","accuracy":"3"},{"address3":"Jaspal Banger","state":"Punjab","state_code":"23","district":"Ludhiana","district_code":"041","address1":"Ludhiana","address2":"","latitude":"30.8289","longitude":"75.8919","accuracy":"3"}],"141123":[{"address3":"Ramgarh (Ludhiana)","state":"Punjab","state_code":"23","district":"Ludhiana","district_code":"041","address1":"Ludhiana (East)","address2":"","latitude":"30.9575","longitude":"75.9386","accuracy":"1"},{"address3":"Sahibana","state":"Punjab","state_code":"23","district":"Ludhiana","district_code":"041","address1":"Ludhiana","address2":"","latitude":"30.9575","longitude":"75.9386","accuracy":"1"}],"141125":[{"address3":"Kakrala Kalan","state":"Punjab","state_code":"23","district":"Ludhiana","district_code":"041","address1":"Ludhiana","address2":"","latitude":"30.8087","longitude":"75.8382","accuracy":"4"},{"address3":"Kotala","state":"Punjab","state_code":"23","district":"Ludhiana","district_code":"041","address1":"Ludhiana","address2":"","latitude":"30.9568","longitude":"76.2755","accuracy":"4"},{"address3":"Sihala","state":"Punjab","state_code":"23","district":"Ludhiana","district_code":"041","address1":"Ludhiana","address2":"","latitude":"30.9024","longitude":"76.289","accuracy":"3"},{"address3":"Nanowal Kalan","state":"Punjab","state_code":"23","district":"Ludhiana","district_code":"041","address1":"Ludhiana","address2":"","latitude":"30.9024","longitude":"76.289","accuracy":"3"}],"141126":[{"address3":"Panjeta","state":"Punjab","state_code":"23","district":"Ludhiana","district_code":"041","address1":"Ludhiana","address2":"","latitude":"30.8966","longitude":"76.085","accuracy":"4"},{"address3":"Sri Bhaini Sahib","state":"Punjab","state_code":"23","district":"Ludhiana","district_code":"041","address1":"Ludhiana (East)","address2":"","latitude":"30.9304","longitude":"76.0968","accuracy":"3"},{"address3":"Junewal","state":"Punjab","state_code":"23","district":"Ludhiana","district_code":"041","address1":"Ludhiana","address2":"","latitude":"30.9641","longitude":"76.1085","accuracy":"4"}],"141127":[{"address3":"Koom Kalan","state":"Punjab","state_code":"23","district":"Ludhiana","district_code":"041","address1":"Ludhiana East","address2":"","latitude":"31.5327","longitude":"75.1683","accuracy":"3"},{"address3":"Borra","state":"Punjab","state_code":"23","district":"Ludhiana","district_code":"041","address1":"Ludhiana (East)","address2":"","latitude":"31.5327","longitude":"75.1683","accuracy":"3"},{"address3":"Rattangarh","state":"Punjab","state_code":"23","district":"Ludhiana","district_code":"041","address1":"Ludhiana","address2":"","latitude":"30.8087","longitude":"75.8382","accuracy":"4"},{"address3":"Chhounta","state":"Punjab","state_code":"23","district":"Ludhiana","district_code":"041","address1":"Ludhiana","address2":"","latitude":"31.5327","longitude":"75.1683","accuracy":"3"}],"141201":[{"address3":"Kila Raipur","state":"Punjab","state_code":"23","district":"Ludhiana","district_code":"041","address1":"Ludhiana","address2":"","latitude":"30.8087","longitude":"75.8382","accuracy":"4"}],"141202":[{"address3":"Ballowal","state":"Punjab","state_code":"23","district":"Ludhiana","district_code":"041","address1":"Ludhiana","address2":"","latitude":"30.7705","longitude":"75.7476","accuracy":"4"},{"address3":"Chaminda","state":"Punjab","state_code":"23","district":"Ludhiana","district_code":"041","address1":"Ludhiana","address2":"","latitude":"30.7664","longitude":"75.7398","accuracy":"4"},{"address3":"Phalewal","state":"Punjab","state_code":"23","district":"Ludhiana","district_code":"041","address1":"Ludhiana","address2":"","latitude":"30.7685","longitude":"75.7437","accuracy":"3"},{"address3":"Gujjarwal","state":"Punjab","state_code":"23","district":"Ludhiana","district_code":"041","address1":"Ludhiana","address2":"","latitude":"30.7685","longitude":"75.7437","accuracy":"3"}],"141203":[{"address3":"Lohgarh","state":"Punjab","state_code":"23","district":"Ludhiana","district_code":"041","address1":"Ludhiana","address2":"","latitude":"30.8087","longitude":"75.8382","accuracy":"4"},{"address3":"Assi Kalan","state":"Punjab","state_code":"23","district":"Ludhiana","district_code":"041","address1":"Ludhiana (East)","address2":"","latitude":"30.938","longitude":"75.8217","accuracy":"3"},{"address3":"Narangwal","state":"Punjab","state_code":"23","district":"Ludhiana","district_code":"041","address1":"Ludhiana","address2":"","latitude":"30.7643","longitude":"75.7758","accuracy":"4"},{"address3":"Mehma Singh Wala","state":"Punjab","state_code":"23","district":"Ludhiana","district_code":"041","address1":"Ludhiana","address2":"","latitude":"30.938","longitude":"75.8217","accuracy":"3"},{"address3":"Jartauli","state":"Punjab","state_code":"23","district":"Ludhiana","district_code":"041","address1":"Ludhiana (East)","address2":"","latitude":"30.938","longitude":"75.8217","accuracy":"3"}],"141204":[{"address3":"Kalakh","state":"Punjab","state_code":"23","district":"Ludhiana","district_code":"041","address1":"Jagraon","address2":"","latitude":"30.839","longitude":"75.5545","accuracy":"3"},{"address3":"Ghungrana","state":"Punjab","state_code":"23","district":"Ludhiana","district_code":"041","address1":"Ludhiana","address2":"","latitude":"30.839","longitude":"75.5545","accuracy":"3"},{"address3":"Dhulkot","state":"Punjab","state_code":"23","district":"Ludhiana","district_code":"041","address1":"Ludhiana (West)","address2":"","latitude":"30.8087","longitude":"75.8382","accuracy":"4"},{"address3":"Chhapar","state":"Punjab","state_code":"23","district":"Ludhiana","district_code":"041","address1":"Ludhiana","address2":"","latitude":"30.839","longitude":"75.5545","accuracy":"3"},{"address3":"Khera","state":"Punjab","state_code":"23","district":"Ludhiana","district_code":"041","address1":"Ludhiana","address2":"","latitude":"30.9587","longitude":"76.2178","accuracy":"4"},{"address3":"Pohiar","state":"Punjab","state_code":"23","district":"Ludhiana","district_code":"041","address1":"Ludhiana","address2":"","latitude":"30.839","longitude":"75.5545","accuracy":"3"}],"141205":[{"address3":"Maherna Kalan","state":"Punjab","state_code":"23","district":"Ludhiana","district_code":"041","address1":"Ludhiana","address2":"","latitude":"30.9377","longitude":"76.3395","accuracy":"3"},{"address3":"Latala","state":"Punjab","state_code":"23","district":"Ludhiana","district_code":"041","address1":"Ludhiana","address2":"","latitude":"30.9377","longitude":"76.3395","accuracy":"3"},{"address3":"Bahrampur","state":"Punjab","state_code":"23","district":"Ludhiana","district_code":"041","address1":"Ludhiana","address2":"","latitude":"30.8087","longitude":"75.8382","accuracy":"4"},{"address3":"Maheran Kalan","state":"Punjab","state_code":"23","district":"Ludhiana","district_code":"041","address1":"Raikot","address2":"","latitude":"30.9377","longitude":"76.3395","accuracy":"3"},{"address3":"Rachhine","state":"Punjab","state_code":"23","district":"Ludhiana","district_code":"041","address1":"Ludhiana","address2":"","latitude":"30.9377","longitude":"76.3395","accuracy":"3"},{"address3":"Rangowal","state":"Punjab","state_code":"23","district":"Ludhiana","district_code":"041","address1":"Ludhiana","address2":"","latitude":"30.9377","longitude":"76.3395","accuracy":"3"},{"address3":"Barundi","state":"Punjab","state_code":"23","district":"Ludhiana","district_code":"041","address1":"Ludhiana","address2":"","latitude":"30.9377","longitude":"76.3395","accuracy":"3"}],"141206":[{"address3":"Ghawaddi","state":"Punjab","state_code":"23","district":"Ludhiana","district_code":"041","address1":"Ludhiana","address2":"","latitude":"30.7813","longitude":"75.8911","accuracy":"4"},{"address3":"Mukandpur","state":"Punjab","state_code":"23","district":"Ludhiana","district_code":"041","address1":"Ludhiana","address2":"","latitude":"30.8087","longitude":"75.8382","accuracy":"4"},{"address3":"Guram","state":"Punjab","state_code":"23","district":"Ludhiana","district_code":"041","address1":"Ludhiana","address2":"","latitude":"30.8385","longitude":"75.9133","accuracy":"3"},{"address3":"Paddi","state":"Punjab","state_code":"23","district":"Ludhiana","district_code":"041","address1":"Ludhiana","address2":"","latitude":"30.7931","longitude":"75.9352","accuracy":"4"},{"address3":"Bhutta","state":"Punjab","state_code":"23","district":"Ludhiana","district_code":"041","address1":"Ludhiana (East)","address2":"","latitude":"30.7651","longitude":"75.917","accuracy":"4"},{"address3":"Shankar","state":"Punjab","state_code":"23","district":"Ludhiana","district_code":"041","address1":"Ludhiana","address2":"","latitude":"30.7644","longitude":"75.8847","accuracy":"4"},{"address3":"Khanpur","state":"Punjab","state_code":"23","district":"Ludhiana","district_code":"041","address1":"Ludhiana","address2":"","latitude":"30.7998","longitude":"75.9055","accuracy":"4"}],"141401":[{"address3":"Amloh Road(Khanna)","state":"Punjab","state_code":"23","district":"Ludhiana","district_code":"041","address1":"Khanna","address2":"","latitude":"30.6976","longitude":"76.1274","accuracy":"1"},{"address3":"Khanna H.O","state":"Punjab","state_code":"23","district":"Ludhiana","district_code":"041","address1":"Khanna","address2":"","latitude":"30.6976","longitude":"76.1274","accuracy":"1"},{"address3":"Nai Mandi Khanna","state":"Punjab","state_code":"23","district":"Ludhiana","district_code":"041","address1":"Khanna","address2":"","latitude":"30.6976","longitude":"76.1274","accuracy":"1"}],"141411":[{"address3":"Lohar Majra Kalan","state":"Punjab","state_code":"23","district":"Fatehgarh Sahib","district_code":"040","address1":"Khamanon","address2":"","latitude":"30.6688","longitude":"76.2361","accuracy":"3"},{"address3":"Bhari","state":"Punjab","state_code":"23","district":"Fatehgarh Sahib","district_code":"040","address1":"Khamanon","address2":"","latitude":"30.6322","longitude":"76.3653","accuracy":"4"},{"address3":"Kheri Noudh Singh","state":"Punjab","state_code":"23","district":"Fatehgarh Sahib","district_code":"040","address1":"Khamanon","address2":"","latitude":"30.6688","longitude":"76.2361","accuracy":"3"},{"address3":"Kotla Ajner","state":"Punjab","state_code":"23","district":"Fatehgarh Sahib","district_code":"040","address1":"Khamanon","address2":"","latitude":"30.7265","longitude":"76.2866","accuracy":"4"},{"address3":"Hargana","state":"Punjab","state_code":"23","district":"Fatehgarh Sahib","district_code":"040","address1":"Khamanon","address2":"","latitude":"30.7459","longitude":"76.3669","accuracy":"4"},{"address3":"Fatehgarh Niwan","state":"Punjab","state_code":"23","district":"Fatehgarh Sahib","district_code":"040","address1":"Khamanoo","address2":"","latitude":"30.5315","longitude":"76.4594","accuracy":"4"},{"address3":"Kotla Badla","state":"Punjab","state_code":"23","district":"Fatehgarh Sahib","district_code":"040","address1":"Khamanon","address2":"","latitude":"30.7543","longitude":"76.3205","accuracy":"4"},{"address3":"Raipur Majri","state":"Punjab","state_code":"23","district":"Ludhiana","district_code":"041","address1":"Khamanoo","address2":"","latitude":"30.6688","longitude":"76.2361","accuracy":"3"},{"address3":"Barwali Khurd","state":"Punjab","state_code":"23","district":"Patiala","district_code":"048","address1":"Khamanoo","address2":"","latitude":"30.2814","longitude":"76.3539","accuracy":"4"}],"141412":[{"address3":"Bahomajra","state":"Punjab","state_code":"23","district":"Ludhiana","district_code":"041","address1":"Khanna","address2":"","latitude":"30.7397","longitude":"76.1543","accuracy":"3"},{"address3":"Daheru","state":"Punjab","state_code":"23","district":"Ludhiana","district_code":"041","address1":"Khanna","address2":"","latitude":"30.7397","longitude":"76.1543","accuracy":"3"},{"address3":"Bagli Kalan","state":"Punjab","state_code":"23","district":"Ludhiana","district_code":"041","address1":"Ludhiana","address2":"","latitude":"30.7693","longitude":"76.1553","accuracy":"4"},{"address3":"Bhamaddi","state":"Punjab","state_code":"23","district":"Ludhiana","district_code":"041","address1":"Khanna","address2":"","latitude":"30.7397","longitude":"76.1543","accuracy":"3"},{"address3":"Bija Kalan","state":"Punjab","state_code":"23","district":"Ludhiana","district_code":"041","address1":"Ludhiana","address2":"","latitude":"30.7397","longitude":"76.1543","accuracy":"3"},{"address3":"Kishangarh","state":"Punjab","state_code":"23","district":"Ludhiana","district_code":"041","address1":"Khanna","address2":"","latitude":"30.7382","longitude":"76.1263","accuracy":"4"},{"address3":"Bhourla","state":"Punjab","state_code":"23","district":"Ludhiana","district_code":"041","address1":"Ludhiana","address2":"","latitude":"30.7397","longitude":"76.1543","accuracy":"3"},{"address3":"Libra","state":"Punjab","state_code":"23","district":"Ludhiana","district_code":"041","address1":"Khanna","address2":"","latitude":"30.7227","longitude":"76.1789","accuracy":"4"},{"address3":"Ghungrali Rajputan","state":"Punjab","state_code":"23","district":"Ludhiana","district_code":"041","address1":"Khanna","address2":"","latitude":"30.7397","longitude":"76.1543","accuracy":"3"},{"address3":"Mohanpur","state":"Punjab","state_code":"23","district":"Ludhiana","district_code":"041","address1":"Khanna","address2":"","latitude":"30.7286","longitude":"76.1566","accuracy":"4"}],"141413":[{"address3":"Dhamote","state":"Punjab","state_code":"23","district":"Ludhiana","district_code":"041","address1":"Ludhiana","address2":"","latitude":"30.6559","longitude":"76.0162","accuracy":"3"},{"address3":"Sihaura","state":"Punjab","state_code":"23","district":"Ludhiana","district_code":"041","address1":"Ludhiana","address2":"","latitude":"30.6571","longitude":"76.0072","accuracy":"4"},{"address3":"Nizampur","state":"Punjab","state_code":"23","district":"Ludhiana","district_code":"041","address1":"Ludhiana","address2":"","latitude":"30.6547","longitude":"76.0252","accuracy":"4"}],"141414":[{"address3":"Ikolaha","state":"Punjab","state_code":"23","district":"Ludhiana","district_code":"041","address1":"Khanna","address2":"","latitude":"30.7218","longitude":"76.1385","accuracy":"3"},{"address3":"Rajewal","state":"Punjab","state_code":"23","district":"Ludhiana","district_code":"041","address1":"Khanna","address2":"","latitude":"30.8025","longitude":"76.1923","accuracy":"4"},{"address3":"Issru","state":"Punjab","state_code":"23","district":"Ludhiana","district_code":"041","address1":"Ludhiana","address2":"","latitude":"30.7218","longitude":"76.1385","accuracy":"3"},{"address3":"Rohno Kalan","state":"Punjab","state_code":"23","district":"Ludhiana","district_code":"041","address1":"Khanna","address2":"","latitude":"30.7218","longitude":"76.1385","accuracy":"3"},{"address3":"Nasrali","state":"Punjab","state_code":"23","district":"Ludhiana","district_code":"041","address1":"Ludhiana","address2":"","latitude":"30.6624","longitude":"76.0855","accuracy":"4"},{"address3":"Allona Pallah","state":"Punjab","state_code":"23","district":"Ludhiana","district_code":"041","address1":"Ludhiana","address2":"","latitude":"30.7218","longitude":"76.1385","accuracy":"3"},{"address3":"Chakohi","state":"Punjab","state_code":"23","district":"Ludhiana","district_code":"041","address1":"Ludhiana","address2":"","latitude":"30.7005","longitude":"76.1377","accuracy":"4"},{"address3":"Hoal","state":"Punjab","state_code":"23","district":"Ludhiana","district_code":"041","address1":"Ludhiana","address2":"","latitude":"30.7218","longitude":"76.1385","accuracy":"3"},{"address3":"Jallajan","state":"Punjab","state_code":"23","district":"Ludhiana","district_code":"041","address1":"Ludhiana","address2":"","latitude":"30.7218","longitude":"76.1385","accuracy":"3"}],"141415":[{"address3":"Bharthala Randhawa","state":"Punjab","state_code":"23","district":"Ludhiana","district_code":"041","address1":"Ludhiana","address2":"","latitude":"30.5692","longitude":"76.0795","accuracy":"4"},{"address3":"Sirthala","state":"Punjab","state_code":"23","district":"Ludhiana","district_code":"041","address1":"Ludhiana","address2":"","latitude":"30.604","longitude":"76.0709","accuracy":"3"},{"address3":"Jargari","state":"Punjab","state_code":"23","district":"Ludhiana","district_code":"041","address1":"Ludhiana  ludhiana","address2":"","latitude":"30.6367","longitude":"76.0454","accuracy":"4"},{"address3":"Rauni","state":"Punjab","state_code":"23","district":"Ludhiana","district_code":"041","address1":"Ludhiana","address2":"","latitude":"30.5969","longitude":"76.0894","accuracy":"4"},{"address3":"Jarg","state":"Punjab","state_code":"23","district":"Ludhiana","district_code":"041","address1":"Ludhiana","address2":"","latitude":"30.6132","longitude":"76.0694","accuracy":"4"}],"141416":[{"address3":"Ghudani Khurd","state":"Punjab","state_code":"23","district":"Ludhiana","district_code":"041","address1":"Ludhiana","address2":"","latitude":"30.7531","longitude":"76.0743","accuracy":"3"},{"address3":"Payal","state":"Punjab","state_code":"23","district":"Ludhiana","district_code":"041","address1":"Ludhiana","address2":"","latitude":"30.7531","longitude":"76.0743","accuracy":"3"},{"address3":"Barmalipur","state":"Punjab","state_code":"23","district":"Ludhiana","district_code":"041","address1":"Ludhiana","address2":"","latitude":"30.7531","longitude":"76.0743","accuracy":"4"},{"address3":"Maksudran","state":"Punjab","state_code":"23","district":"Ludhiana","district_code":"041","address1":"Ludhiana","address2":"","latitude":"30.7531","longitude":"76.0743","accuracy":"3"}],"141417":[{"address3":"Seh","state":"Punjab","state_code":"23","district":"Ludhiana","district_code":"041","address1":"Ludhiana","address2":"","latitude":"30.7644","longitude":"76.2385","accuracy":"4"},{"address3":"Harion Kalan","state":"Punjab","state_code":"23","district":"Ludhiana","district_code":"041","address1":"Khanna","address2":"","latitude":"30.7734","longitude":"76.3022","accuracy":"3"},{"address3":"Kalal Majra","state":"Punjab","state_code":"23","district":"Ludhiana","district_code":"041","address1":"Khanna","address2":"","latitude":"30.8087","longitude":"75.8382","accuracy":"4"},{"address3":"Kotla Bhari","state":"Punjab","state_code":"23","district":"Ludhiana","district_code":"041","address1":"Khanna","address2":"","latitude":"30.7734","longitude":"76.3022","accuracy":"3"},{"address3":"Goslan","state":"Punjab","state_code":"23","district":"Ludhiana","district_code":"041","address1":"Khanna","address2":"","latitude":"30.8087","longitude":"75.8382","accuracy":"4"},{"address3":"Manupur","state":"Punjab","state_code":"23","district":"Ludhiana","district_code":"041","address1":"Khanna","address2":"","latitude":"30.7734","longitude":"76.3022","accuracy":"3"},{"address3":"Salaudi","state":"Punjab","state_code":"23","district":"Ludhiana","district_code":"041","address1":"Ludhiana","address2":"","latitude":"30.7513","longitude":"76.2208","accuracy":"4"},{"address3":"Lalori Kalan","state":"Punjab","state_code":"23","district":"Ludhiana","district_code":"041","address1":"Ludhiana","address2":"","latitude":"30.7734","longitude":"76.3022","accuracy":"3"},{"address3":"Chak Mafi","state":"Punjab","state_code":"23","district":"Ludhiana","district_code":"041","address1":"Ludhiana","address2":"","latitude":"30.7734","longitude":"76.3022","accuracy":"3"},{"address3":"Rahawan","state":"Punjab","state_code":"23","district":"Ludhiana","district_code":"041","address1":"Khanna","address2":"","latitude":"30.7265","longitude":"76.2272","accuracy":"4"},{"address3":"Goh","state":"Punjab","state_code":"23","district":"Ludhiana","district_code":"041","address1":"Khanna","address2":"","latitude":"30.752","longitude":"76.2573","accuracy":"4"}],"141418":[{"address3":"Rampur (Ludhiana)","state":"Punjab","state_code":"23","district":"Ludhiana","district_code":"041","address1":"Ludhiana","address2":"","latitude":"30.522","longitude":"75.8346","accuracy":"3"},{"address3":"Kubba","state":"Punjab","state_code":"23","district":"Ludhiana","district_code":"041","address1":"Ludhiana","address2":"","latitude":"30.8087","longitude":"75.8382","accuracy":"4"},{"address3":"Mehdoodan","state":"Punjab","state_code":"23","district":"Ludhiana","district_code":"041","address1":"Ludhiana","address2":"","latitude":"30.522","longitude":"75.8346","accuracy":"3"},{"address3":"Begowal","state":"Punjab","state_code":"23","district":"Ludhiana","district_code":"041","address1":"Ludhiana","address2":"","latitude":"30.8107","longitude":"76.0627","accuracy":"4"}],"141419":[{"address3":"Ghangas","state":"Punjab","state_code":"23","district":"Ludhiana","district_code":"041","address1":"Ludhiana","address2":"","latitude":"30.6894","longitude":"76.1544","accuracy":"1"},{"address3":"Ghudani Kalan","state":"Punjab","state_code":"23","district":"Ludhiana","district_code":"041","address1":"Ludhiana","address2":"","latitude":"30.6894","longitude":"76.1544","accuracy":"1"},{"address3":"Ghaloti","state":"Punjab","state_code":"23","district":"Ludhiana","district_code":"041","address1":"Ludhiana","address2":"","latitude":"30.6894","longitude":"76.1544","accuracy":"1"}],"141421":[{"address3":"Bilaspur","state":"Punjab","state_code":"23","district":"Fatehgarh Sahib","district_code":"040","address1":"Khamanon","address2":"","latitude":"30.6617","longitude":"76.2982","accuracy":"4"},{"address3":"Lapran","state":"Punjab","state_code":"23","district":"Ludhiana","district_code":"041","address1":"Ludhiana","address2":"","latitude":"30.7548","longitude":"75.9322","accuracy":"4"},{"address3":"Doraha (Ludhiana)","state":"Punjab","state_code":"23","district":"Ludhiana","district_code":"041","address1":"NA","address2":"","latitude":"30.7156","longitude":"76.0854","accuracy":"3"},{"address3":"Jatana","state":"Punjab","state_code":"23","district":"Ludhiana","district_code":"041","address1":"Ludhiana","address2":"","latitude":"30.8017","longitude":"76.0759","accuracy":"4"},{"address3":"Rajgarh","state":"Punjab","state_code":"23","district":"Ludhiana","district_code":"041","address1":"Ludhiana","address2":"","latitude":"30.8087","longitude":"75.8382","accuracy":"4"},{"address3":"Bowani","state":"Punjab","state_code":"23","district":"Ludhiana","district_code":"041","address1":"Ludhiana","address2":"","latitude":"30.7156","longitude":"76.0854","accuracy":"3"},{"address3":"Jaspalon","state":"Punjab","state_code":"23","district":"Ludhiana","district_code":"041","address1":"Ludhiana","address2":"","latitude":"30.7855","longitude":"76.083","accuracy":"4"},{"address3":"Doburji","state":"Punjab","state_code":"23","district":"Ludhiana","district_code":"041","address1":"Ludhiana","address2":"","latitude":"30.7806","longitude":"75.9599","accuracy":"4"},{"address3":"Kaddon","state":"Punjab","state_code":"23","district":"Ludhiana","district_code":"041","address1":"Ludhiana","address2":"","latitude":"30.7156","longitude":"76.0854","accuracy":"3"},{"address3":"Rupalon","state":"Punjab","state_code":"23","district":"Ludhiana","district_code":"041","address1":"Ludhiana","address2":"","latitude":"30.7851","longitude":"76.1114","accuracy":"4"}],"141422":[{"address3":"Bopa Rai Kalan (Ludhiana)","state":"Punjab","state_code":"23","district":"Ludhiana","district_code":"041","address1":"Jagraon","address2":"","latitude":"30.803","longitude":"75.6673","accuracy":"3"},{"address3":"Hissowal","state":"Punjab","state_code":"23","district":"Ludhiana","district_code":"041","address1":"Ludhiana","address2":"","latitude":"30.803","longitude":"75.6673","accuracy":"4"},{"address3":"Raqba","state":"Punjab","state_code":"23","district":"Ludhiana","district_code":"041","address1":"Ludhiana","address2":"","latitude":"30.803","longitude":"75.6673","accuracy":"3"}],"141801":[{"address3":"Jatana Ucha","state":"Punjab","state_code":"23","district":"Fatehgarh Sahib","district_code":"040","address1":"Khamanon","address2":"","latitude":"30.8845","longitude":"75.7292","accuracy":"3"},{"address3":"Chari","state":"Punjab","state_code":"23","district":"Fatehgarh Sahib","district_code":"040","address1":"Khamanon","address2":"","latitude":"30.6322","longitude":"76.3653","accuracy":"4"},{"address3":"Shamaspur Singhan","state":"Punjab","state_code":"23","district":"Fatehgarh Sahib","district_code":"040","address1":"Khamanon","address2":"","latitude":"30.8845","longitude":"75.7292","accuracy":"3"},{"address3":"Pharaur","state":"Punjab","state_code":"23","district":"Fatehgarh Sahib","district_code":"040","address1":"Khamanon","address2":"","latitude":"30.807","longitude":"76.3116","accuracy":"4"},{"address3":"Khamano Kalan","state":"Punjab","state_code":"23","district":"Fatehgarh Sahib","district_code":"040","address1":"Khamanon","address2":"","latitude":"30.8845","longitude":"75.7292","accuracy":"3"},{"address3":"Rattangarh","state":"Punjab","state_code":"23","district":"Patiala","district_code":"048","address1":"Khamanon","address2":"","latitude":"30.2814","longitude":"76.3539","accuracy":"4"},{"address3":"Manela","state":"Punjab","state_code":"23","district":"Patiala","district_code":"048","address1":"Khamanon","address2":"","latitude":"30.2814","longitude":"76.3539","accuracy":"4"},{"address3":"Maneli","state":"Punjab","state_code":"23","district":"Patiala","district_code":"048","address1":"Khamanon","address2":"","latitude":"30.2814","longitude":"76.3539","accuracy":"4"}],"credits":[{"name":"geonames","url":"https://www.geonames.org"}],"last_update":"2019-03-01T09:01:33.989Z"}