{"144001":[{"address3":"Lajpat Nagar (Jalandhar)","state":"Punjab","state_code":"23","district":"Jalandhar","district_code":"037","address1":"Jalandhar - I","address2":"","latitude":"31.4375","longitude":"75.3467","accuracy":"1"},{"address3":"Railway Road (Jalandhar)","state":"Punjab","state_code":"23","district":"Jalandhar","district_code":"037","address1":"Jalandhar - I","address2":"","latitude":"31.4375","longitude":"75.3467","accuracy":"1"},{"address3":"Bazar Shahidan","state":"Punjab","state_code":"23","district":"Jalandhar","district_code":"037","address1":"Jalandhar - I","address2":"","latitude":"31.4375","longitude":"75.3467","accuracy":"1"},{"address3":"S U S Nagar","state":"Punjab","state_code":"23","district":"Jalandhar","district_code":"037","address1":"Jalandhar - I","address2":"","latitude":"31.4375","longitude":"75.3467","accuracy":"1"},{"address3":"Shakti Nagar (Jalandhar)","state":"Punjab","state_code":"23","district":"Jalandhar","district_code":"037","address1":"Jalandhar - I","address2":"","latitude":"31.4375","longitude":"75.3467","accuracy":"1"},{"address3":"N R Colony","state":"Punjab","state_code":"23","district":"Jalandhar","district_code":"037","address1":"Jalandhar - I","address2":"","latitude":"31.4375","longitude":"75.3467","accuracy":"1"},{"address3":"Sant Nagar (Jalandhar)","state":"Punjab","state_code":"23","district":"Jalandhar","district_code":"037","address1":"Jalandhar - I","address2":"","latitude":"31.4375","longitude":"75.3467","accuracy":"1"},{"address3":"General Bus Stand (Jalandhar)","state":"Punjab","state_code":"23","district":"Jalandhar","district_code":"037","address1":"Jalandhar - I","address2":"","latitude":"31.4375","longitude":"75.3467","accuracy":"1"},{"address3":"Rasta Mohalla","state":"Punjab","state_code":"23","district":"Jalandhar","district_code":"037","address1":"Jalandhar - I","address2":"","latitude":"31.4375","longitude":"75.3467","accuracy":"1"},{"address3":"Fentonganj","state":"Punjab","state_code":"23","district":"Jalandhar","district_code":"037","address1":"Jalandhar - I","address2":"","latitude":"31.4375","longitude":"75.3467","accuracy":"1"},{"address3":"Jalandhar City H.O","state":"Punjab","state_code":"23","district":"Jalandhar","district_code":"037","address1":"Jalandhar - I","address2":"","latitude":"31.4375","longitude":"75.3467","accuracy":"1"},{"address3":"Session Court (Jalandhar)","state":"Punjab","state_code":"23","district":"Jalandhar","district_code":"037","address1":"Jalandhar - I","address2":"","latitude":"31.4375","longitude":"75.3467","accuracy":"1"}],"144002":[{"address3":"Civil Secretariate","state":"Punjab","state_code":"23","district":"Jalandhar","district_code":"037","address1":"Jalandhar - I","address2":"","latitude":"31.4555","longitude":"75.39","accuracy":"3"},{"address3":"Kohala","state":"Punjab","state_code":"23","district":"Jalandhar","district_code":"037","address1":"Jalandhar","address2":"","latitude":"31.2958","longitude":"75.4566","accuracy":"4"},{"address3":"Basti Guzan","state":"Punjab","state_code":"23","district":"Jalandhar","district_code":"037","address1":"Jalandhar - I","address2":"","latitude":"31.4555","longitude":"75.39","accuracy":"3"},{"address3":"Dhariwal","state":"Punjab","state_code":"23","district":"Jalandhar","district_code":"037","address1":"Jalandhar -II","address2":"","latitude":"31.2126","longitude":"75.5666","accuracy":"4"},{"address3":"Basti Danishmandan","state":"Punjab","state_code":"23","district":"Jalandhar","district_code":"037","address1":"Jalandhar - I","address2":"","latitude":"31.4555","longitude":"75.39","accuracy":"3"},{"address3":"Athola","state":"Punjab","state_code":"23","district":"Jalandhar","district_code":"037","address1":"Jalandhar -II","address2":"","latitude":"31.4555","longitude":"75.39","accuracy":"3"},{"address3":"Basti Sheikh","state":"Punjab","state_code":"23","district":"Jalandhar","district_code":"037","address1":"Jalandhar - I","address2":"","latitude":"31.4555","longitude":"75.39","accuracy":"3"},{"address3":"Chamiara","state":"Punjab","state_code":"23","district":"Jalandhar","district_code":"037","address1":"Jalandhar -II","address2":"","latitude":"31.4555","longitude":"75.39","accuracy":"3"},{"address3":"Basti Nau","state":"Punjab","state_code":"23","district":"Jalandhar","district_code":"037","address1":"Jalandhar - I","address2":"","latitude":"31.4555","longitude":"75.39","accuracy":"3"},{"address3":"Gakhlan","state":"Punjab","state_code":"23","district":"Jalandhar","district_code":"037","address1":"Jalandhar -II","address2":"","latitude":"31.4555","longitude":"75.39","accuracy":"3"}],"144003":[{"address3":"Tower Town Colony","state":"Punjab","state_code":"23","district":"Jalandhar","district_code":"037","address1":"Jalandhar - I","address2":"","latitude":"31.4375","longitude":"75.3467","accuracy":"1"},{"address3":"Wadala","state":"Punjab","state_code":"23","district":"Jalandhar","district_code":"037","address1":"Jalandhar","address2":"","latitude":"31.4375","longitude":"75.3467","accuracy":"1"},{"address3":"Model Town (Jalandhar)","state":"Punjab","state_code":"23","district":"Jalandhar","district_code":"037","address1":"Jalandhar - I","address2":"","latitude":"31.4375","longitude":"75.3467","accuracy":"1"},{"address3":"Khurla","state":"Punjab","state_code":"23","district":"Jalandhar","district_code":"037","address1":"Jalandhar -II","address2":"","latitude":"31.4375","longitude":"75.3467","accuracy":"1"},{"address3":"Model House","state":"Punjab","state_code":"23","district":"Jalandhar","district_code":"037","address1":"Jalandhar - I","address2":"","latitude":"31.4375","longitude":"75.3467","accuracy":"1"},{"address3":"Bhargav Camp","state":"Punjab","state_code":"23","district":"Jalandhar","district_code":"037","address1":"Jalandhar - I","address2":"","latitude":"31.4375","longitude":"75.3467","accuracy":"1"}],"144004":[{"address3":"Guru Ravidass Road","state":"Punjab","state_code":"23","district":"Jalandhar","district_code":"037","address1":"Jalandhar - I","address2":"","latitude":"31.4254","longitude":"75.3178","accuracy":"3"},{"address3":"Industrial Town","state":"Punjab","state_code":"23","district":"Jalandhar","district_code":"037","address1":"Jalandhar - I","address2":"","latitude":"31.2126","longitude":"75.5666","accuracy":"4"},{"address3":"Bal","state":"Punjab","state_code":"23","district":"Jalandhar","district_code":"037","address1":"Jalandhar -II","address2":"","latitude":"31.2126","longitude":"75.5666","accuracy":"4"},{"address3":"Hoshiarpur Road","state":"Punjab","state_code":"23","district":"Jalandhar","district_code":"037","address1":"Jalandhar - I","address2":"","latitude":"31.4254","longitude":"75.3178","accuracy":"3"},{"address3":"Nurpur","state":"Punjab","state_code":"23","district":"Jalandhar","district_code":"037","address1":"Jalandhar","address2":"","latitude":"31.1384","longitude":"75.4127","accuracy":"4"},{"address3":"Nussi","state":"Punjab","state_code":"23","district":"Jalandhar","district_code":"037","address1":"Jalandhar","address2":"","latitude":"31.4254","longitude":"75.3178","accuracy":"3"},{"address3":"Lidhran","state":"Punjab","state_code":"23","district":"Jalandhar","district_code":"037","address1":"Jalandhar","address2":"","latitude":"31.4254","longitude":"75.3178","accuracy":"3"},{"address3":"Randhawa Masanda","state":"Punjab","state_code":"23","district":"Jalandhar","district_code":"037","address1":"Jalandhar","address2":"","latitude":"31.4254","longitude":"75.3178","accuracy":"3"},{"address3":"Raipur Rasulpur","state":"Punjab","state_code":"23","district":"Jalandhar","district_code":"037","address1":"Jalandhar","address2":"","latitude":"31.4254","longitude":"75.3178","accuracy":"3"},{"address3":"Preet Nagar (Jalandhar)","state":"Punjab","state_code":"23","district":"Jalandhar","district_code":"037","address1":"Jalandhar - I","address2":"","latitude":"31.4254","longitude":"75.3178","accuracy":"3"},{"address3":"Sodal Road","state":"Punjab","state_code":"23","district":"Jalandhar","district_code":"037","address1":"Jalandhar - I","address2":"","latitude":"31.4254","longitude":"75.3178","accuracy":"3"}],"144005":[{"address3":"Sadar Bazar Jalandhar Cantt","state":"Punjab","state_code":"23","district":"Jalandhar","district_code":"037","address1":"Jalandhar -II","address2":"","latitude":"31.4375","longitude":"75.3467","accuracy":"1"},{"address3":"Jalandhar Cantt H.O","state":"Punjab","state_code":"23","district":"Jalandhar","district_code":"037","address1":"Jalandhar","address2":"","latitude":"31.4375","longitude":"75.3467","accuracy":"1"},{"address3":"Rama Mandi","state":"Punjab","state_code":"23","district":"Jalandhar","district_code":"037","address1":"Jalandhar -II","address2":"","latitude":"31.4375","longitude":"75.3467","accuracy":"1"},{"address3":"Millitary Hospital","state":"Punjab","state_code":"23","district":"Jalandhar","district_code":"037","address1":"Jalandhar -II","address2":"","latitude":"31.4375","longitude":"75.3467","accuracy":"1"}],"144006":[{"address3":"BSF Campus","state":"Punjab","state_code":"23","district":"Jalandhar","district_code":"037","address1":"Jalandhar -II","address2":"","latitude":"31.4375","longitude":"75.3467","accuracy":"1"},{"address3":"P.A.P. Lines Jalandhar Cantt","state":"Punjab","state_code":"23","district":"Jalandhar","district_code":"037","address1":"Jalandhar -II","address2":"","latitude":"31.4375","longitude":"75.3467","accuracy":"1"}],"144007":[{"address3":"Ladhewali","state":"Punjab","state_code":"23","district":"Jalandhar","district_code":"037","address1":"Jalandhar -II","address2":"","latitude":"31.4375","longitude":"75.3467","accuracy":"1"}],"144008":[{"address3":"Bazar Nauhrian","state":"Punjab","state_code":"23","district":"Jalandhar","district_code":"037","address1":"Jalandhar - I","address2":"","latitude":"31.4375","longitude":"75.3467","accuracy":"1"},{"address3":"Guru Amar Dass Nagar","state":"Punjab","state_code":"23","district":"Jalandhar","district_code":"037","address1":"Jalandhar - I","address2":"","latitude":"31.4375","longitude":"75.3467","accuracy":"1"},{"address3":"Bhagat Bazar","state":"Punjab","state_code":"23","district":"Jalandhar","district_code":"037","address1":"Jalandhar - I","address2":"","latitude":"31.4375","longitude":"75.3467","accuracy":"1"},{"address3":"Bikrampura","state":"Punjab","state_code":"23","district":"Jalandhar","district_code":"037","address1":"Jalandhar - I","address2":"","latitude":"31.4375","longitude":"75.3467","accuracy":"1"},{"address3":"Charanjitpura","state":"Punjab","state_code":"23","district":"Jalandhar","district_code":"037","address1":"Jalandhar - I","address2":"","latitude":"31.4375","longitude":"75.3467","accuracy":"1"},{"address3":"D A V  College","state":"Punjab","state_code":"23","district":"Jalandhar","district_code":"037","address1":"Jalandhar - I","address2":"","latitude":"31.4375","longitude":"75.3467","accuracy":"1"},{"address3":"Grain Market (Jalandhar)","state":"Punjab","state_code":"23","district":"Jalandhar","district_code":"037","address1":"Jalandhar - I","address2":"","latitude":"31.4375","longitude":"75.3467","accuracy":"1"}],"144009":[{"address3":"Chogitti","state":"Punjab","state_code":"23","district":"Jalandhar","district_code":"037","address1":"Jalandhar - I","address2":"","latitude":"31.4375","longitude":"75.3467","accuracy":"1"},{"address3":"Regional Campus GNDU","state":"Punjab","state_code":"23","district":"Jalandhar","district_code":"037","address1":"Jalandhar","address2":"","latitude":"31.4375","longitude":"75.3467","accuracy":"1"}],"144010":[{"address3":"Dhanowali","state":"Punjab","state_code":"23","district":"Jalandhar","district_code":"037","address1":"Phillaur","address2":"","latitude":"31.1191","longitude":"75.487","accuracy":"1"}],"144011":[{"address3":"R.E.C. Jalandhar","state":"Punjab","state_code":"23","district":"Jalandhar","district_code":"037","address1":"Jalandhar -II","address2":"","latitude":"31.1191","longitude":"75.487","accuracy":"1"}],"144012":[{"address3":"Reru","state":"Punjab","state_code":"23","district":"Jalandhar","district_code":"037","address1":"Jalandhar - I","address2":"","latitude":"31.1191","longitude":"75.487","accuracy":"4"}],"144020":[{"address3":"Jamsher","state":"Punjab","state_code":"23","district":"Jalandhar","district_code":"037","address1":"Jalandhar -II","address2":"","latitude":"31.2357","longitude":"75.6186","accuracy":"4"},{"address3":"Udhopur","state":"Punjab","state_code":"23","district":"Jalandhar","district_code":"037","address1":"Jalandhar -II","address2":"","latitude":"31.2357","longitude":"75.6186","accuracy":"3"},{"address3":"Qadian Wali","state":"Punjab","state_code":"23","district":"Jalandhar","district_code":"037","address1":"Jalandhar -II","address2":"","latitude":"31.2357","longitude":"75.6186","accuracy":"3"}],"144021":[{"address3":"Basti Bawa Khel","state":"Punjab","state_code":"23","district":"Jalandhar","district_code":"037","address1":"Jalandhar - I","address2":"","latitude":"31.2136","longitude":"75.5924","accuracy":"3"},{"address3":"Mand","state":"Punjab","state_code":"23","district":"Jalandhar","district_code":"037","address1":"Jalandhar","address2":"","latitude":"31.2126","longitude":"75.5666","accuracy":"4"},{"address3":"Nagra (Jalandhar)","state":"Punjab","state_code":"23","district":"Jalandhar","district_code":"037","address1":"Jalandhar","address2":"","latitude":"31.0792","longitude":"75.6924","accuracy":"4"},{"address3":"Hellor","state":"Punjab","state_code":"23","district":"Jalandhar","district_code":"037","address1":"Jalandhar -II","address2":"","latitude":"31.2136","longitude":"75.5924","accuracy":"3"}],"144022":[{"address3":"Urban Estate (Jalandhar)","state":"Punjab","state_code":"23","district":"Jalandhar","district_code":"037","address1":"Jalandhar -II","address2":"","latitude":"31.2945","longitude":"75.7539","accuracy":"1"},{"address3":"Dhina.","state":"Punjab","state_code":"23","district":"Jalandhar","district_code":"037","address1":"Jalandhar -II","address2":"","latitude":"31.2945","longitude":"75.7539","accuracy":"1"},{"address3":"Mithapur","state":"Punjab","state_code":"23","district":"Jalandhar","district_code":"037","address1":"Jalandhar -II","address2":"","latitude":"31.2945","longitude":"75.7539","accuracy":"1"}],"144023":[{"address3":"Dakoha","state":"Punjab","state_code":"23","district":"Jalandhar","district_code":"037","address1":"Jalandhar -II","address2":"","latitude":"31.2945","longitude":"75.7539","accuracy":"1"}],"144024":[{"address3":"Sansarpur","state":"Punjab","state_code":"23","district":"Jalandhar","district_code":"037","address1":"Jalandhar -II","address2":"","latitude":"31.2126","longitude":"75.5666","accuracy":"4"},{"address3":"Kukar Pind","state":"Punjab","state_code":"23","district":"Jalandhar","district_code":"037","address1":"Jalandhar","address2":"","latitude":"31.0523","longitude":"76.0849","accuracy":"3"},{"address3":"Khusropur","state":"Punjab","state_code":"23","district":"Jalandhar","district_code":"037","address1":"Jalandhar - I","address2":"","latitude":"31.2126","longitude":"75.5666","accuracy":"4"},{"address3":"Kot Kalan","state":"Punjab","state_code":"23","district":"Jalandhar","district_code":"037","address1":"Jalandhar - I","address2":"","latitude":"31.0523","longitude":"76.0849","accuracy":"3"},{"address3":"Sofi Pind","state":"Punjab","state_code":"23","district":"Jalandhar","district_code":"037","address1":"Jalandhar - I","address2":"","latitude":"31.0523","longitude":"76.0849","accuracy":"3"}],"144025":[{"address3":"Jandu Singha","state":"Punjab","state_code":"23","district":"Jalandhar","district_code":"037","address1":"Jalandhar","address2":"","latitude":"31.3766","longitude":"75.6506","accuracy":"4"},{"address3":"Kapur Pind","state":"Punjab","state_code":"23","district":"Jalandhar","district_code":"037","address1":"Jalandhar - I","address2":"","latitude":"31.3766","longitude":"75.6506","accuracy":"3"},{"address3":"Dhogri","state":"Punjab","state_code":"23","district":"Jalandhar","district_code":"037","address1":"Jalandhar -II","address2":"","latitude":"31.3766","longitude":"75.6506","accuracy":"3"},{"address3":"Hazara","state":"Punjab","state_code":"23","district":"Jalandhar","district_code":"037","address1":"Jalandhar - I","address2":"","latitude":"31.3766","longitude":"75.6506","accuracy":"3"},{"address3":"Sheikhe Pind","state":"Punjab","state_code":"23","district":"Jalandhar","district_code":"037","address1":"Jalandhar - I","address2":"","latitude":"31.3766","longitude":"75.6506","accuracy":"3"},{"address3":"Jaitewali","state":"Punjab","state_code":"23","district":"Jalandhar","district_code":"037","address1":"Jalandhar - I","address2":"","latitude":"31.3766","longitude":"75.6506","accuracy":"3"},{"address3":"Budhiana","state":"Punjab","state_code":"23","district":"Jalandhar","district_code":"037","address1":"Jalandhar","address2":"","latitude":"31.3766","longitude":"75.6506","accuracy":"3"},{"address3":"Madar","state":"Punjab","state_code":"23","district":"Jalandhar","district_code":"037","address1":"Jalandhar","address2":"","latitude":"31.3766","longitude":"75.6506","accuracy":"3"}],"144026":[{"address3":"Tajpur","state":"Punjab","state_code":"23","district":"Jalandhar","district_code":"037","address1":"Jalandhar","address2":"","latitude":"31.2126","longitude":"75.5666","accuracy":"4"},{"address3":"Lambra","state":"Punjab","state_code":"23","district":"Jalandhar","district_code":"037","address1":"Jalandhar","address2":"","latitude":"31.2126","longitude":"75.5666","accuracy":"4"},{"address3":"Khambra","state":"Punjab","state_code":"23","district":"Jalandhar","district_code":"037","address1":"Jalandhar - I","address2":"","latitude":"31.564","longitude":"75.8547","accuracy":"3"},{"address3":"Malko Tarar","state":"Punjab","state_code":"23","district":"Jalandhar","district_code":"037","address1":"Jalandhar","address2":"","latitude":"31.564","longitude":"75.8547","accuracy":"3"},{"address3":"Lohar Partapura","state":"Punjab","state_code":"23","district":"Jalandhar","district_code":"037","address1":"Jalandhar","address2":"","latitude":"31.564","longitude":"75.8547","accuracy":"3"},{"address3":"Samipur","state":"Punjab","state_code":"23","district":"Jalandhar","district_code":"037","address1":"Jalandhar","address2":"","latitude":"31.564","longitude":"75.8547","accuracy":"3"},{"address3":"Phoolpur Dhanal","state":"Punjab","state_code":"23","district":"Jalandhar","district_code":"037","address1":"Jalandhar - I","address2":"","latitude":"31.564","longitude":"75.8547","accuracy":"3"},{"address3":"Kalyanpur","state":"Punjab","state_code":"23","district":"Jalandhar","district_code":"037","address1":"Jalandhar -II","address2":"","latitude":"31.564","longitude":"75.8547","accuracy":"3"}],"144027":[{"address3":"Suranussi","state":"Punjab","state_code":"23","district":"Jalandhar","district_code":"037","address1":"Jalandhar - I","address2":"","latitude":"31.2945","longitude":"75.7539","accuracy":"1"}],"144028":[{"address3":"Chitti","state":"Punjab","state_code":"23","district":"Jalandhar","district_code":"037","address1":"Jalandhar","address2":"","latitude":"31.2377","longitude":"75.4766","accuracy":"4"},{"address3":"Lallian","state":"Punjab","state_code":"23","district":"Jalandhar","district_code":"037","address1":"Jalandhar","address2":"","latitude":"31.1252","longitude":"75.8558","accuracy":"4"}],"144029":[{"address3":"Ratinda","state":"Punjab","state_code":"23","district":"Jalandhar","district_code":"037","address1":"Phillaur","address2":"","latitude":"31.3981","longitude":"75.7118","accuracy":"3"},{"address3":"Moron","state":"Punjab","state_code":"23","district":"Jalandhar","district_code":"037","address1":"Phillaur","address2":"","latitude":"31.0855","longitude":"75.9167","accuracy":"4"},{"address3":"Malo Mazara","state":"Punjab","state_code":"23","district":"Jalandhar","district_code":"037","address1":"Jalandhar -II","address2":"","latitude":"31.3981","longitude":"75.7118","accuracy":"3"},{"address3":"Chhokran","state":"Punjab","state_code":"23","district":"Jalandhar","district_code":"037","address1":"Phillaur","address2":"","latitude":"31.0889","longitude":"75.9057","accuracy":"4"},{"address3":"Sheikhupur","state":"Punjab","state_code":"23","district":"Nawanshahr","district_code":"039","address1":"Phillaur","address2":"","latitude":"31.1091","longitude":"76.156","accuracy":"4"}],"144030":[{"address3":"Padhiana","state":"Punjab","state_code":"23","district":"Jalandhar","district_code":"037","address1":"Jalandhar","address2":"","latitude":"31.4093","longitude":"75.8068","accuracy":"4"},{"address3":"Kalra","state":"Punjab","state_code":"23","district":"Jalandhar","district_code":"037","address1":"Jalandhar","address2":"","latitude":"31.3976","longitude":"75.777","accuracy":"4"}],"144031":[{"address3":"Rurka Kalan","state":"Punjab","state_code":"23","district":"Jalandhar","district_code":"037","address1":"Phagwara","address2":"","latitude":"31.1228","longitude":"75.6996","accuracy":"4"}],"144032":[{"address3":"Kangniwal","state":"Punjab","state_code":"23","district":"Jalandhar","district_code":"037","address1":"Phagwara","address2":"","latitude":"31.1936","longitude":"75.6513","accuracy":"3"},{"address3":"Daduwal","state":"Punjab","state_code":"23","district":"Jalandhar","district_code":"037","address1":"Phagwara","address2":"","latitude":"31.2083","longitude":"75.6702","accuracy":"4"},{"address3":"Samrai","state":"Punjab","state_code":"23","district":"Jalandhar","district_code":"037","address1":"Phagwara","address2":"","latitude":"31.1788","longitude":"75.6323","accuracy":"4"}],"144033":[{"address3":"Bhangala","state":"Punjab","state_code":"23","district":"Jalandhar","district_code":"037","address1":"Phagwara","address2":"","latitude":"31.1447","longitude":"75.597","accuracy":"4"},{"address3":"Chanian","state":"Punjab","state_code":"23","district":"Jalandhar","district_code":"037","address1":"Phillaur","address2":"","latitude":"31.1737","longitude":"75.575","accuracy":"4"},{"address3":"Jandiala","state":"Punjab","state_code":"23","district":"Jalandhar","district_code":"037","address1":"Phagwara Ho","address2":"","latitude":"31.1593","longitude":"75.6176","accuracy":"4"},{"address3":"Chak Vendal","state":"Punjab","state_code":"23","district":"Jalandhar","district_code":"037","address1":"Nakodar","address2":"","latitude":"31.1621","longitude":"75.5962","accuracy":"3"},{"address3":"Dhaliwal","state":"Punjab","state_code":"23","district":"Jalandhar","district_code":"037","address1":"Nakodar","address2":"","latitude":"31.1708","longitude":"75.5953","accuracy":"4"},{"address3":"Wajuha Khurd","state":"Punjab","state_code":"23","district":"Jalandhar","district_code":"037","address1":"Nakodar","address2":"","latitude":"31.1621","longitude":"75.5962","accuracy":"3"}],"144034":[{"address3":"Bundala (Jalandhar)","state":"Punjab","state_code":"23","district":"Jalandhar","district_code":"037","address1":"Phagwara","address2":"","latitude":"31.1429","longitude":"75.6615","accuracy":"4"},{"address3":"Mithra","state":"Punjab","state_code":"23","district":"Jalandhar","district_code":"037","address1":"Phagwara","address2":"","latitude":"31.1184","longitude":"75.6518","accuracy":"4"},{"address3":"Sunner Kalan","state":"Punjab","state_code":"23","district":"Jalandhar","district_code":"037","address1":"Phagwara","address2":"","latitude":"31.1278","longitude":"75.643","accuracy":"3"},{"address3":"Pabwan","state":"Punjab","state_code":"23","district":"Jalandhar","district_code":"037","address1":"Phagwara","address2":"","latitude":"31.1222","longitude":"75.6157","accuracy":"4"},{"address3":"Bhardwajian","state":"Punjab","state_code":"23","district":"Jalandhar","district_code":"037","address1":"Phagwara","address2":"","latitude":"31.1278","longitude":"75.643","accuracy":"3"}],"144035":[{"address3":"Partappura","state":"Punjab","state_code":"23","district":"Jalandhar","district_code":"037","address1":"Phillaur","address2":"","latitude":"31.1797","longitude":"75.6257","accuracy":"1"},{"address3":"Mehsumpurn","state":"Punjab","state_code":"23","district":"Jalandhar","district_code":"037","address1":"Phillaur","address2":"","latitude":"31.1797","longitude":"75.6257","accuracy":"1"},{"address3":"Kang Arryan","state":"Punjab","state_code":"23","district":"Jalandhar","district_code":"037","address1":"Phagwara Ho","address2":"","latitude":"31.1797","longitude":"75.6257","accuracy":"1"},{"address3":"Mau Mianwal","state":"Punjab","state_code":"23","district":"Jalandhar","district_code":"037","address1":"Phagwara Ho","address2":"","latitude":"31.1797","longitude":"75.6257","accuracy":"1"}],"144036":[{"address3":"Bilga","state":"Punjab","state_code":"23","district":"Jalandhar","district_code":"037","address1":"Phagwara","address2":"","latitude":"31.0499","longitude":"75.6544","accuracy":"4"},{"address3":"Khokhewal","state":"Punjab","state_code":"23","district":"Jalandhar","district_code":"037","address1":"Phagwara","address2":"","latitude":"31.0499","longitude":"75.6544","accuracy":"3"},{"address3":"Thamanwal","state":"Punjab","state_code":"23","district":"Jalandhar","district_code":"037","address1":"Phagwara","address2":"","latitude":"31.0499","longitude":"75.6544","accuracy":"3"},{"address3":"Mowai","state":"Punjab","state_code":"23","district":"Jalandhar","district_code":"037","address1":"Phagwara","address2":"","latitude":"31.0499","longitude":"75.6544","accuracy":"3"},{"address3":"Powadhra","state":"Punjab","state_code":"23","district":"Jalandhar","district_code":"037","address1":"Phillaur","address2":"","latitude":"31.0499","longitude":"75.6544","accuracy":"3"}],"144037":[{"address3":"Nagra","state":"Punjab","state_code":"23","district":"Jalandhar","district_code":"037","address1":"Phagwara","address2":"","latitude":"31.0792","longitude":"75.6924","accuracy":"4"},{"address3":"Pharwala","state":"Punjab","state_code":"23","district":"Jalandhar","district_code":"037","address1":"Phagwara","address2":"","latitude":"31.0902","longitude":"75.6689","accuracy":"4"},{"address3":"Pasla","state":"Punjab","state_code":"23","district":"Jalandhar","district_code":"037","address1":"Phillaur","address2":"","latitude":"31.1019","longitude":"75.6853","accuracy":"4"}],"144039":[{"address3":"Shadipur","state":"Punjab","state_code":"23","district":"Jalandhar","district_code":"037","address1":"Nakodar","address2":"","latitude":"31.0558","longitude":"75.5996","accuracy":"4"},{"address3":"Kandola Kalan","state":"Punjab","state_code":"23","district":"Jalandhar","district_code":"037","address1":"Nakodar","address2":"","latitude":"31.1969","longitude":"75.5767","accuracy":"3"},{"address3":"Umarpur Kalan","state":"Punjab","state_code":"23","district":"Jalandhar","district_code":"037","address1":"Phillaur","address2":"","latitude":"31.2126","longitude":"75.5666","accuracy":"4"},{"address3":"Uppal Bhupa","state":"Punjab","state_code":"23","district":"Jalandhar","district_code":"037","address1":"Nakodar","address2":"","latitude":"31.1969","longitude":"75.5767","accuracy":"3"},{"address3":"Talwan","state":"Punjab","state_code":"23","district":"Jalandhar","district_code":"037","address1":"Nakodar","address2":"","latitude":"31.0111","longitude":"75.6104","accuracy":"4"},{"address3":"Uppal Jagir","state":"Punjab","state_code":"23","district":"Jalandhar","district_code":"037","address1":"Nakodar","address2":"","latitude":"31.1969","longitude":"75.5767","accuracy":"3"},{"address3":"Saidowal","state":"Punjab","state_code":"23","district":"Jalandhar","district_code":"037","address1":"Phillaur","address2":"","latitude":"31.0941","longitude":"75.6524","accuracy":"4"},{"address3":"Ramewal","state":"Punjab","state_code":"23","district":"Jalandhar","district_code":"037","address1":"Nakodar","address2":"","latitude":"31.049","longitude":"75.5821","accuracy":"4"},{"address3":"Gumtali","state":"Punjab","state_code":"23","district":"Jalandhar","district_code":"037","address1":"Nakodar","address2":"","latitude":"31.0691","longitude":"75.6371","accuracy":"4"},{"address3":"Gumtala","state":"Punjab","state_code":"23","district":"Jalandhar","district_code":"037","address1":"Nakodar","address2":"","latitude":"31.0665","longitude":"75.6238","accuracy":"4"},{"address3":"Chuheki","state":"Punjab","state_code":"23","district":"Jalandhar","district_code":"037","address1":"Phillaur","address2":"","latitude":"31.1157","longitude":"75.5982","accuracy":"4"},{"address3":"Kot Badal Khan","state":"Punjab","state_code":"23","district":"Jalandhar","district_code":"037","address1":"Phillaur","address2":"","latitude":"31.0538","longitude":"75.555","accuracy":"4"},{"address3":"Bhallowal","state":"Punjab","state_code":"23","district":"Jalandhar","district_code":"037","address1":"Nakodar","address2":"","latitude":"31.531","longitude":"75.571","accuracy":"4"},{"address3":"Bhandal Himmat","state":"Punjab","state_code":"23","district":"Jalandhar","district_code":"037","address1":"Nakodar","address2":"","latitude":"31.1229","longitude":"75.5782","accuracy":"4"},{"address3":"Nurmahal","state":"Punjab","state_code":"23","district":"Jalandhar","district_code":"037","address1":"Nakodar","address2":"","latitude":"31.0966","longitude":"75.5939","accuracy":"4"}],"144040":[{"address3":"Bhullar","state":"Punjab","state_code":"23","district":"Jalandhar","district_code":"037","address1":"Nakodar","address2":"","latitude":"31.2126","longitude":"75.5666","accuracy":"4"},{"address3":"D.G.Nakoder","state":"Punjab","state_code":"23","district":"Jalandhar","district_code":"037","address1":"Nakoder","address2":"","latitude":"31.1606","longitude":"75.3515","accuracy":"3"},{"address3":"Gandhran","state":"Punjab","state_code":"23","district":"Jalandhar","district_code":"037","address1":"Nakodar","address2":"","latitude":"31.2126","longitude":"75.5666","accuracy":"4"},{"address3":"New Judicial Court Complex Nakodar","state":"Punjab","state_code":"23","district":"Jalandhar","district_code":"037","address1":"Nakodar","address2":"","latitude":"31.1606","longitude":"75.3515","accuracy":"3"},{"address3":"Bhodipur","state":"Punjab","state_code":"23","district":"Jalandhar","district_code":"037","address1":"Nakodar","address2":"","latitude":"31.1304","longitude":"75.398","accuracy":"4"},{"address3":"Nakoder","state":"Punjab","state_code":"23","district":"Jalandhar","district_code":"037","address1":"Nakodar","address2":"","latitude":"31.1606","longitude":"75.3515","accuracy":"3"},{"address3":"Pandori Khas","state":"Punjab","state_code":"23","district":"Jalandhar","district_code":"037","address1":"Nakodar","address2":"","latitude":"31.0995","longitude":"75.4427","accuracy":"4"},{"address3":"Billi Chuharmi","state":"Punjab","state_code":"23","district":"Jalandhar","district_code":"037","address1":"Shahkot","address2":"","latitude":"31.1606","longitude":"75.3515","accuracy":"3"},{"address3":"Nurpur","state":"Punjab","state_code":"23","district":"Jalandhar","district_code":"037","address1":"Nakodar","address2":"","latitude":"31.1384","longitude":"75.4127","accuracy":"4"},{"address3":"Lidhran","state":"Punjab","state_code":"23","district":"Jalandhar","district_code":"037","address1":"NA","address2":"","latitude":"31.1606","longitude":"75.3515","accuracy":"3"},{"address3":"Bara Sidhpur","state":"Punjab","state_code":"23","district":"Jalandhar","district_code":"037","address1":"Nakodar","address2":"","latitude":"31.1188","longitude":"75.4042","accuracy":"4"},{"address3":"Malri","state":"Punjab","state_code":"23","district":"Jalandhar","district_code":"037","address1":"Nakodar","address2":"","latitude":"31.1606","longitude":"75.3515","accuracy":"3"},{"address3":"Nawanpind Jattan","state":"Punjab","state_code":"23","district":"Jalandhar","district_code":"037","address1":"NA","address2":"","latitude":"31.1606","longitude":"75.3515","accuracy":"3"},{"address3":"Tut Kalan","state":"Punjab","state_code":"23","district":"Jalandhar","district_code":"037","address1":"Nakodar","address2":"","latitude":"31.1606","longitude":"75.3515","accuracy":"3"}],"144041":[{"address3":"Shahpur","state":"Punjab","state_code":"23","district":"Jalandhar","district_code":"037","address1":"Nakodar","address2":"","latitude":"31.054","longitude":"75.4695","accuracy":"4"},{"address3":"Udhowal","state":"Punjab","state_code":"23","district":"Jalandhar","district_code":"037","address1":"Nakodar","address2":"","latitude":"31.2126","longitude":"75.5666","accuracy":"4"},{"address3":"Akbarpur Kalan","state":"Punjab","state_code":"23","district":"Jalandhar","district_code":"037","address1":"Nakodar","address2":"","latitude":"31.0388","longitude":"75.4063","accuracy":"4"},{"address3":"Baloki","state":"Punjab","state_code":"23","district":"Jalandhar","district_code":"037","address1":"Nakodar","address2":"","latitude":"31.0444","longitude":"75.5274","accuracy":"3"},{"address3":"Singhpur","state":"Punjab","state_code":"23","district":"Jalandhar","district_code":"037","address1":"Nakodar","address2":"","latitude":"31.2117","longitude":"75.4738","accuracy":"4"},{"address3":"Adarman","state":"Punjab","state_code":"23","district":"Jalandhar","district_code":"037","address1":"Nakodar","address2":"","latitude":"31.0214","longitude":"75.4646","accuracy":"4"},{"address3":"Danewal","state":"Punjab","state_code":"23","district":"Jalandhar","district_code":"037","address1":"Nakodar","address2":"","latitude":"31.0126","longitude":"75.379","accuracy":"4"},{"address3":"Mehatpur (Jalandhar)","state":"Punjab","state_code":"23","district":"Jalandhar","district_code":"037","address1":"Nakoder","address2":"","latitude":"31.0444","longitude":"75.5274","accuracy":"3"},{"address3":"Haripur","state":"Punjab","state_code":"23","district":"Jalandhar","district_code":"037","address1":"Nakodar","address2":"","latitude":"31.0645","longitude":"75.5183","accuracy":"4"},{"address3":"Parjian Kalan","state":"Punjab","state_code":"23","district":"Jalandhar","district_code":"037","address1":"Nakodar","address2":"","latitude":"31.0221","longitude":"75.3982","accuracy":"4"},{"address3":"Bulanda","state":"Punjab","state_code":"23","district":"Jalandhar","district_code":"037","address1":"Nakodar","address2":"","latitude":"31.0444","longitude":"75.5274","accuracy":"3"},{"address3":"Sangowal","state":"Punjab","state_code":"23","district":"Jalandhar","district_code":"037","address1":"Nakodar","address2":"","latitude":"31.0099","longitude":"75.486","accuracy":"4"},{"address3":"Tandaura","state":"Punjab","state_code":"23","district":"Jalandhar","district_code":"037","address1":"Nakodar","address2":"","latitude":"31.0472","longitude":"75.5153","accuracy":"4"},{"address3":"Umarwal Billa","state":"Punjab","state_code":"23","district":"Jalandhar","district_code":"037","address1":"Nakodar","address2":"","latitude":"31.0444","longitude":"75.5274","accuracy":"3"}],"144042":[{"address3":"Sharakpur","state":"Punjab","state_code":"23","district":"Jalandhar","district_code":"037","address1":"Nakodar","address2":"","latitude":"31.1406","longitude":"75.5076","accuracy":"4"},{"address3":"Chak Mughlani","state":"Punjab","state_code":"23","district":"Jalandhar","district_code":"037","address1":"Nakodar","address2":"","latitude":"31.1377","longitude":"75.52","accuracy":"4"},{"address3":"Chak Kalan","state":"Punjab","state_code":"23","district":"Jalandhar","district_code":"037","address1":"Nakodar","address2":"","latitude":"31.1784","longitude":"75.5352","accuracy":"4"},{"address3":"Shankar","state":"Punjab","state_code":"23","district":"Jalandhar","district_code":"037","address1":"Nakodar","address2":"","latitude":"31.1481","longitude":"75.5323","accuracy":"4"}],"144043":[{"address3":"Nawapind","state":"Punjab","state_code":"23","district":"Jalandhar","district_code":"037","address1":"Kapurthala","address2":"","latitude":"31.2126","longitude":"75.5666","accuracy":"4"},{"address3":"Tahli","state":"Punjab","state_code":"23","district":"Jalandhar","district_code":"037","address1":"Nakodar","address2":"","latitude":"31.1611","longitude":"75.5494","accuracy":"4"},{"address3":"Ghure","state":"Punjab","state_code":"23","district":"Jalandhar","district_code":"037","address1":"Nakodar","address2":"","latitude":"31.3537","longitude":"75.4925","accuracy":"3"},{"address3":"Birpind","state":"Punjab","state_code":"23","district":"Jalandhar","district_code":"037","address1":"Phagwara","address2":"","latitude":"31.1104","longitude":"75.5203","accuracy":"4"},{"address3":"Littran","state":"Punjab","state_code":"23","district":"Jalandhar","district_code":"037","address1":"Nakodar","address2":"","latitude":"31.3537","longitude":"75.4925","accuracy":"3"},{"address3":"Sarih","state":"Punjab","state_code":"23","district":"Jalandhar","district_code":"037","address1":"Nakodar","address2":"","latitude":"31.1416","longitude":"75.5623","accuracy":"4"}],"144044":[{"address3":"Sidhwan R.S.","state":"Punjab","state_code":"23","district":"Jalandhar","district_code":"037","address1":"Kapurthala","address2":"","latitude":"31.1428","longitude":"75.477","accuracy":"1"},{"address3":"Maheem","state":"Punjab","state_code":"23","district":"Jalandhar","district_code":"037","address1":"Nakodar","address2":"","latitude":"31.1428","longitude":"75.477","accuracy":"1"},{"address3":"Bath Kalan","state":"Punjab","state_code":"23","district":"Jalandhar","district_code":"037","address1":"Nakodar","address2":"","latitude":"31.1428","longitude":"75.477","accuracy":"1"}],"144101":[{"address3":"Talhan","state":"Punjab","state_code":"23","district":"Jalandhar","district_code":"037","address1":"Jalandhar","address2":"","latitude":"31.4068","longitude":"75.6522","accuracy":"1"},{"address3":"Kotli Than Singh","state":"Punjab","state_code":"23","district":"Jalandhar","district_code":"037","address1":"Jalandhar - I","address2":"","latitude":"31.4068","longitude":"75.6522","accuracy":"1"},{"address3":"Parasrampur","state":"Punjab","state_code":"23","district":"Jalandhar","district_code":"037","address1":"Jalandhar","address2":"","latitude":"31.4068","longitude":"75.6522","accuracy":"1"},{"address3":"Bhojowal","state":"Punjab","state_code":"23","district":"Jalandhar","district_code":"037","address1":"Jalandhar","address2":"","latitude":"31.4068","longitude":"75.6522","accuracy":"1"},{"address3":"Bolina Doaba","state":"Punjab","state_code":"23","district":"Jalandhar","district_code":"037","address1":"Jalandhar - I","address2":"","latitude":"31.4068","longitude":"75.6522","accuracy":"1"},{"address3":"Patara (Jalandhar)","state":"Punjab","state_code":"23","district":"Jalandhar","district_code":"037","address1":"Jalandhar","address2":"","latitude":"31.4068","longitude":"75.6522","accuracy":"1"}],"144102":[{"address3":"Chuharwali","state":"Punjab","state_code":"23","district":"Jalandhar","district_code":"037","address1":"Jalandhar - I","address2":"","latitude":"31.3875","longitude":"75.2455","accuracy":"3"},{"address3":"Ucha","state":"Punjab","state_code":"23","district":"Jalandhar","district_code":"037","address1":"Jalandhar","address2":"","latitude":"31.2126","longitude":"75.5666","accuracy":"4"},{"address3":"Adampur Doaba","state":"Punjab","state_code":"23","district":"Jalandhar","district_code":"037","address1":"Jalandhar - I","address2":"","latitude":"31.3875","longitude":"75.2455","accuracy":"3"},{"address3":"Salala","state":"Punjab","state_code":"23","district":"Jalandhar","district_code":"037","address1":"Jalandhar","address2":"","latitude":"31.3875","longitude":"75.2455","accuracy":"3"},{"address3":"Dingrian","state":"Punjab","state_code":"23","district":"Jalandhar","district_code":"037","address1":"Jalandhar","address2":"","latitude":"31.3875","longitude":"75.2455","accuracy":"3"},{"address3":"Isharwal","state":"Punjab","state_code":"23","district":"Jalandhar","district_code":"037","address1":"Jalandhar - I","address2":"","latitude":"31.3875","longitude":"75.2455","accuracy":"3"},{"address3":"Pandori Nijjran","state":"Punjab","state_code":"23","district":"Jalandhar","district_code":"037","address1":"Jalandhar","address2":"","latitude":"31.3875","longitude":"75.2455","accuracy":"3"},{"address3":"Najka","state":"Punjab","state_code":"23","district":"Jalandhar","district_code":"037","address1":"Jalandhar","address2":"","latitude":"31.3875","longitude":"75.2455","accuracy":"3"},{"address3":"Mohadipur","state":"Punjab","state_code":"23","district":"Jalandhar","district_code":"037","address1":"Jalandhar","address2":"","latitude":"31.3875","longitude":"75.2455","accuracy":"3"},{"address3":"Khurdpur","state":"Punjab","state_code":"23","district":"Jalandhar","district_code":"037","address1":"Jalandhar - I","address2":"","latitude":"31.3875","longitude":"75.2455","accuracy":"3"},{"address3":"Haripur Sirowal","state":"Punjab","state_code":"23","district":"Jalandhar","district_code":"037","address1":"Jalandhar - I","address2":"","latitude":"31.3875","longitude":"75.2455","accuracy":"3"}],"144103":[{"address3":"Adampur AD","state":"Punjab","state_code":"23","district":"Jalandhar","district_code":"037","address1":"Jalandhar - I","address2":"","latitude":"31.422","longitude":"75.7564","accuracy":"3"},{"address3":"Kandola","state":"Punjab","state_code":"23","district":"Jalandhar","district_code":"037","address1":"Jalandhar - I","address2":"","latitude":"31.422","longitude":"75.7564","accuracy":"4"},{"address3":"Damunda","state":"Punjab","state_code":"23","district":"Jalandhar","district_code":"037","address1":"Jalandhar - I","address2":"","latitude":"31.422","longitude":"75.7564","accuracy":"3"}],"144104":[{"address3":"Daroli Khurd","state":"Punjab","state_code":"23","district":"Jalandhar","district_code":"037","address1":"Jalandhar - I","address2":"","latitude":"31.4068","longitude":"75.6522","accuracy":"1"},{"address3":"Daroli Kalan","state":"Punjab","state_code":"23","district":"Jalandhar","district_code":"037","address1":"Jalandhar","address2":"","latitude":"31.4068","longitude":"75.6522","accuracy":"1"}],"144105":[{"address3":"Pandori Rajputan","state":"Punjab","state_code":"23","district":"Hoshiarpur","district_code":"038","address1":"Hoshiarpur","address2":"","latitude":"31.626","longitude":"75.8588","accuracy":"4"},{"address3":"Sandhra","state":"Punjab","state_code":"23","district":"Hoshiarpur","district_code":"038","address1":"Hoshiarpur","address2":"","latitude":"31.3421","longitude":"75.698","accuracy":"3"},{"address3":"Mandial","state":"Punjab","state_code":"23","district":"Hoshiarpur","district_code":"038","address1":"Hoshiarpur","address2":"","latitude":"31.475","longitude":"75.798","accuracy":"4"},{"address3":"Soos","state":"Punjab","state_code":"23","district":"Hoshiarpur","district_code":"038","address1":"Hoshiarpur","address2":"","latitude":"31.3421","longitude":"75.698","accuracy":"3"},{"address3":"Sandhra Sodhian","state":"Punjab","state_code":"23","district":"Hoshiarpur","district_code":"038","address1":"Hoshiarpur","address2":"","latitude":"31.3421","longitude":"75.698","accuracy":"3"},{"address3":"Phambian","state":"Punjab","state_code":"23","district":"Hoshiarpur","district_code":"038","address1":"Hoshiarpur","address2":"","latitude":"31.3421","longitude":"75.698","accuracy":"3"},{"address3":"Pandori Phagurian","state":"Punjab","state_code":"23","district":"Hoshiarpur","district_code":"038","address1":"Hoshiarpur","address2":"","latitude":"31.3421","longitude":"75.698","accuracy":"3"},{"address3":"Kathe Adhkare","state":"Punjab","state_code":"23","district":"Hoshiarpur","district_code":"038","address1":"Hoshiarpur","address2":"","latitude":"31.3421","longitude":"75.698","accuracy":"3"},{"address3":"Talwandi Arayan","state":"Punjab","state_code":"23","district":"Hoshiarpur","district_code":"038","address1":"Hoshiarpur","address2":"","latitude":"31.3421","longitude":"75.698","accuracy":"3"},{"address3":"Dadupur Garoa","state":"Punjab","state_code":"23","district":"Hoshiarpur","district_code":"038","address1":"Hoshiarpur","address2":"","latitude":"31.3421","longitude":"75.698","accuracy":"3"},{"address3":"Bainstani Kalan","state":"Punjab","state_code":"23","district":"Hoshiarpur","district_code":"038","address1":"Hoshiarpur","address2":"","latitude":"31.3421","longitude":"75.698","accuracy":"3"},{"address3":"Sham Chaurasi","state":"Punjab","state_code":"23","district":"Hoshiarpur","district_code":"038","address1":"Hoshiarpur","address2":"","latitude":"31.3421","longitude":"75.698","accuracy":"3"},{"address3":"Badla Mahi","state":"Punjab","state_code":"23","district":"Hoshiarpur","district_code":"038","address1":"Hoshiarpur","address2":"","latitude":"31.3421","longitude":"75.698","accuracy":"3"},{"address3":"Kadiana","state":"Punjab","state_code":"23","district":"Hoshiarpur","district_code":"038","address1":"Hoshiarpur","address2":"","latitude":"31.3421","longitude":"75.698","accuracy":"3"}],"144106":[{"address3":"Sarobad","state":"Punjab","state_code":"23","district":"Jalandhar","district_code":"037","address1":"Jalandhar","address2":"","latitude":"31.4735","longitude":"75.7575","accuracy":"3"},{"address3":"Kotla","state":"Punjab","state_code":"23","district":"Jalandhar","district_code":"037","address1":"Jalandhar","address2":"","latitude":"31.507","longitude":"75.7343","accuracy":"4"},{"address3":"Jalbhe","state":"Punjab","state_code":"23","district":"Jalandhar","district_code":"037","address1":"Jalandhar - I","address2":"","latitude":"31.4735","longitude":"75.7575","accuracy":"3"},{"address3":"Manko","state":"Punjab","state_code":"23","district":"Jalandhar","district_code":"037","address1":"Jalandhar","address2":"","latitude":"31.44","longitude":"75.7808","accuracy":"4"},{"address3":"Chukhiara","state":"Punjab","state_code":"23","district":"Jalandhar","district_code":"037","address1":"Jalandhar - I","address2":"","latitude":"31.4735","longitude":"75.7575","accuracy":"3"},{"address3":"Adda Kathar","state":"Punjab","state_code":"23","district":"Jalandhar","district_code":"037","address1":"Jalandhar - I","address2":"","latitude":"31.4735","longitude":"75.7575","accuracy":"3"},{"address3":"Ghurial","state":"Punjab","state_code":"23","district":"Jalandhar","district_code":"037","address1":"Jalandhar - I","address2":"","latitude":"31.4735","longitude":"75.7575","accuracy":"3"}],"144201":[{"address3":"Rajpur","state":"Punjab","state_code":"23","district":"Jalandhar","district_code":"037","address1":"Jalandhar","address2":"","latitude":"31.5879","longitude":"75.6304","accuracy":"4"},{"address3":"Loharan","state":"Punjab","state_code":"23","district":"Jalandhar","district_code":"037","address1":"Jalandhar -II","address2":"","latitude":"31.487","longitude":"75.6766","accuracy":"3"},{"address3":"Madhopur","state":"Punjab","state_code":"23","district":"Jalandhar","district_code":"037","address1":"Jalandhar","address2":"","latitude":"31.5777","longitude":"75.6704","accuracy":"4"},{"address3":"Laroya","state":"Punjab","state_code":"23","district":"Jalandhar","district_code":"037","address1":"Jalandhar","address2":"","latitude":"31.2126","longitude":"75.5666","accuracy":"4"},{"address3":"Sanaura","state":"Punjab","state_code":"23","district":"Jalandhar","district_code":"037","address1":"Jalandhar","address2":"","latitude":"31.5829","longitude":"75.6534","accuracy":"4"},{"address3":"Manakrai","state":"Punjab","state_code":"23","district":"Jalandhar","district_code":"037","address1":"Jalandhar","address2":"","latitude":"31.487","longitude":"75.6766","accuracy":"3"},{"address3":"Patial","state":"Punjab","state_code":"23","district":"Jalandhar","district_code":"037","address1":"Jalandhar","address2":"","latitude":"31.5976","longitude":"75.6294","accuracy":"4"},{"address3":"Pachranga","state":"Punjab","state_code":"23","district":"Jalandhar","district_code":"037","address1":"Jalandhar","address2":"","latitude":"31.5143","longitude":"75.6344","accuracy":"4"},{"address3":"Behram Sarista","state":"Punjab","state_code":"23","district":"Jalandhar","district_code":"037","address1":"Jalandhar -II","address2":"","latitude":"31.487","longitude":"75.6766","accuracy":"3"},{"address3":"Bhogpur (Jalandhar)","state":"Punjab","state_code":"23","district":"Jalandhar","district_code":"037","address1":"Jalandhar - I","address2":"","latitude":"31.5544","longitude":"75.6427","accuracy":"4"},{"address3":"Bhatnura Lubana","state":"Punjab","state_code":"23","district":"Jalandhar","district_code":"037","address1":"Jalandhar","address2":"","latitude":"31.487","longitude":"75.6766","accuracy":"3"},{"address3":"Ladhra","state":"Punjab","state_code":"23","district":"Jalandhar","district_code":"037","address1":"Jalandhar -II","address2":"","latitude":"31.5292","longitude":"75.6783","accuracy":"4"},{"address3":"Jandir","state":"Punjab","state_code":"23","district":"Jalandhar","district_code":"037","address1":"Jalandhar -II","address2":"","latitude":"31.487","longitude":"75.6766","accuracy":"3"},{"address3":"Laroi","state":"Punjab","state_code":"23","district":"Jalandhar","district_code":"037","address1":"Jalandhar - I","address2":"","latitude":"31.5622","longitude":"75.6282","accuracy":"4"},{"address3":"Kingra Chowala","state":"Punjab","state_code":"23","district":"Jalandhar","district_code":"037","address1":"Jalandhar","address2":"","latitude":"31.487","longitude":"75.6766","accuracy":"3"},{"address3":"Cholang","state":"Punjab","state_code":"23","district":"Jalandhar","district_code":"037","address1":"Jalandhar -II","address2":"","latitude":"31.2115","longitude":"75.6425","accuracy":"4"},{"address3":"Binpalke","state":"Punjab","state_code":"23","district":"Jalandhar","district_code":"037","address1":"Jalandhar - I","address2":"","latitude":"31.545","longitude":"75.6567","accuracy":"4"}],"144202":[{"address3":"Ranipind","state":"Punjab","state_code":"23","district":"Hoshiarpur","district_code":"038","address1":"Hoshiarpur","address2":"","latitude":"31.6428","longitude":"75.5585","accuracy":"4"},{"address3":"Nathupur","state":"Punjab","state_code":"23","district":"Hoshiarpur","district_code":"038","address1":"Hoshiarpur","address2":"","latitude":"31.6528","longitude":"75.5766","accuracy":"4"},{"address3":"Alampur","state":"Punjab","state_code":"23","district":"Hoshiarpur","district_code":"038","address1":"NA","address2":"","latitude":"31.7458","longitude":"75.5864","accuracy":"4"},{"address3":"Saleempur","state":"Punjab","state_code":"23","district":"Hoshiarpur","district_code":"038","address1":"Hoshiarpur","address2":"","latitude":"31.6789","longitude":"75.5586","accuracy":"3"},{"address3":"Jalalpur","state":"Punjab","state_code":"23","district":"Hoshiarpur","district_code":"038","address1":"NA","address2":"","latitude":"31.6654","longitude":"75.5478","accuracy":"4"},{"address3":"Tahli","state":"Punjab","state_code":"23","district":"Hoshiarpur","district_code":"038","address1":"Hoshiarpur","address2":"","latitude":"31.6518","longitude":"75.5034","accuracy":"4"},{"address3":"Miani","state":"Punjab","state_code":"23","district":"Hoshiarpur","district_code":"038","address1":"Hoshiarpur","address2":"","latitude":"31.7092","longitude":"75.5661","accuracy":"4"},{"address3":"Bains Awan","state":"Punjab","state_code":"23","district":"Hoshiarpur","district_code":"038","address1":"Hoshiarpur","address2":"","latitude":"31.6846","longitude":"75.5716","accuracy":"4"}],"144204":[{"address3":"Munak Kalan","state":"Punjab","state_code":"23","district":"Hoshiarpur","district_code":"038","address1":"Hoshiarpur","address2":"","latitude":"31.7069","longitude":"75.6325","accuracy":"4"},{"address3":"Talwandi Sallan","state":"Punjab","state_code":"23","district":"Hoshiarpur","district_code":"038","address1":"Hoshiarpur","address2":"","latitude":"31.6581","longitude":"75.6456","accuracy":"3"},{"address3":"Baich","state":"Punjab","state_code":"23","district":"Hoshiarpur","district_code":"038","address1":"Hoshiarpur","address2":"","latitude":"31.6512","longitude":"75.7373","accuracy":"4"},{"address3":"Bassi Jalal Khan","state":"Punjab","state_code":"23","district":"Hoshiarpur","district_code":"038","address1":"Hoshiarpur","address2":"","latitude":"31.6581","longitude":"75.6456","accuracy":"3"},{"address3":"Jaura","state":"Punjab","state_code":"23","district":"Hoshiarpur","district_code":"038","address1":"Hoshiarpur","address2":"","latitude":"31.6112","longitude":"75.6781","accuracy":"4"},{"address3":"Manak Dheri","state":"Punjab","state_code":"23","district":"Hoshiarpur","district_code":"038","address1":"Hoshiarpur","address2":"","latitude":"31.6581","longitude":"75.6456","accuracy":"3"},{"address3":"Zahura","state":"Punjab","state_code":"23","district":"Hoshiarpur","district_code":"038","address1":"Hoshiarpur","address2":"","latitude":"31.6212","longitude":"75.6141","accuracy":"4"},{"address3":"Saidpur","state":"Punjab","state_code":"23","district":"Hoshiarpur","district_code":"038","address1":"Hoshiarpur","address2":"","latitude":"31.6355","longitude":"75.6517","accuracy":"4"},{"address3":"Urmar","state":"Punjab","state_code":"23","district":"Hoshiarpur","district_code":"038","address1":"Hoshiarpur","address2":"","latitude":"31.6814","longitude":"75.6355","accuracy":"4"},{"address3":"Kurala Kalan","state":"Punjab","state_code":"23","district":"Hoshiarpur","district_code":"038","address1":"Hoshiarpur","address2":"","latitude":"31.7226","longitude":"75.6487","accuracy":"4"},{"address3":"Tanda","state":"Punjab","state_code":"23","district":"Hoshiarpur","district_code":"038","address1":"Dasuya","address2":"","latitude":"31.6655","longitude":"75.6313","accuracy":"4"},{"address3":"Talwandi Dadian","state":"Punjab","state_code":"23","district":"Hoshiarpur","district_code":"038","address1":"Hoshiarpur","address2":"","latitude":"31.6271","longitude":"75.5816","accuracy":"4"}],"144205":[{"address3":"Dasuya H.O","state":"Punjab","state_code":"23","district":"Hoshiarpur","district_code":"038","address1":"Dasuya","address2":"","latitude":"31.646","longitude":"75.7136","accuracy":"1"}],"144206":[{"address3":"Bahera","state":"Punjab","state_code":"23","district":"Hoshiarpur","district_code":"038","address1":"Hoshiarpur","address2":"","latitude":"31.7546","longitude":"75.9505","accuracy":"4"},{"address3":"Kukanet","state":"Punjab","state_code":"23","district":"Hoshiarpur","district_code":"038","address1":"Hoshiarpur","address2":"","latitude":"31.7654","longitude":"75.9117","accuracy":"4"},{"address3":"Dholbaha","state":"Punjab","state_code":"23","district":"Hoshiarpur","district_code":"038","address1":"Hoshiarpur","address2":"","latitude":"31.7393","longitude":"75.8755","accuracy":"4"}],"144207":[{"address3":"Argowal","state":"Punjab","state_code":"23","district":"Hoshiarpur","district_code":"038","address1":"Hoshiarpur","address2":"","latitude":"31.7513","longitude":"75.737","accuracy":"4"},{"address3":"Ambala Jattan","state":"Punjab","state_code":"23","district":"Hoshiarpur","district_code":"038","address1":"Hoshiarpur","address2":"","latitude":"31.7292","longitude":"75.7507","accuracy":"3"},{"address3":"Jandaur","state":"Punjab","state_code":"23","district":"Hoshiarpur","district_code":"038","address1":"Hoshiarpur","address2":"","latitude":"31.793","longitude":"75.7178","accuracy":"4"},{"address3":"Bhana","state":"Punjab","state_code":"23","district":"Hoshiarpur","district_code":"038","address1":"Hoshiarpur","address2":"","latitude":"31.7686","longitude":"75.7114","accuracy":"4"},{"address3":"Rupowal","state":"Punjab","state_code":"23","district":"Hoshiarpur","district_code":"038","address1":"Hoshiarpur","address2":"","latitude":"31.3463","longitude":"75.9356","accuracy":"4"},{"address3":"Passi Kandi","state":"Punjab","state_code":"23","district":"Hoshiarpur","district_code":"038","address1":"Hoshiarpur","address2":"","latitude":"31.7292","longitude":"75.7507","accuracy":"3"},{"address3":"Jalota","state":"Punjab","state_code":"23","district":"Hoshiarpur","district_code":"038","address1":"Hoshiarpur","address2":"","latitude":"31.8223","longitude":"75.6941","accuracy":"4"},{"address3":"Garhdiwala","state":"Punjab","state_code":"23","district":"Hoshiarpur","district_code":"038","address1":"NA","address2":"","latitude":"31.7415","longitude":"75.7557","accuracy":"4"},{"address3":"Panwan","state":"Punjab","state_code":"23","district":"Hoshiarpur","district_code":"038","address1":"Hoshiarpur","address2":"","latitude":"31.8023","longitude":"75.7053","accuracy":"4"},{"address3":"Daffar","state":"Punjab","state_code":"23","district":"Hoshiarpur","district_code":"038","address1":"Hoshiarpur","address2":"","latitude":"31.7292","longitude":"75.7507","accuracy":"3"},{"address3":"Chang Basoa","state":"Punjab","state_code":"23","district":"Hoshiarpur","district_code":"038","address1":"Hoshiarpur","address2":"","latitude":"31.7969","longitude":"75.7801","accuracy":"4"},{"address3":"Chipra","state":"Punjab","state_code":"23","district":"Hoshiarpur","district_code":"038","address1":"Hoshiarpur","address2":"","latitude":"31.7401","longitude":"75.7194","accuracy":"4"},{"address3":"Pandori Atwal","state":"Punjab","state_code":"23","district":"Hoshiarpur","district_code":"038","address1":"Hoshiarpur","address2":"","latitude":"31.7292","longitude":"75.7507","accuracy":"3"},{"address3":"Mand Pandher","state":"Punjab","state_code":"23","district":"Hoshiarpur","district_code":"038","address1":"Hoshiarpur","address2":"","latitude":"31.7292","longitude":"75.7507","accuracy":"3"},{"address3":"Bahtiwal","state":"Punjab","state_code":"23","district":"Hoshiarpur","district_code":"038","address1":"Hoshiarpur","address2":"","latitude":"31.7292","longitude":"75.7507","accuracy":"3"},{"address3":"Chathial Khurd","state":"Punjab","state_code":"23","district":"Hoshiarpur","district_code":"038","address1":"Dasua","address2":"","latitude":"31.7292","longitude":"75.7507","accuracy":"3"}],"144208":[{"address3":"Hariana","state":"Punjab","state_code":"23","district":"Hoshiarpur","district_code":"038","address1":"Hoshiarpur","address2":"","latitude":"31.6351","longitude":"75.8389","accuracy":"4"},{"address3":"Bariana","state":"Punjab","state_code":"23","district":"Hoshiarpur","district_code":"038","address1":"NA","address2":"","latitude":"31.9914","longitude":"75.6912","accuracy":"4"},{"address3":"Bhikhowal","state":"Punjab","state_code":"23","district":"Hoshiarpur","district_code":"038","address1":"Hoshiarpur","address2":"","latitude":"31.6775","longitude":"75.8296","accuracy":"3"},{"address3":"Baghpur","state":"Punjab","state_code":"23","district":"Hoshiarpur","district_code":"038","address1":"Hoshiarpur","address2":"","latitude":"31.5851","longitude":"75.8909","accuracy":"4"},{"address3":"Bassi Wazid","state":"Punjab","state_code":"23","district":"Hoshiarpur","district_code":"038","address1":"Hoshiarpur","address2":"","latitude":"31.6775","longitude":"75.8296","accuracy":"3"},{"address3":"Sataur","state":"Punjab","state_code":"23","district":"Hoshiarpur","district_code":"038","address1":"Hoshiarpur","address2":"","latitude":"31.5796","longitude":"75.8744","accuracy":"4"},{"address3":"Bassi Ballo","state":"Punjab","state_code":"23","district":"Hoshiarpur","district_code":"038","address1":"Hoshiarpur","address2":"","latitude":"31.6775","longitude":"75.8296","accuracy":"3"},{"address3":"Gobindpur Khun Khun","state":"Punjab","state_code":"23","district":"Hoshiarpur","district_code":"038","address1":"Hoshiarpur","address2":"","latitude":"31.5966","longitude":"75.8527","accuracy":"4"},{"address3":"Kotlanaudh Singh","state":"Punjab","state_code":"23","district":"Hoshiarpur","district_code":"038","address1":"Hoshiarpur","address2":"","latitude":"31.6775","longitude":"75.8296","accuracy":"3"},{"address3":"Kakkon","state":"Punjab","state_code":"23","district":"Hoshiarpur","district_code":"038","address1":"Hoshiarpur","address2":"","latitude":"31.6775","longitude":"75.8296","accuracy":"3"}],"144209":[{"address3":"Patial","state":"Punjab","state_code":"23","district":"Hoshiarpur","district_code":"038","address1":"Hoshiarpur","address2":"","latitude":"31.7101","longitude":"75.9433","accuracy":"4"},{"address3":"Janauri","state":"Punjab","state_code":"23","district":"Hoshiarpur","district_code":"038","address1":"Hoshiarpur","address2":"","latitude":"31.7137","longitude":"75.8928","accuracy":"4"},{"address3":"Chowki Patiari","state":"Punjab","state_code":"23","district":"Hoshiarpur","district_code":"038","address1":"Hoshiarpur","address2":"","latitude":"31.7062","longitude":"75.9111","accuracy":"3"},{"address3":"Dandoh","state":"Punjab","state_code":"23","district":"Hoshiarpur","district_code":"038","address1":"Hoshiarpur","address2":"","latitude":"31.6948","longitude":"75.8971","accuracy":"4"}],"144210":[{"address3":"Darapur","state":"Punjab","state_code":"23","district":"Hoshiarpur","district_code":"038","address1":"Hoshiarpur","address2":"","latitude":"31.5273","longitude":"75.9139","accuracy":"4"},{"address3":"Hussain Pur Lalowal","state":"Punjab","state_code":"23","district":"Hoshiarpur","district_code":"038","address1":"Hoshiarpur","address2":"","latitude":"31.6034","longitude":"75.8604","accuracy":"3"},{"address3":"Chautala","state":"Punjab","state_code":"23","district":"Hoshiarpur","district_code":"038","address1":"Hoshiarpur","address2":"","latitude":"31.6034","longitude":"75.8604","accuracy":"3"},{"address3":"Bhunga","state":"Punjab","state_code":"23","district":"Hoshiarpur","district_code":"038","address1":"Hoshiarpur","address2":"","latitude":"31.6795","longitude":"75.8069","accuracy":"4"},{"address3":"Chak Ladhian","state":"Punjab","state_code":"23","district":"Hoshiarpur","district_code":"038","address1":"Hoshiarpur","address2":"","latitude":"31.6034","longitude":"75.8604","accuracy":"3"},{"address3":"Khiala Bulanda","state":"Punjab","state_code":"23","district":"Hoshiarpur","district_code":"038","address1":"Hoshiarpur","address2":"","latitude":"31.6034","longitude":"75.8604","accuracy":"3"},{"address3":"Dhoot Kalan","state":"Punjab","state_code":"23","district":"Hoshiarpur","district_code":"038","address1":"Hoshiarpur","address2":"","latitude":"31.6034","longitude":"75.8604","accuracy":"3"}],"144211":[{"address3":"Hoshiarpur Kalota","state":"Punjab","state_code":"23","district":"Hoshiarpur","district_code":"038","address1":"Hoshiarpur","address2":"","latitude":"31.9954","longitude":"75.5678","accuracy":"4"},{"address3":"Musahibpur","state":"Punjab","state_code":"23","district":"Hoshiarpur","district_code":"038","address1":"Mukerian","address2":"","latitude":"31.9921","longitude":"75.6166","accuracy":"4"},{"address3":"Khanpur Latifpur","state":"Punjab","state_code":"23","district":"Hoshiarpur","district_code":"038","address1":"Hoshiarpur","address2":"","latitude":"31.9805","longitude":"75.6005","accuracy":"3"},{"address3":"Mukerian","state":"Punjab","state_code":"23","district":"Hoshiarpur","district_code":"038","address1":"Mukerian","address2":"","latitude":"31.9539","longitude":"75.6172","accuracy":"4"},{"address3":"Sango Katrala","state":"Punjab","state_code":"23","district":"Hoshiarpur","district_code":"038","address1":"Mukerian","address2":"","latitude":"31.9805","longitude":"75.6005","accuracy":"3"},{"address3":"Naushera Pattan","state":"Punjab","state_code":"23","district":"Hoshiarpur","district_code":"038","address1":"Hoshiarpur","address2":"","latitude":"31.9805","longitude":"75.6005","accuracy":"3"},{"address3":"Mansoorpur","state":"Punjab","state_code":"23","district":"Hoshiarpur","district_code":"038","address1":"NA","address2":"","latitude":"31.9805","longitude":"75.6005","accuracy":"3"},{"address3":"Tranglian","state":"Punjab","state_code":"23","district":"Hoshiarpur","district_code":"038","address1":"Mukerian","address2":"","latitude":"31.9805","longitude":"75.6005","accuracy":"3"},{"address3":"Parika","state":"Punjab","state_code":"23","district":"Hoshiarpur","district_code":"038","address1":"Mukerian","address2":"","latitude":"31.9805","longitude":"75.6005","accuracy":"3"}],"144212":[{"address3":"Jaja","state":"Punjab","state_code":"23","district":"Hoshiarpur","district_code":"038","address1":"Hoshiarpur","address2":"","latitude":"31.6775","longitude":"75.6613","accuracy":"4"},{"address3":"Harsipind","state":"Punjab","state_code":"23","district":"Hoshiarpur","district_code":"038","address1":"Hoshiarpur","address2":"","latitude":"31.6928","longitude":"75.659","accuracy":"4"},{"address3":"Kandhala Sheikhan","state":"Punjab","state_code":"23","district":"Hoshiarpur","district_code":"038","address1":"Hoshiarpur","address2":"","latitude":"31.6856","longitude":"75.6672","accuracy":"3"},{"address3":"Budhipind","state":"Punjab","state_code":"23","district":"Hoshiarpur","district_code":"038","address1":"Hoshiarpur","address2":"","latitude":"31.6866","longitude":"75.6812","accuracy":"4"},{"address3":"Jhawan","state":"Punjab","state_code":"23","district":"Hoshiarpur","district_code":"038","address1":"Hoshiarpur","address2":"","latitude":"31.6856","longitude":"75.6672","accuracy":"3"},{"address3":"Kandhali Narangpur","state":"Punjab","state_code":"23","district":"Hoshiarpur","district_code":"038","address1":"Hoshiarpur","address2":"","latitude":"31.6856","longitude":"75.6672","accuracy":"3"},{"address3":"Maseet Pal Kot","state":"Punjab","state_code":"23","district":"Hoshiarpur","district_code":"038","address1":"Hoshiarpur","address2":"","latitude":"31.6856","longitude":"75.6672","accuracy":"3"},{"address3":"Nangal Khunga","state":"Punjab","state_code":"23","district":"Hoshiarpur","district_code":"038","address1":"Hoshiarpur","address2":"","latitude":"31.6856","longitude":"75.6672","accuracy":"3"},{"address3":"Rajpur Gahot","state":"Punjab","state_code":"23","district":"Hoshiarpur","district_code":"038","address1":"Dasua","address2":"","latitude":"31.6856","longitude":"75.6672","accuracy":"3"}],"144213":[{"address3":"Bhanowal","state":"Punjab","state_code":"23","district":"Hoshiarpur","district_code":"038","address1":"Hoshiarpur","address2":"","latitude":"31.7699","longitude":"75.7989","accuracy":"4"},{"address3":"Sansarpur","state":"Punjab","state_code":"23","district":"Hoshiarpur","district_code":"038","address1":"Hoshiarpur","address2":"","latitude":"31.8237","longitude":"75.8165","accuracy":"4"},{"address3":"Manhota","state":"Punjab","state_code":"23","district":"Hoshiarpur","district_code":"038","address1":"Hoshiarpur","address2":"","latitude":"31.7968","longitude":"75.8077","accuracy":"3"},{"address3":"Fatehpur Bhattlan","state":"Punjab","state_code":"23","district":"Hoshiarpur","district_code":"038","address1":"Hoshiarpur","address2":"","latitude":"31.7968","longitude":"75.8077","accuracy":"3"},{"address3":"Koi","state":"Punjab","state_code":"23","district":"Hoshiarpur","district_code":"038","address1":"Hoshiarpur","address2":"","latitude":"31.7968","longitude":"75.8077","accuracy":"3"}],"144214":[{"address3":"Umarpur","state":"Punjab","state_code":"23","district":"Hoshiarpur","district_code":"038","address1":"Mukerian","address2":"","latitude":"31.626","longitude":"75.8588","accuracy":"4"},{"address3":"Abdulapur","state":"Punjab","state_code":"23","district":"Hoshiarpur","district_code":"038","address1":"Hoshiarpur","address2":"","latitude":"31.8753","longitude":"75.4617","accuracy":"3"},{"address3":"Dhanoa","state":"Punjab","state_code":"23","district":"Hoshiarpur","district_code":"038","address1":"Mukerian","address2":"","latitude":"31.8938","longitude":"75.5767","accuracy":"4"},{"address3":"Terkiana","state":"Punjab","state_code":"23","district":"Hoshiarpur","district_code":"038","address1":"Hoshiarpur","address2":"","latitude":"31.8753","longitude":"75.4617","accuracy":"3"},{"address3":"Tanda Ram Sahai","state":"Punjab","state_code":"23","district":"Hoshiarpur","district_code":"038","address1":"Mukerian","address2":"","latitude":"31.9235","longitude":"75.5841","accuracy":"4"},{"address3":"Baja Chak","state":"Punjab","state_code":"23","district":"Hoshiarpur","district_code":"038","address1":"Hoshiarpur","address2":"","latitude":"31.8753","longitude":"75.4617","accuracy":"3"},{"address3":"Changala","state":"Punjab","state_code":"23","district":"Hoshiarpur","district_code":"038","address1":"Hoshiarpur","address2":"","latitude":"31.8753","longitude":"75.4617","accuracy":"3"},{"address3":"Lamin Pandori","state":"Punjab","state_code":"23","district":"Hoshiarpur","district_code":"038","address1":"Mukerian","address2":"","latitude":"31.8753","longitude":"75.4617","accuracy":"3"}],"144216":[{"address3":"Rajwal","state":"Punjab","state_code":"23","district":"Hoshiarpur","district_code":"038","address1":"Hoshiarpur","address2":"","latitude":"31.911","longitude":"75.8889","accuracy":"4"},{"address3":"Talwara Township","state":"Punjab","state_code":"23","district":"Hoshiarpur","district_code":"038","address1":"Hoshiarpur","address2":"","latitude":"31.911","longitude":"75.8889","accuracy":"3"}],"144221":[{"address3":"Hajipur","state":"Punjab","state_code":"23","district":"Hoshiarpur","district_code":"038","address1":"Hoshiarpur","address2":"","latitude":"31.6615","longitude":"75.7781","accuracy":"4"},{"address3":"Bhagran","state":"Punjab","state_code":"23","district":"Hoshiarpur","district_code":"038","address1":"Hoshiarpur","address2":"","latitude":"31.9071","longitude":"75.6854","accuracy":"4"},{"address3":"Ghagwal","state":"Punjab","state_code":"23","district":"Hoshiarpur","district_code":"038","address1":"Hoshiarpur","address2":"","latitude":"31.8563","longitude":"75.7345","accuracy":"3"},{"address3":"Sariana","state":"Punjab","state_code":"23","district":"Hoshiarpur","district_code":"038","address1":"Hoshiarpur","address2":"","latitude":"32.0065","longitude":"75.7456","accuracy":"4"},{"address3":"Seeprian","state":"Punjab","state_code":"23","district":"Hoshiarpur","district_code":"038","address1":"Mukerian","address2":"","latitude":"31.8563","longitude":"75.7345","accuracy":"3"},{"address3":"Budhabar","state":"Punjab","state_code":"23","district":"Hoshiarpur","district_code":"038","address1":"Hoshiarpur","address2":"","latitude":"32.0468","longitude":"75.6984","accuracy":"4"},{"address3":"Nangal Bihalan","state":"Punjab","state_code":"23","district":"Hoshiarpur","district_code":"038","address1":"Mukerian","address2":"","latitude":"31.8563","longitude":"75.7345","accuracy":"3"},{"address3":"Ghogra","state":"Punjab","state_code":"23","district":"Hoshiarpur","district_code":"038","address1":"Hoshiarpur","address2":"","latitude":"31.8736","longitude":"75.6944","accuracy":"4"},{"address3":"Saggran","state":"Punjab","state_code":"23","district":"Hoshiarpur","district_code":"038","address1":"Hoshiarpur","address2":"","latitude":"31.8563","longitude":"75.7345","accuracy":"3"},{"address3":"Gera","state":"Punjab","state_code":"23","district":"Hoshiarpur","district_code":"038","address1":"Hoshiarpur","address2":"","latitude":"31.9788","longitude":"75.7765","accuracy":"4"},{"address3":"Daddar","state":"Punjab","state_code":"23","district":"Hoshiarpur","district_code":"038","address1":"Hoshiarpur","address2":"","latitude":"31.8563","longitude":"75.7345","accuracy":"3"},{"address3":"Dhamian","state":"Punjab","state_code":"23","district":"Hoshiarpur","district_code":"038","address1":"Hoshiarpur","address2":"","latitude":"31.5198","longitude":"75.7633","accuracy":"4"},{"address3":"Dagon","state":"Punjab","state_code":"23","district":"Hoshiarpur","district_code":"038","address1":"Hoshiarpur","address2":"","latitude":"31.8563","longitude":"75.7345","accuracy":"3"}],"144222":[{"address3":"Fatehpur","state":"Punjab","state_code":"23","district":"Hoshiarpur","district_code":"038","address1":"Hoshiarpur","address2":"","latitude":"31.5806","longitude":"75.8123","accuracy":"4"},{"address3":"Datarpur","state":"Punjab","state_code":"23","district":"Hoshiarpur","district_code":"038","address1":"Hoshiarpur","address2":"","latitude":"31.9379","longitude":"75.8006","accuracy":"4"},{"address3":"Deopur","state":"Punjab","state_code":"23","district":"Hoshiarpur","district_code":"038","address1":"Hoshiarpur","address2":"","latitude":"31.831","longitude":"75.8022","accuracy":"3"},{"address3":"Handwal","state":"Punjab","state_code":"23","district":"Hoshiarpur","district_code":"038","address1":"Hoshiarpur","address2":"","latitude":"31.9746","longitude":"75.7936","accuracy":"4"},{"address3":"Karari","state":"Punjab","state_code":"23","district":"Hoshiarpur","district_code":"038","address1":"Hoshiarpur","address2":"","latitude":"31.831","longitude":"75.8022","accuracy":"3"}],"144223":[{"address3":"Kamahi Devi","state":"Punjab","state_code":"23","district":"Hoshiarpur","district_code":"038","address1":"Hoshiarpur","address2":"","latitude":"31.8675","longitude":"75.8398","accuracy":"4"},{"address3":"Hardo Neknama","state":"Punjab","state_code":"23","district":"Hoshiarpur","district_code":"038","address1":"Hoshiarpur","address2":"","latitude":"31.8712","longitude":"75.7906","accuracy":"4"},{"address3":"Rampur Haler","state":"Punjab","state_code":"23","district":"Hoshiarpur","district_code":"038","address1":"Hoshiarpur","address2":"","latitude":"31.8661","longitude":"75.8178","accuracy":"4"},{"address3":"Behkushala","state":"Punjab","state_code":"23","district":"Hoshiarpur","district_code":"038","address1":"Hoshiarpur","address2":"","latitude":"31.7723","longitude":"75.8302","accuracy":"3"},{"address3":"Badla","state":"Punjab","state_code":"23","district":"Hoshiarpur","district_code":"038","address1":"Hoshiarpur","address2":"","latitude":"31.4027","longitude":"75.9066","accuracy":"4"},{"address3":"Behlakhan","state":"Punjab","state_code":"23","district":"Hoshiarpur","district_code":"038","address1":"Hoshiarpur","address2":"","latitude":"31.7723","longitude":"75.8302","accuracy":"3"},{"address3":"Dadial","state":"Punjab","state_code":"23","district":"Hoshiarpur","district_code":"038","address1":"Hoshiarpur","address2":"","latitude":"31.854","longitude":"75.7964","accuracy":"4"},{"address3":"Narangpur","state":"Punjab","state_code":"23","district":"Hoshiarpur","district_code":"038","address1":"Hoshiarpur","address2":"","latitude":"31.7723","longitude":"75.8302","accuracy":"3"}],"144224":[{"address3":"Bringali","state":"Punjab","state_code":"23","district":"Hoshiarpur","district_code":"038","address1":"Hoshiarpur","address2":"","latitude":"31.8232","longitude":"75.78","accuracy":"1"},{"address3":"Bhater","state":"Punjab","state_code":"23","district":"Hoshiarpur","district_code":"038","address1":"Hoshiarpur","address2":"","latitude":"31.8232","longitude":"75.78","accuracy":"1"},{"address3":"Bhavnaur","state":"Punjab","state_code":"23","district":"Hoshiarpur","district_code":"038","address1":"Hoshiarpur","address2":"","latitude":"31.8232","longitude":"75.78","accuracy":"1"},{"address3":"Amroh","state":"Punjab","state_code":"23","district":"Hoshiarpur","district_code":"038","address1":"Hoshiarpur","address2":"","latitude":"31.8232","longitude":"75.78","accuracy":"1"},{"address3":"Dharampur","state":"Punjab","state_code":"23","district":"Hoshiarpur","district_code":"038","address1":"Mukerian","address2":"","latitude":"31.8232","longitude":"75.78","accuracy":"1"},{"address3":"Bhambotar","state":"Punjab","state_code":"23","district":"Hoshiarpur","district_code":"038","address1":"NA","address2":"","latitude":"31.8232","longitude":"75.78","accuracy":"1"},{"address3":"Ramgarh Sikri","state":"Punjab","state_code":"23","district":"Nawanshahr","district_code":"039","address1":"Balachaur","address2":"","latitude":"31.8232","longitude":"75.78","accuracy":"1"}],"144301":[{"address3":"Naugajja","state":"Punjab","state_code":"23","district":"Jalandhar","district_code":"037","address1":"Jalandhar","address2":"","latitude":"31.3157","longitude":"75.6003","accuracy":"3"},{"address3":"Alawalpur (Jalandhar)","state":"Punjab","state_code":"23","district":"Jalandhar","district_code":"037","address1":"Jalandhar - I","address2":"","latitude":"31.4316","longitude":"75.6561","accuracy":"4"},{"address3":"Sikandarpur","state":"Punjab","state_code":"23","district":"Jalandhar","district_code":"037","address1":"Jalandhar","address2":"","latitude":"31.2126","longitude":"75.5666","accuracy":"4"},{"address3":"Kishangarh","state":"Punjab","state_code":"23","district":"Jalandhar","district_code":"037","address1":"Jalandhar - I","address2":"","latitude":"31.2126","longitude":"75.5666","accuracy":"4"}],"144302":[{"address3":"Beas Pind","state":"Punjab","state_code":"23","district":"Jalandhar","district_code":"037","address1":"Jalandhar","address2":"","latitude":"30.9987","longitude":"75.1651","accuracy":"3"},{"address3":"Kishanpur","state":"Punjab","state_code":"23","district":"Jalandhar","district_code":"037","address1":"Jalandhar - I","address2":"","latitude":"31.2126","longitude":"75.5666","accuracy":"4"},{"address3":"Dolike Sunderpur","state":"Punjab","state_code":"23","district":"Jalandhar","district_code":"037","address1":"Jalandhar - I","address2":"","latitude":"30.9987","longitude":"75.1651","accuracy":"3"},{"address3":"Duhre","state":"Punjab","state_code":"23","district":"Jalandhar","district_code":"037","address1":"Jalandhar - I","address2":"","latitude":"30.9987","longitude":"75.1651","accuracy":"3"}],"144303":[{"address3":"Jalowal","state":"Punjab","state_code":"23","district":"Jalandhar","district_code":"037","address1":"Jalandhar -II","address2":"","latitude":"31.2126","longitude":"75.5666","accuracy":"4"},{"address3":"Kandhala Guru","state":"Punjab","state_code":"23","district":"Jalandhar","district_code":"037","address1":"Jalandhar","address2":"","latitude":"31.6708","longitude":"75.7745","accuracy":"3"},{"address3":"Kala Bakra","state":"Punjab","state_code":"23","district":"Jalandhar","district_code":"037","address1":"Jalandhar","address2":"","latitude":"31.6708","longitude":"75.7745","accuracy":"3"},{"address3":"Sadana","state":"Punjab","state_code":"23","district":"Jalandhar","district_code":"037","address1":"Jalandhar -II","address2":"","latitude":"31.6708","longitude":"75.7745","accuracy":"3"},{"address3":"Rohjari","state":"Punjab","state_code":"23","district":"Jalandhar","district_code":"037","address1":"Jalandhar","address2":"","latitude":"31.6708","longitude":"75.7745","accuracy":"3"}],"144305":[{"address3":"Dhugga Kalan","state":"Punjab","state_code":"23","district":"Hoshiarpur","district_code":"038","address1":"Hoshiarpur","address2":"","latitude":"31.243","longitude":"75.8972","accuracy":"3"},{"address3":"Khudda","state":"Punjab","state_code":"23","district":"Hoshiarpur","district_code":"038","address1":"Dasua","address2":"","latitude":"31.626","longitude":"75.8588","accuracy":"4"},{"address3":"Johal","state":"Punjab","state_code":"23","district":"Hoshiarpur","district_code":"038","address1":"Hoshiarpur","address2":"","latitude":"31.626","longitude":"75.8588","accuracy":"4"},{"address3":"Bodal Garna Sahib","state":"Punjab","state_code":"23","district":"Hoshiarpur","district_code":"038","address1":"Hoshiarpur","address2":"","latitude":"31.243","longitude":"75.8972","accuracy":"3"},{"address3":"Berchha","state":"Punjab","state_code":"23","district":"Hoshiarpur","district_code":"038","address1":"Hoshiarpur","address2":"","latitude":"31.779","longitude":"75.6751","accuracy":"4"},{"address3":"Khunkhun Kalan","state":"Punjab","state_code":"23","district":"Hoshiarpur","district_code":"038","address1":"Hoshiarpur","address2":"","latitude":"31.243","longitude":"75.8972","accuracy":"3"},{"address3":"Safdarpur","state":"Punjab","state_code":"23","district":"Hoshiarpur","district_code":"038","address1":"Hoshiarpur","address2":"","latitude":"31.7866","longitude":"75.5908","accuracy":"4"},{"address3":"Jhingar Kalan","state":"Punjab","state_code":"23","district":"Hoshiarpur","district_code":"038","address1":"Hoshiarpur","address2":"","latitude":"31.243","longitude":"75.8972","accuracy":"3"}],"144306":[{"address3":"Behbalmanj","state":"Punjab","state_code":"23","district":"Hoshiarpur","district_code":"038","address1":"Hoshiarpur","address2":"","latitude":"32.0357","longitude":"75.6209","accuracy":"3"},{"address3":"Bhangala","state":"Punjab","state_code":"23","district":"Hoshiarpur","district_code":"038","address1":"NA","address2":"","latitude":"32.022","longitude":"75.61","accuracy":"4"},{"address3":"Mehtabpur","state":"Punjab","state_code":"23","district":"Hoshiarpur","district_code":"038","address1":"Hoshiarpur","address2":"","latitude":"32.0357","longitude":"75.6209","accuracy":"3"},{"address3":"Hardo Khund Pur","state":"Punjab","state_code":"23","district":"Hoshiarpur","district_code":"038","address1":"Hoshiarpur","address2":"","latitude":"32.0357","longitude":"75.6209","accuracy":"3"},{"address3":"Kotli Khas","state":"Punjab","state_code":"23","district":"Hoshiarpur","district_code":"038","address1":"Hoshiarpur","address2":"","latitude":"32.0487","longitude":"75.6361","accuracy":"4"},{"address3":"Dhola Khera","state":"Punjab","state_code":"23","district":"Hoshiarpur","district_code":"038","address1":"Mukerian","address2":"","latitude":"32.0357","longitude":"75.6209","accuracy":"3"},{"address3":"Jandwal","state":"Punjab","state_code":"23","district":"Hoshiarpur","district_code":"038","address1":"Mukerian","address2":"","latitude":"32.0363","longitude":"75.6166","accuracy":"4"},{"address3":"Harse Mansar","state":"Punjab","state_code":"23","district":"Hoshiarpur","district_code":"038","address1":"Mukerian","address2":"","latitude":"32.0357","longitude":"75.6209","accuracy":"3"},{"address3":"Channaur","state":"Punjab","state_code":"23","district":"Hoshiarpur","district_code":"038","address1":"Mukerian","address2":"","latitude":"32.0357","longitude":"75.6209","accuracy":"3"},{"address3":"Bariowal","state":"Punjab","state_code":"23","district":"Hoshiarpur","district_code":"038","address1":"Hoshiarpur","address2":"","latitude":"32.0357","longitude":"75.6209","accuracy":"3"}],"144311":[{"address3":"Dhesian Kahna","state":"Punjab","state_code":"23","district":"Jalandhar","district_code":"037","address1":"Phagwara","address2":"","latitude":"31.1479","longitude":"75.692","accuracy":"4"},{"address3":"Rorkee","state":"Punjab","state_code":"23","district":"Jalandhar","district_code":"037","address1":"Phagwara","address2":"","latitude":"31.1479","longitude":"75.692","accuracy":"3"}],"144401":[{"address3":"Banga Road Phagwara","state":"Punjab","state_code":"23","district":"Kapurthala","district_code":"036","address1":"Phagwara","address2":"","latitude":"31.2326","longitude":"75.7895","accuracy":"1"},{"address3":"Mehli Gate Phagwara","state":"Punjab","state_code":"23","district":"Kapurthala","district_code":"036","address1":"Phagwara","address2":"","latitude":"31.2326","longitude":"75.7895","accuracy":"1"},{"address3":"Bazar Sarafan Phagwara","state":"Punjab","state_code":"23","district":"Kapurthala","district_code":"036","address1":"Phagwara","address2":"","latitude":"31.2326","longitude":"75.7895","accuracy":"1"},{"address3":"Thaper Colony Phagwara","state":"Punjab","state_code":"23","district":"Kapurthala","district_code":"036","address1":"Phagwara","address2":"","latitude":"31.2326","longitude":"75.7895","accuracy":"1"},{"address3":"Phagwara H.O","state":"Punjab","state_code":"23","district":"Kapurthala","district_code":"036","address1":"Phagwara","address2":"","latitude":"31.2326","longitude":"75.7895","accuracy":"1"}],"144402":[{"address3":"Athouli","state":"Punjab","state_code":"23","district":"Kapurthala","district_code":"036","address1":"Phagwara","address2":"","latitude":"31.2427","longitude":"75.6201","accuracy":"3"},{"address3":"Sangatpur","state":"Punjab","state_code":"23","district":"Kapurthala","district_code":"036","address1":"Phagwara","address2":"","latitude":"31.3541","longitude":"75.4031","accuracy":"4"},{"address3":"Sarai Jattan","state":"Punjab","state_code":"23","district":"Kapurthala","district_code":"036","address1":"Phagwara","address2":"","latitude":"31.1767","longitude":"75.722","accuracy":"4"},{"address3":"Mehtan","state":"Punjab","state_code":"23","district":"Kapurthala","district_code":"036","address1":"Phagwara","address2":"","latitude":"31.2427","longitude":"75.6201","accuracy":"3"},{"address3":"Chak Prema","state":"Punjab","state_code":"23","district":"Kapurthala","district_code":"036","address1":"Phagwara","address2":"","latitude":"31.2701","longitude":"75.8032","accuracy":"4"},{"address3":"Pandori","state":"Punjab","state_code":"23","district":"Kapurthala","district_code":"036","address1":"Phagwara","address2":"","latitude":"31.5177","longitude":"75.505","accuracy":"4"},{"address3":"Satnampura","state":"Punjab","state_code":"23","district":"Kapurthala","district_code":"036","address1":"Phagwara","address2":"","latitude":"31.2427","longitude":"75.6201","accuracy":"3"},{"address3":"Lakhpur","state":"Punjab","state_code":"23","district":"Kapurthala","district_code":"036","address1":"Phagwara","address2":"","latitude":"31.2814","longitude":"75.8183","accuracy":"4"},{"address3":"Bhullarai","state":"Punjab","state_code":"23","district":"Kapurthala","district_code":"036","address1":"Phagwara","address2":"","latitude":"31.2427","longitude":"75.6201","accuracy":"3"},{"address3":"Bhanoki","state":"Punjab","state_code":"23","district":"Kapurthala","district_code":"036","address1":"Phagwara","address2":"","latitude":"31.2427","longitude":"75.6201","accuracy":"3"},{"address3":"Manak","state":"Punjab","state_code":"23","district":"Jalandhar","district_code":"037","address1":"Phagwara","address2":"","latitude":"31.1582","longitude":"75.1707","accuracy":"4"}],"144403":[{"address3":"Ranipur (Kapurthala)","state":"Punjab","state_code":"23","district":"Kapurthala","district_code":"036","address1":"Phagwara","address2":"","latitude":"31.2599","longitude":"75.7613","accuracy":"3"},{"address3":"Bohani","state":"Punjab","state_code":"23","district":"Jalandhar","district_code":"037","address1":"Phagwara","address2":"","latitude":"31.2599","longitude":"75.7613","accuracy":"3"},{"address3":"Palahi","state":"Punjab","state_code":"23","district":"Jalandhar","district_code":"037","address1":"Phagwara","address2":"","latitude":"31.2126","longitude":"75.5666","accuracy":"4"},{"address3":"Barn","state":"Punjab","state_code":"23","district":"Jalandhar","district_code":"037","address1":"Phagwara","address2":"","latitude":"31.2599","longitude":"75.7613","accuracy":"3"},{"address3":"Nangal Majha","state":"Punjab","state_code":"23","district":"Jalandhar","district_code":"037","address1":"Phagwara","address2":"","latitude":"31.2599","longitude":"75.7613","accuracy":"3"}],"144404":[{"address3":"Ajnoha","state":"Punjab","state_code":"23","district":"Hoshiarpur","district_code":"038","address1":"Hoshiarpur","address2":"","latitude":"31.3252","longitude":"75.8977","accuracy":"4"},{"address3":"Todarpur","state":"Punjab","state_code":"23","district":"Hoshiarpur","district_code":"038","address1":"Hoshiarpur","address2":"","latitude":"31.626","longitude":"75.8588","accuracy":"4"},{"address3":"Panjaura","state":"Punjab","state_code":"23","district":"Hoshiarpur","district_code":"038","address1":"Hoshiarpur","address2":"","latitude":"31.2744","longitude":"75.9224","accuracy":"3"},{"address3":"Khanaura","state":"Punjab","state_code":"23","district":"Hoshiarpur","district_code":"038","address1":"Hoshiarpur","address2":"","latitude":"31.3948","longitude":"75.8162","accuracy":"4"},{"address3":"Nadalon","state":"Punjab","state_code":"23","district":"Hoshiarpur","district_code":"038","address1":"Hoshiarpur","address2":"","latitude":"31.3149","longitude":"75.9106","accuracy":"4"},{"address3":"Mehtiana","state":"Punjab","state_code":"23","district":"Hoshiarpur","district_code":"038","address1":"Hoshiarpur","address2":"","latitude":"31.3743","longitude":"75.8197","accuracy":"4"},{"address3":"Phuglana","state":"Punjab","state_code":"23","district":"Hoshiarpur","district_code":"038","address1":"Hoshiarpur","address2":"","latitude":"31.388","longitude":"75.8389","accuracy":"4"}],"144405":[{"address3":"Narur","state":"Punjab","state_code":"23","district":"Kapurthala","district_code":"036","address1":"Phagwara","address2":"","latitude":"31.3321","longitude":"75.8548","accuracy":"4"},{"address3":"Mayopatti","state":"Punjab","state_code":"23","district":"Jalandhar","district_code":"037","address1":"Phagwara","address2":"","latitude":"31.2126","longitude":"75.5666","accuracy":"4"},{"address3":"Bhagana","state":"Punjab","state_code":"23","district":"Jalandhar","district_code":"037","address1":"Phagwara","address2":"","latitude":"31.3229","longitude":"75.8569","accuracy":"3"},{"address3":"Sahni","state":"Punjab","state_code":"23","district":"Jalandhar","district_code":"037","address1":"Phagwara","address2":"","latitude":"31.2126","longitude":"75.5666","accuracy":"4"}],"144406":[{"address3":"Baddon","state":"Punjab","state_code":"23","district":"Hoshiarpur","district_code":"038","address1":"Hoshiarpur","address2":"","latitude":"31.3584","longitude":"75.8943","accuracy":"3"},{"address3":"Dihana","state":"Punjab","state_code":"23","district":"Hoshiarpur","district_code":"038","address1":"Hoshiarpur","address2":"","latitude":"31.3584","longitude":"75.8943","accuracy":"4"}],"144407":[{"address3":"Domeli","state":"Punjab","state_code":"23","district":"Kapurthala","district_code":"036","address1":"Phagwara","address2":"","latitude":"31.3313","longitude":"75.7963","accuracy":"3"},{"address3":"Rawalpindi Gulab Shah","state":"Punjab","state_code":"23","district":"Jalandhar","district_code":"037","address1":"Phagwara","address2":"","latitude":"31.3313","longitude":"75.7963","accuracy":"3"},{"address3":"Bhabiana","state":"Punjab","state_code":"23","district":"Jalandhar","district_code":"037","address1":"Phagwara","address2":"","latitude":"31.2126","longitude":"75.5666","accuracy":"4"},{"address3":"Rampur Sunera","state":"Punjab","state_code":"23","district":"Jalandhar","district_code":"037","address1":"Phagwara","address2":"","latitude":"31.3313","longitude":"75.7963","accuracy":"3"},{"address3":"Rehana Jattan","state":"Punjab","state_code":"23","district":"Jalandhar","district_code":"037","address1":"Phagwara","address2":"","latitude":"31.3313","longitude":"75.7963","accuracy":"3"}],"144408":[{"address3":"Panchhat","state":"Punjab","state_code":"23","district":"Kapurthala","district_code":"036","address1":"Phagwara","address2":"","latitude":"31.2326","longitude":"75.7895","accuracy":"1"}],"144409":[{"address3":"Birbansian","state":"Punjab","state_code":"23","district":"Jalandhar","district_code":"037","address1":"Phillaur","address2":"","latitude":"31.0936","longitude":"75.7782","accuracy":"3"},{"address3":"Goraya","state":"Punjab","state_code":"23","district":"Jalandhar","district_code":"037","address1":"Phillaur","address2":"","latitude":"31.1241","longitude":"75.7724","accuracy":"4"},{"address3":"Chachrari","state":"Punjab","state_code":"23","district":"Jalandhar","district_code":"037","address1":"Phillaur","address2":"","latitude":"31.1625","longitude":"75.7777","accuracy":"4"},{"address3":"Dhesian Sangh","state":"Punjab","state_code":"23","district":"Jalandhar","district_code":"037","address1":"Phillaur","address2":"","latitude":"31.0936","longitude":"75.7782","accuracy":"3"},{"address3":"Paddi Jagir","state":"Punjab","state_code":"23","district":"Jalandhar","district_code":"037","address1":"Phillaur","address2":"","latitude":"31.1452","longitude":"75.8134","accuracy":"4"},{"address3":"Mathada Kalan","state":"Punjab","state_code":"23","district":"Jalandhar","district_code":"037","address1":"Phillaur","address2":"","latitude":"31.0936","longitude":"75.7782","accuracy":"3"},{"address3":"Gohawar","state":"Punjab","state_code":"23","district":"Jalandhar","district_code":"037","address1":"Phillaur","address2":"","latitude":"31.2126","longitude":"75.5666","accuracy":"4"},{"address3":"Mathada Khurd","state":"Punjab","state_code":"23","district":"Jalandhar","district_code":"037","address1":"Phillaur","address2":"","latitude":"31.0936","longitude":"75.7782","accuracy":"3"},{"address3":"Mahal","state":"Punjab","state_code":"23","district":"Jalandhar","district_code":"037","address1":"Phillaur","address2":"","latitude":"31.14","longitude":"75.7897","accuracy":"4"},{"address3":"Rurka Khurd","state":"Punjab","state_code":"23","district":"Jalandhar","district_code":"037","address1":"Phillaur","address2":"","latitude":"31.121","longitude":"75.7951","accuracy":"4"},{"address3":"Sargundi","state":"Punjab","state_code":"23","district":"Jalandhar","district_code":"037","address1":"Phillaur","address2":"","latitude":"31.0936","longitude":"75.7782","accuracy":"3"}],"144410":[{"address3":"Ganna Pind","state":"Punjab","state_code":"23","district":"Jalandhar","district_code":"037","address1":"Phillaur","address2":"","latitude":"31.0368","longitude":"75.8228","accuracy":"3"},{"address3":"Phillaur","state":"Punjab","state_code":"23","district":"Jalandhar","district_code":"037","address1":"Phillaur","address2":"","latitude":"31.0189","longitude":"75.7911","accuracy":"4"},{"address3":"Khaira","state":"Punjab","state_code":"23","district":"Jalandhar","district_code":"037","address1":"Phillaur","address2":"","latitude":"31.0644","longitude":"75.7861","accuracy":"4"},{"address3":"Tehang","state":"Punjab","state_code":"23","district":"Jalandhar","district_code":"037","address1":"Phillaur","address2":"","latitude":"31.0368","longitude":"75.8228","accuracy":"3"},{"address3":"Nagar","state":"Punjab","state_code":"23","district":"Jalandhar","district_code":"037","address1":"Phillaur","address2":"","latitude":"31.0423","longitude":"75.8374","accuracy":"4"},{"address3":"P T S Phillaur","state":"Punjab","state_code":"23","district":"Jalandhar","district_code":"037","address1":"Phillaur","address2":"","latitude":"31.0368","longitude":"75.8228","accuracy":"3"},{"address3":"Kariana","state":"Punjab","state_code":"23","district":"Jalandhar","district_code":"037","address1":"Phillaur","address2":"","latitude":"31.0215","longitude":"75.8767","accuracy":"4"},{"address3":"Shahpur Bhattian","state":"Punjab","state_code":"23","district":"Jalandhar","district_code":"037","address1":"Phillaur","address2":"","latitude":"31.0368","longitude":"75.8228","accuracy":"3"},{"address3":"Industrial Area Phillaur","state":"Punjab","state_code":"23","district":"Jalandhar","district_code":"037","address1":"Phillaur","address2":"","latitude":"31.0368","longitude":"75.8228","accuracy":"3"},{"address3":"Haripur Khalsa","state":"Punjab","state_code":"23","district":"Jalandhar","district_code":"037","address1":"Phillaur","address2":"","latitude":"31.0368","longitude":"75.8228","accuracy":"3"}],"144411":[{"address3":"Maheru","state":"Punjab","state_code":"23","district":"Kapurthala","district_code":"036","address1":"Phagwara","address2":"","latitude":"31.2434","longitude":"75.6882","accuracy":"4"},{"address3":"Madhopur","state":"Punjab","state_code":"23","district":"Kapurthala","district_code":"036","address1":"Phagwara","address2":"","latitude":"31.3541","longitude":"75.4031","accuracy":"4"},{"address3":"University Campus Nanak Nagri","state":"Punjab","state_code":"23","district":"Kapurthala","district_code":"036","address1":"Phagwara","address2":"","latitude":"31.4106","longitude":"75.6793","accuracy":"3"},{"address3":"Chiheru","state":"Punjab","state_code":"23","district":"Kapurthala","district_code":"036","address1":"Phagwara","address2":"","latitude":"31.4106","longitude":"75.6793","accuracy":"3"},{"address3":"Hardasspur","state":"Punjab","state_code":"23","district":"Kapurthala","district_code":"036","address1":"Phagwara","address2":"","latitude":"31.4106","longitude":"75.6793","accuracy":"3"},{"address3":"Raipur","state":"Punjab","state_code":"23","district":"Kapurthala","district_code":"036","address1":"Shahkot","address2":"","latitude":"31.4106","longitude":"75.6793","accuracy":"3"},{"address3":"Khajurla","state":"Punjab","state_code":"23","district":"Kapurthala","district_code":"036","address1":"Phagwara","address2":"","latitude":"31.4106","longitude":"75.6793","accuracy":"3"}],"144415":[{"address3":"Lassara","state":"Punjab","state_code":"23","district":"Nawanshahr","district_code":"039","address1":"Nawanshahar","address2":"","latitude":"31.1176","longitude":"75.8269","accuracy":"1"}],"144416":[{"address3":"Massani","state":"Punjab","state_code":"23","district":"Jalandhar","district_code":"037","address1":"Jalandhar","address2":"","latitude":"31.0828","longitude":"75.8874","accuracy":"3"},{"address3":"Apra","state":"Punjab","state_code":"23","district":"Jalandhar","district_code":"037","address1":"Phillaur","address2":"","latitude":"31.0863","longitude":"75.8791","accuracy":"4"},{"address3":"Mandi","state":"Punjab","state_code":"23","district":"Jalandhar","district_code":"037","address1":"Phillaur","address2":"","latitude":"31.0793","longitude":"75.8957","accuracy":"4"}],"144417":[{"address3":"Phambra","state":"Punjab","state_code":"23","district":"Jalandhar","district_code":"037","address1":"Phillaur","address2":"","latitude":"31.2126","longitude":"75.5666","accuracy":"4"},{"address3":"Aur","state":"Punjab","state_code":"23","district":"Nawanshahr","district_code":"039","address1":"Nawanshahar","address2":"","latitude":"31.0684","longitude":"76.0024","accuracy":"4"}],"144418":[{"address3":"Dhaleta","state":"Punjab","state_code":"23","district":"Jalandhar","district_code":"037","address1":"Phillaur","address2":"","latitude":"31.118","longitude":"75.7884","accuracy":"3"},{"address3":"Chak Desraj","state":"Punjab","state_code":"23","district":"Jalandhar","district_code":"037","address1":"Phillaur","address2":"","latitude":"31.1369","longitude":"75.8531","accuracy":"4"},{"address3":"Bara Pind","state":"Punjab","state_code":"23","district":"Jalandhar","district_code":"037","address1":"Phillaur","address2":"","latitude":"31.118","longitude":"75.7884","accuracy":"3"},{"address3":"Atti","state":"Punjab","state_code":"23","district":"Jalandhar","district_code":"037","address1":"Phillaur","address2":"","latitude":"31.118","longitude":"75.7884","accuracy":"3"},{"address3":"Kang Jagir","state":"Punjab","state_code":"23","district":"Jalandhar","district_code":"037","address1":"Phillaur","address2":"","latitude":"31.0851","longitude":"75.8293","accuracy":"4"},{"address3":"Phalpota","state":"Punjab","state_code":"23","district":"Jalandhar","district_code":"037","address1":"Phillaur","address2":"","latitude":"31.0977","longitude":"75.8256","accuracy":"4"},{"address3":"Mansurpur","state":"Punjab","state_code":"23","district":"Jalandhar","district_code":"037","address1":"Phillaur","address2":"","latitude":"31.0914","longitude":"75.8016","accuracy":"4"},{"address3":"Samrai","state":"Punjab","state_code":"23","district":"Jalandhar","district_code":"037","address1":"Phillaur","address2":"","latitude":"31.1788","longitude":"75.6323","accuracy":"4"}],"144419":[{"address3":"Landhran","state":"Punjab","state_code":"23","district":"Jalandhar","district_code":"037","address1":"Phillaur","address2":"","latitude":"31.0531","longitude":"75.8628","accuracy":"3"},{"address3":"Dayalpur (Jalandhar)","state":"Punjab","state_code":"23","district":"Jalandhar","district_code":"037","address1":"Jalandhar -II","address2":"","latitude":"31.0531","longitude":"75.8628","accuracy":"3"},{"address3":"Bharsingpura","state":"Punjab","state_code":"23","district":"Jalandhar","district_code":"037","address1":"Phillaur","address2":"","latitude":"31.0531","longitude":"75.8628","accuracy":"3"},{"address3":"Thalla","state":"Punjab","state_code":"23","district":"Jalandhar","district_code":"037","address1":"Phillaur","address2":"","latitude":"31.0531","longitude":"75.8628","accuracy":"4"}],"144421":[{"address3":"Hansron","state":"Punjab","state_code":"23","district":"Nawanshahr","district_code":"039","address1":"Nawanshahar","address2":"","latitude":"31.0916","longitude":"76.0782","accuracy":"4"},{"address3":"Bohara","state":"Punjab","state_code":"23","district":"Nawanshahr","district_code":"039","address1":"Nawanshahar","address2":"","latitude":"31.0872","longitude":"76.0237","accuracy":"4"},