{"148001":[{"address3":"Sangrur H.O","state":"Punjab","state_code":"23","district":"Sangrur","district_code":"053","address1":"Sangrur","address2":"","latitude":"30.2323","longitude":"75.852","accuracy":"1"},{"address3":"Mini Secteriate Sangrur","state":"Punjab","state_code":"23","district":"Sangrur","district_code":"053","address1":"Sangrur","address2":"","latitude":"30.2323","longitude":"75.852","accuracy":"1"},{"address3":"N G M Sangrur","state":"Punjab","state_code":"23","district":"Sangrur","district_code":"053","address1":"Sangrur","address2":"","latitude":"30.2323","longitude":"75.852","accuracy":"1"},{"address3":"Sangrur Kty","state":"Punjab","state_code":"23","district":"Sangrur","district_code":"053","address1":"Sangrur","address2":"","latitude":"30.2323","longitude":"75.852","accuracy":"1"}],"148002":[{"address3":"Gurusar Mastuana","state":"Punjab","state_code":"23","district":"Sangrur","district_code":"053","address1":"sangrur","address2":"","latitude":"30.2323","longitude":"75.852","accuracy":"3"},{"address3":"Kheri","state":"Punjab","state_code":"23","district":"Sangrur","district_code":"053","address1":"Sangrur","address2":"","latitude":"30.1906","longitude":"75.8825","accuracy":"4"},{"address3":"Chathe Sekhwan","state":"Punjab","state_code":"23","district":"Sangrur","district_code":"053","address1":"Sangrur","address2":"","latitude":"30.2323","longitude":"75.852","accuracy":"3"},{"address3":"Mangwal","state":"Punjab","state_code":"23","district":"Sangrur","district_code":"053","address1":"Sangrur","address2":"","latitude":"30.2558","longitude":"75.872","accuracy":"4"},{"address3":"Badrukhan","state":"Punjab","state_code":"23","district":"Sangrur","district_code":"053","address1":"Sangrur","address2":"","latitude":"30.2323","longitude":"75.852","accuracy":"3"},{"address3":"Gaggarpur","state":"Punjab","state_code":"23","district":"Sangrur","district_code":"053","address1":"Sangrur","address2":"","latitude":"30.1955","longitude":"75.9109","accuracy":"4"},{"address3":"H R Sangrur","state":"Punjab","state_code":"23","district":"Sangrur","district_code":"053","address1":"Sangrur","address2":"","latitude":"30.2323","longitude":"75.852","accuracy":"3"},{"address3":"Bahadurpur","state":"Punjab","state_code":"23","district":"Sangrur","district_code":"053","address1":"Sangrur","address2":"","latitude":"30.2576","longitude":"75.7459","accuracy":"4"},{"address3":"Uppli","state":"Punjab","state_code":"23","district":"Sangrur","district_code":"053","address1":"Sangrur","address2":"","latitude":"30.2323","longitude":"75.852","accuracy":"3"},{"address3":"Balian","state":"Punjab","state_code":"23","district":"Sangrur","district_code":"053","address1":"Dhuri","address2":"","latitude":"30.2797","longitude":"75.8997","accuracy":"4"},{"address3":"Ubhewal","state":"Punjab","state_code":"23","district":"Sangrur","district_code":"053","address1":"Sangrur","address2":"","latitude":"30.2323","longitude":"75.852","accuracy":"3"},{"address3":"Duggan","state":"Punjab","state_code":"23","district":"Sangrur","district_code":"053","address1":"Sangrur","address2":"","latitude":"30.2464","longitude":"75.7344","accuracy":"4"},{"address3":"Mehlan","state":"Punjab","state_code":"23","district":"Sangrur","district_code":"053","address1":"Sunam","address2":"","latitude":"30.2323","longitude":"75.852","accuracy":"3"},{"address3":"Bhindran","state":"Punjab","state_code":"23","district":"Sangrur","district_code":"053","address1":"Sangrur","address2":"","latitude":"30.2665","longitude":"75.914","accuracy":"4"},{"address3":"Kular  Khurd","state":"Punjab","state_code":"23","district":"Sangrur","district_code":"053","address1":"Sangrur","address2":"","latitude":"30.1659","longitude":"75.8566","accuracy":"4"}],"148017":[{"address3":"Bhullerheri","state":"Punjab","state_code":"23","district":"Sangrur","district_code":"053","address1":"Dhuri","address2":"","latitude":"30.3341","longitude":"75.9337","accuracy":"3"},{"address3":"Bhojowali","state":"Punjab","state_code":"23","district":"Sangrur","district_code":"053","address1":"Dhuri","address2":"","latitude":"30.3449","longitude":"75.9233","accuracy":"4"},{"address3":"Harchandpur","state":"Punjab","state_code":"23","district":"Sangrur","district_code":"053","address1":"Dhuri","address2":"","latitude":"30.3341","longitude":"75.9337","accuracy":"3"},{"address3":"Bhalwan","state":"Punjab","state_code":"23","district":"Sangrur","district_code":"053","address1":"Dhuri","address2":"","latitude":"30.3233","longitude":"75.9442","accuracy":"4"},{"address3":"Mehsampur","state":"Punjab","state_code":"23","district":"Sangrur","district_code":"053","address1":"Sangrur","address2":"","latitude":"30.3341","longitude":"75.9337","accuracy":"3"},{"address3":"Meemsa","state":"Punjab","state_code":"23","district":"Sangrur","district_code":"053","address1":"Dhuri","address2":"","latitude":"30.3341","longitude":"75.9337","accuracy":"3"}],"148018":[{"address3":"Kandhargarh","state":"Punjab","state_code":"23","district":"Sangrur","district_code":"053","address1":"Dhuri","address2":"","latitude":"30.376","longitude":"75.9847","accuracy":"4"},{"address3":"Bagrian","state":"Punjab","state_code":"23","district":"Sangrur","district_code":"053","address1":"Malerkotla","address2":"","latitude":"30.4283","longitude":"76.0346","accuracy":"4"},{"address3":"Bhatian Khurd","state":"Punjab","state_code":"23","district":"Sangrur","district_code":"053","address1":"Malerkotla","address2":"","latitude":"30.3985","longitude":"76.016","accuracy":"4"}],"148019":[{"address3":"Kup Kalan","state":"Punjab","state_code":"23","district":"Sangrur","district_code":"053","address1":"NA","address2":"","latitude":"30.3742","longitude":"75.9806","accuracy":"1"},{"address3":"Jitwal Kalan","state":"Punjab","state_code":"23","district":"Sangrur","district_code":"053","address1":"Malerkotla","address2":"","latitude":"30.3742","longitude":"75.9806","accuracy":"1"},{"address3":"Bhogiwal","state":"Punjab","state_code":"23","district":"Sangrur","district_code":"053","address1":"Malerkotla","address2":"","latitude":"30.3742","longitude":"75.9806","accuracy":"1"}],"148020":[{"address3":"Mithewal","state":"Punjab","state_code":"23","district":"Sangrur","district_code":"053","address1":"Malerkotla","address2":"","latitude":"30.2135","longitude":"75.8686","accuracy":"4"},{"address3":"Kalyan","state":"Punjab","state_code":"23","district":"Sangrur","district_code":"053","address1":"NA","address2":"","latitude":"30.2135","longitude":"75.8686","accuracy":"4"},{"address3":"Fatehgarh Panjgrian","state":"Punjab","state_code":"23","district":"Sangrur","district_code":"053","address1":"Malerkotla","address2":"","latitude":"30.9531","longitude":"75.6755","accuracy":"3"},{"address3":"Manki","state":"Punjab","state_code":"23","district":"Sangrur","district_code":"053","address1":"Malerkotla","address2":"","latitude":"30.2135","longitude":"75.8686","accuracy":"4"},{"address3":"Kothala","state":"Punjab","state_code":"23","district":"Sangrur","district_code":"053","address1":"NA","address2":"","latitude":"30.9531","longitude":"75.6755","accuracy":"3"},{"address3":"Kanganwal","state":"Punjab","state_code":"23","district":"Sangrur","district_code":"053","address1":"NA","address2":"","latitude":"30.2135","longitude":"75.8686","accuracy":"4"},{"address3":"Sandhaur","state":"Punjab","state_code":"23","district":"Sangrur","district_code":"053","address1":"Malerkotla","address2":"","latitude":"30.9531","longitude":"75.6755","accuracy":"3"},{"address3":"Mohamedpur","state":"Punjab","state_code":"23","district":"Sangrur","district_code":"053","address1":"Dhuri","address2":"","latitude":"30.9531","longitude":"75.6755","accuracy":"3"},{"address3":"Khurd","state":"Punjab","state_code":"23","district":"Sangrur","district_code":"053","address1":"Malerkotla","address2":"","latitude":"30.9531","longitude":"75.6755","accuracy":"3"},{"address3":"Jhuner","state":"Punjab","state_code":"23","district":"Sangrur","district_code":"053","address1":"Malerkotla","address2":"","latitude":"30.9531","longitude":"75.6755","accuracy":"3"},{"address3":"Shergar Cheema","state":"Punjab","state_code":"23","district":"Sangrur","district_code":"053","address1":"NA","address2":"","latitude":"30.9531","longitude":"75.6755","accuracy":"3"}],"148021":[{"address3":"Nathu Majra","state":"Punjab","state_code":"23","district":"Sangrur","district_code":"053","address1":"Malerkotla","address2":"","latitude":"30.2135","longitude":"75.8686","accuracy":"4"},{"address3":"Ahmedgarh s.O","state":"Punjab","state_code":"23","district":"Sangrur","district_code":"053","address1":"Malerkotla","address2":"","latitude":"30.3915","longitude":"76.5507","accuracy":"3"},{"address3":"Dehliz Kalan","state":"Punjab","state_code":"23","district":"Sangrur","district_code":"053","address1":"Malerkotla","address2":"","latitude":"30.3915","longitude":"76.5507","accuracy":"3"},{"address3":"Rohira","state":"Punjab","state_code":"23","district":"Sangrur","district_code":"053","address1":"Malerkotla","address2":"","latitude":"30.3915","longitude":"76.5507","accuracy":"3"},{"address3":"Jandali Khurd","state":"Punjab","state_code":"23","district":"Sangrur","district_code":"053","address1":"Malerkotla","address2":"","latitude":"30.3915","longitude":"76.5507","accuracy":"3"},{"address3":"Maholi Kalan","state":"Punjab","state_code":"23","district":"Sangrur","district_code":"053","address1":"Malerkotla","address2":"","latitude":"30.3915","longitude":"76.5507","accuracy":"3"}],"148022":[{"address3":"Banbhaura","state":"Punjab","state_code":"23","district":"Sangrur","district_code":"053","address1":"Malerkotla","address2":"","latitude":"30.4703","longitude":"75.9492","accuracy":"4"},{"address3":"Dhatogal","state":"Punjab","state_code":"23","district":"Sangrur","district_code":"053","address1":"Dhuri","address2":"","latitude":"30.4891","longitude":"76.0076","accuracy":"3"},{"address3":"Bathan","state":"Punjab","state_code":"23","district":"Sangrur","district_code":"053","address1":"Malerkotla","address2":"","latitude":"30.5131","longitude":"76.0118","accuracy":"4"},{"address3":"Mullabadha","state":"Punjab","state_code":"23","district":"Sangrur","district_code":"053","address1":"Malerkotla","address2":"","latitude":"30.4891","longitude":"76.0076","accuracy":"3"},{"address3":"Chaunda","state":"Punjab","state_code":"23","district":"Sangrur","district_code":"053","address1":"Malerkotla","address2":"","latitude":"30.5108","longitude":"76.0551","accuracy":"4"},{"address3":"Jhall","state":"Punjab","state_code":"23","district":"Sangrur","district_code":"053","address1":"Malerkotla","address2":"","latitude":"30.4891","longitude":"76.0076","accuracy":"3"},{"address3":"Amargarh (Sangrur)","state":"Punjab","state_code":"23","district":"Sangrur","district_code":"053","address1":"Malerkotla","address2":"","latitude":"30.4621","longitude":"76.0144","accuracy":"4"},{"address3":"Jabbomajra","state":"Punjab","state_code":"23","district":"Sangrur","district_code":"053","address1":"Malerkotla","address2":"","latitude":"30.4891","longitude":"76.0076","accuracy":"3"}],"148023":[{"address3":"Roorkee Kalan","state":"Punjab","state_code":"23","district":"Sangrur","district_code":"053","address1":"Malerkotla","address2":"","latitude":"30.3997","longitude":"75.8285","accuracy":"3"},{"address3":"Sanghera","state":"Punjab","state_code":"23","district":"Sangrur","district_code":"053","address1":"Malerkotla","address2":"","latitude":"30.2135","longitude":"75.8686","accuracy":"4"},{"address3":"CR Malerkotla","state":"Punjab","state_code":"23","district":"Sangrur","district_code":"053","address1":"Malerkotla","address2":"","latitude":"30.3997","longitude":"75.8285","accuracy":"3"},{"address3":"Bhoodan","state":"Punjab","state_code":"23","district":"Sangrur","district_code":"053","address1":"Malerkotla","address2":"","latitude":"30.3997","longitude":"75.8285","accuracy":"3"},{"address3":"Sangala","state":"Punjab","state_code":"23","district":"Sangrur","district_code":"053","address1":"Malerkotla","address2":"","latitude":"30.4648","longitude":"75.8866","accuracy":"4"},{"address3":"Saraud","state":"Punjab","state_code":"23","district":"Sangrur","district_code":"053","address1":"Malerkotla","address2":"","latitude":"30.3997","longitude":"75.8285","accuracy":"3"},{"address3":"Malerkotla","state":"Punjab","state_code":"23","district":"Sangrur","district_code":"053","address1":"Malerkotla","address2":"","latitude":"30.5309","longitude":"75.8795","accuracy":"4"},{"address3":"Hussainpura","state":"Punjab","state_code":"23","district":"Sangrur","district_code":"053","address1":"Malerkotla","address2":"","latitude":"30.3997","longitude":"75.8285","accuracy":"3"},{"address3":"Khanpur","state":"Punjab","state_code":"23","district":"Sangrur","district_code":"053","address1":"Malerkotla","address2":"","latitude":"30.1506","longitude":"75.9924","accuracy":"4"},{"address3":"Lassoi","state":"Punjab","state_code":"23","district":"Sangrur","district_code":"053","address1":"Malerkotla","address2":"","latitude":"30.3997","longitude":"75.8285","accuracy":"3"},{"address3":"Hathan","state":"Punjab","state_code":"23","district":"Sangrur","district_code":"053","address1":"Malerkotla","address2":"","latitude":"30.4514","longitude":"75.8214","accuracy":"4"},{"address3":"Manvi","state":"Punjab","state_code":"23","district":"Sangrur","district_code":"053","address1":"Malerkotla","address2":"","latitude":"30.3997","longitude":"75.8285","accuracy":"3"},{"address3":"Mubarkpur","state":"Punjab","state_code":"23","district":"Sangrur","district_code":"053","address1":"Malerkotla","address2":"","latitude":"30.3997","longitude":"75.8285","accuracy":"3"},{"address3":"Bhurthala Mander","state":"Punjab","state_code":"23","district":"Sangrur","district_code":"053","address1":"Malerkotla","address2":"","latitude":"30.3997","longitude":"75.8285","accuracy":"3"},{"address3":"Khanpur Mandian","state":"Punjab","state_code":"23","district":"Sangrur","district_code":"053","address1":"Malerkotla","address2":"","latitude":"30.3997","longitude":"75.8285","accuracy":"3"},{"address3":"IA Malerkotla","state":"Punjab","state_code":"23","district":"Sangrur","district_code":"053","address1":"Malerkotla","address2":"","latitude":"30.3997","longitude":"75.8285","accuracy":"3"},{"address3":"Gowara","state":"Punjab","state_code":"23","district":"Sangrur","district_code":"053","address1":"Malerkotla","address2":"","latitude":"30.3997","longitude":"75.8285","accuracy":"3"},{"address3":"Haider Nagar","state":"Punjab","state_code":"23","district":"Sangrur","district_code":"053","address1":"Malerkotla","address2":"","latitude":"30.3997","longitude":"75.8285","accuracy":"3"},{"address3":"Himtana","state":"Punjab","state_code":"23","district":"Sangrur","district_code":"053","address1":"Malerkotla","address2":"","latitude":"30.3997","longitude":"75.8285","accuracy":"3"}],"148024":[{"address3":"Bhasaur","state":"Punjab","state_code":"23","district":"Sangrur","district_code":"053","address1":"Dhuri","address2":"","latitude":"30.4382","longitude":"75.8943","accuracy":"4"},{"address3":"Kaheru","state":"Punjab","state_code":"23","district":"Sangrur","district_code":"053","address1":"Dhuri","address2":"","latitude":"30.3915","longitude":"75.8312","accuracy":"4"},{"address3":"Bamal","state":"Punjab","state_code":"23","district":"Sangrur","district_code":"053","address1":"Dhuri","address2":"","latitude":"30.4194","longitude":"75.825","accuracy":"4"},{"address3":"Dhuri","state":"Punjab","state_code":"23","district":"Sangrur","district_code":"053","address1":"Dhuri","address2":"","latitude":"30.3685","longitude":"75.8679","accuracy":"4"},{"address3":"Rangian","state":"Punjab","state_code":"23","district":"Sangrur","district_code":"053","address1":"Dhuri","address2":"","latitude":"30.3623","longitude":"75.6911","accuracy":"4"},{"address3":"Kumbherwal","state":"Punjab","state_code":"23","district":"Sangrur","district_code":"053","address1":"Dhuri","address2":"","latitude":"30.4002","longitude":"75.8063","accuracy":"3"},{"address3":"Banbhauri","state":"Punjab","state_code":"23","district":"Sangrur","district_code":"053","address1":"Dhuri","address2":"","latitude":"30.4535","longitude":"75.9172","accuracy":"4"},{"address3":"Ghanaur Khurd","state":"Punjab","state_code":"23","district":"Sangrur","district_code":"053","address1":"Dhuri","address2":"","latitude":"30.4204","longitude":"75.8131","accuracy":"4"},{"address3":"Rajomajra","state":"Punjab","state_code":"23","district":"Sangrur","district_code":"053","address1":"Dhuri","address2":"","latitude":"30.4002","longitude":"75.8063","accuracy":"3"},{"address3":"Baradwal","state":"Punjab","state_code":"23","district":"Sangrur","district_code":"053","address1":"Dhuri","address2":"","latitude":"30.4002","longitude":"75.8063","accuracy":"3"},{"address3":"Ghanauri Kalan","state":"Punjab","state_code":"23","district":"Sangrur","district_code":"053","address1":"Dhuri","address2":"","latitude":"30.4002","longitude":"75.8063","accuracy":"3"},{"address3":"Sr Dhuri","state":"Punjab","state_code":"23","district":"Sangrur","district_code":"053","address1":"Dhuri","address2":"","latitude":"30.4002","longitude":"75.8063","accuracy":"3"},{"address3":"Badshahpur","state":"Punjab","state_code":"23","district":"Sangrur","district_code":"053","address1":"Dhuri","address2":"","latitude":"30.39","longitude":"75.7706","accuracy":"4"},{"address3":"Mullowal","state":"Punjab","state_code":"23","district":"Sangrur","district_code":"053","address1":"Dhuri","address2":"","latitude":"30.4002","longitude":"75.8063","accuracy":"3"},{"address3":"Jhaloor","state":"Punjab","state_code":"23","district":"Barnala","district_code":"054","address1":"Barnala","address2":"","latitude":"30.4002","longitude":"75.8063","accuracy":"3"},{"address3":"Sekha","state":"Punjab","state_code":"23","district":"Barnala","district_code":"054","address1":"Barnala","address2":"","latitude":"30.3583","longitude":"75.6461","accuracy":"4"}],"148025":[{"address3":"Tibba","state":"Punjab","state_code":"23","district":"Sangrur","district_code":"053","address1":"Dhuri","address2":"","latitude":"30.4875","longitude":"75.698","accuracy":"4"},{"address3":"Ram Nagar Chhana","state":"Punjab","state_code":"23","district":"Sangrur","district_code":"053","address1":"Dhuri","address2":"","latitude":"30.4428","longitude":"75.7041","accuracy":"3"},{"address3":"Herike","state":"Punjab","state_code":"23","district":"Sangrur","district_code":"053","address1":"Dhuri","address2":"","latitude":"30.3944","longitude":"75.7105","accuracy":"4"},{"address3":"Kheri Chehlan","state":"Punjab","state_code":"23","district":"Sangrur","district_code":"053","address1":"Dhuri","address2":"","latitude":"30.4428","longitude":"75.7041","accuracy":"3"},{"address3":"Katron","state":"Punjab","state_code":"23","district":"Sangrur","district_code":"053","address1":"Dhuri","address2":"","latitude":"30.4486","longitude":"75.7484","accuracy":"4"},{"address3":"Sherpur","state":"Punjab","state_code":"23","district":"Sangrur","district_code":"053","address1":"Dhuri","address2":"","latitude":"30.4406","longitude":"75.7066","accuracy":"4"},{"address3":"Bajwa","state":"Punjab","state_code":"23","district":"Sangrur","district_code":"053","address1":"Dhuri","address2":"","latitude":"30.4152","longitude":"75.6944","accuracy":"4"},{"address3":"Changli","state":"Punjab","state_code":"23","district":"Sangrur","district_code":"053","address1":"Dhuri","address2":"","latitude":"30.4458","longitude":"75.7632","accuracy":"4"},{"address3":"Guram","state":"Punjab","state_code":"23","district":"Barnala","district_code":"054","address1":"Barnala","address2":"","latitude":"30.4428","longitude":"75.7041","accuracy":"3"},{"address3":"Hamidi","state":"Punjab","state_code":"23","district":"Barnala","district_code":"054","address1":"Barnala","address2":"","latitude":"30.4675","longitude":"75.6078","accuracy":"4"},{"address3":"Thuliwal","state":"Punjab","state_code":"23","district":"Barnala","district_code":"054","address1":"Barnala","address2":"","latitude":"30.4428","longitude":"75.7041","accuracy":"3"}],"148026":[{"address3":"Bhawanigarh","state":"Punjab","state_code":"23","district":"Sangrur","district_code":"053","address1":"NA","address2":"","latitude":"30.2668","longitude":"76.0385","accuracy":"4"},{"address3":"Kalajhar","state":"Punjab","state_code":"23","district":"Sangrur","district_code":"053","address1":"Sangrur","address2":"","latitude":"30.2339","longitude":"76.023","accuracy":"3"},{"address3":"Majhi","state":"Punjab","state_code":"23","district":"Sangrur","district_code":"053","address1":"Sangrur","address2":"","latitude":"30.2339","longitude":"76.023","accuracy":"3"},{"address3":"Ghanaur Jattan","state":"Punjab","state_code":"23","district":"Sangrur","district_code":"053","address1":"Sunam","address2":"","latitude":"30.1748","longitude":"76.0209","accuracy":"4"},{"address3":"Nadampur","state":"Punjab","state_code":"23","district":"Sangrur","district_code":"053","address1":"Sangrur","address2":"","latitude":"30.253","longitude":"76.1178","accuracy":"4"},{"address3":"Sakraudi","state":"Punjab","state_code":"23","district":"Sangrur","district_code":"053","address1":"Sangrur","address2":"","latitude":"30.3151","longitude":"76.0126","accuracy":"4"},{"address3":"Balial","state":"Punjab","state_code":"23","district":"Sangrur","district_code":"053","address1":"Sangrur","address2":"","latitude":"30.2339","longitude":"76.023","accuracy":"3"},{"address3":"Kakra","state":"Punjab","state_code":"23","district":"Sangrur","district_code":"053","address1":"Sangrur","address2":"","latitude":"30.2874","longitude":"76.0296","accuracy":"4"},{"address3":"Channo","state":"Punjab","state_code":"23","district":"Sangrur","district_code":"053","address1":"Sangrur","address2":"","latitude":"30.2339","longitude":"76.023","accuracy":"3"},{"address3":"Gharachon","state":"Punjab","state_code":"23","district":"Sangrur","district_code":"053","address1":"Sangrur","address2":"","latitude":"30.2147","longitude":"75.9633","accuracy":"4"},{"address3":"Bhattiwal Kalan","state":"Punjab","state_code":"23","district":"Sangrur","district_code":"053","address1":"Sangrur","address2":"","latitude":"30.2339","longitude":"76.023","accuracy":"3"},{"address3":"Kapial","state":"Punjab","state_code":"23","district":"Sangrur","district_code":"053","address1":"Sangrur","address2":"","latitude":"30.1947","longitude":"76.0114","accuracy":"4"},{"address3":"Bharo","state":"Punjab","state_code":"23","district":"Sangrur","district_code":"053","address1":"Sangrur","address2":"","latitude":"30.2339","longitude":"76.023","accuracy":"3"},{"address3":"Balad Kalan","state":"Punjab","state_code":"23","district":"Sangrur","district_code":"053","address1":"Sangrur","address2":"","latitude":"30.2572","longitude":"76.0857","accuracy":"4"},{"address3":"Alloarakh","state":"Punjab","state_code":"23","district":"Sangrur","district_code":"053","address1":"Sangrur","address2":"","latitude":"30.2339","longitude":"76.023","accuracy":"3"},{"address3":"Batriana","state":"Punjab","state_code":"23","district":"Sangrur","district_code":"053","address1":"Sangrur","address2":"","latitude":"30.2028","longitude":"75.9934","accuracy":"4"},{"address3":"Nagra","state":"Punjab","state_code":"23","district":"Sangrur","district_code":"053","address1":"Sangrur","address2":"","latitude":"30.1722","longitude":"75.9569","accuracy":"4"}],"148027":[{"address3":"Mandvi","state":"Punjab","state_code":"23","district":"Sangrur","district_code":"053","address1":"Moonak","address2":"","latitude":"29.8027","longitude":"76.042","accuracy":"3"},{"address3":"Gulhari","state":"Punjab","state_code":"23","district":"Sangrur","district_code":"053","address1":"Moonak","address2":"","latitude":"29.8027","longitude":"76.042","accuracy":"3"},{"address3":"Banarsi","state":"Punjab","state_code":"23","district":"Sangrur","district_code":"053","address1":"Moonak","address2":"","latitude":"29.8315","longitude":"76.0815","accuracy":"4"},{"address3":"Pakki Khanauri","state":"Punjab","state_code":"23","district":"Sangrur","district_code":"053","address1":"NA","address2":"","latitude":"29.8027","longitude":"76.042","accuracy":"3"},{"address3":"Andana","state":"Punjab","state_code":"23","district":"Sangrur","district_code":"053","address1":"Moonak","address2":"","latitude":"29.8123","longitude":"76.0372","accuracy":"4"},{"address3":"Bhulan","state":"Punjab","state_code":"23","district":"Sangrur","district_code":"053","address1":"Moonak","address2":"","latitude":"29.7642","longitude":"76.0074","accuracy":"4"}],"148028":[{"address3":"Dharamgarh","state":"Punjab","state_code":"23","district":"Sangrur","district_code":"053","address1":"Sunam","address2":"","latitude":"30.2135","longitude":"75.8686","accuracy":"4"},{"address3":"Chathe Roti Ram","state":"Punjab","state_code":"23","district":"Sangrur","district_code":"053","address1":"Sunam","address2":"","latitude":"30.2443","longitude":"75.8737","accuracy":"3"},{"address3":"Nilowal","state":"Punjab","state_code":"23","district":"Sangrur","district_code":"053","address1":"Sunam","address2":"","latitude":"30.2135","longitude":"75.8686","accuracy":"4"},{"address3":"Sunam City","state":"Punjab","state_code":"23","district":"Sangrur","district_code":"053","address1":"Sunam","address2":"","latitude":"30.2443","longitude":"75.8737","accuracy":"3"},{"address3":"Kotra Amru","state":"Punjab","state_code":"23","district":"Sangrur","district_code":"053","address1":"Sunam","address2":"","latitude":"30.0996","longitude":"75.7294","accuracy":"4"},{"address3":"Khadial","state":"Punjab","state_code":"23","district":"Sangrur","district_code":"053","address1":"Sunam","address2":"","latitude":"30.2443","longitude":"75.8737","accuracy":"3"},{"address3":"Sunam","state":"Punjab","state_code":"23","district":"Sangrur","district_code":"053","address1":"Sunam","address2":"","latitude":"30.1288","longitude":"75.7994","accuracy":"4"},{"address3":"Bakshiwala","state":"Punjab","state_code":"23","district":"Sangrur","district_code":"053","address1":"Sunam","address2":"","latitude":"30.2443","longitude":"75.8737","accuracy":"3"},{"address3":"Jakhepal","state":"Punjab","state_code":"23","district":"Sangrur","district_code":"053","address1":"Sunam","address2":"","latitude":"30.0616","longitude":"75.7288","accuracy":"4"},{"address3":"Kanakwal Bhanguan","state":"Punjab","state_code":"23","district":"Sangrur","district_code":"053","address1":"Sunam","address2":"","latitude":"30.0195","longitude":"75.706","accuracy":"4"}],"148029":[{"address3":"Jharon","state":"Punjab","state_code":"23","district":"Sangrur","district_code":"053","address1":"Sunam","address2":"","latitude":"30.1321","longitude":"75.6484","accuracy":"4"},{"address3":"Cheema","state":"Punjab","state_code":"23","district":"Sangrur","district_code":"053","address1":"Sangrur","address2":"","latitude":"30.2155","longitude":"75.9047","accuracy":"3"},{"address3":"Shahpur ","state":"Punjab","state_code":"23","district":"Sangrur","district_code":"053","address1":"Sunam","address2":"","latitude":"30.2989","longitude":"76.1611","accuracy":"4"}],"148030":[{"address3":"Nangla","state":"Punjab","state_code":"23","district":"Sangrur","district_code":"053","address1":"Sunam","address2":"","latitude":"30.0428","longitude":"75.7978","accuracy":"3"},{"address3":"Ugrahan","state":"Punjab","state_code":"23","district":"Sangrur","district_code":"053","address1":"Sunam","address2":"","latitude":"30.0507","longitude":"75.7675","accuracy":"4"},{"address3":"Mojowal","state":"Punjab","state_code":"23","district":"Sangrur","district_code":"053","address1":"Sunam","address2":"","latitude":"30.0428","longitude":"75.7978","accuracy":"3"},{"address3":"Lad Banjara","state":"Punjab","state_code":"23","district":"Sangrur","district_code":"053","address1":"Sunam","address2":"","latitude":"30.0428","longitude":"75.7978","accuracy":"3"},{"address3":"Kauhrian","state":"Punjab","state_code":"23","district":"Sangrur","district_code":"053","address1":"Sunam","address2":"","latitude":"30.0428","longitude":"75.7978","accuracy":"3"},{"address3":"Chhajli","state":"Punjab","state_code":"23","district":"Sangrur","district_code":"053","address1":"Sunam","address2":"","latitude":"30.0348","longitude":"75.828","accuracy":"4"},{"address3":"Bhai Ke Pishore","state":"Punjab","state_code":"23","district":"Sangrur","district_code":"053","address1":"Moonak","address2":"","latitude":"30.0428","longitude":"75.7978","accuracy":"3"},{"address3":"Ganduan","state":"Punjab","state_code":"23","district":"Sangrur","district_code":"053","address1":"Sunam","address2":"","latitude":"30.0428","longitude":"75.7978","accuracy":"3"},{"address3":"Gobindgarh Khokhar","state":"Punjab","state_code":"23","district":"Sangrur","district_code":"053","address1":"Chhajli","address2":"","latitude":"30.0428","longitude":"75.7978","accuracy":"3"}],"148031":[{"address3":"Haryau","state":"Punjab","state_code":"23","district":"Sangrur","district_code":"053","address1":"Sunam","address2":"","latitude":"29.8964","longitude":"75.7331","accuracy":"3"},{"address3":"Lehragaga","state":"Punjab","state_code":"23","district":"Sangrur","district_code":"053","address1":"NA","address2":"","latitude":"29.8964","longitude":"75.7331","accuracy":"3"},{"address3":"Bakhora Kalan","state":"Punjab","state_code":"23","district":"Sangrur","district_code":"053","address1":"Moonak","address2":"","latitude":"29.8964","longitude":"75.7331","accuracy":"3"},{"address3":"Ghorenab","state":"Punjab","state_code":"23","district":"Sangrur","district_code":"053","address1":"Moonak","address2":"","latitude":"29.8964","longitude":"75.7331","accuracy":"3"},{"address3":"Chotian","state":"Punjab","state_code":"23","district":"Sangrur","district_code":"053","address1":"Moonak","address2":"","latitude":"29.8459","longitude":"75.7904","accuracy":"4"},{"address3":"Bhutal Kalan","state":"Punjab","state_code":"23","district":"Sangrur","district_code":"053","address1":"Moonak","address2":"","latitude":"29.8964","longitude":"75.7331","accuracy":"3"},{"address3":"Gaga Road","state":"Punjab","state_code":"23","district":"Sangrur","district_code":"053","address1":"Lehragaga","address2":"","latitude":"29.8964","longitude":"75.7331","accuracy":"3"},{"address3":"Sangatpura","state":"Punjab","state_code":"23","district":"Sangrur","district_code":"053","address1":"Sunam","address2":"","latitude":"29.8964","longitude":"75.7331","accuracy":"3"},{"address3":"Daska","state":"Punjab","state_code":"23","district":"Sangrur","district_code":"053","address1":"Sunam","address2":"","latitude":"29.9469","longitude":"75.6758","accuracy":"4"},{"address3":"Phalera","state":"Punjab","state_code":"23","district":"Sangrur","district_code":"053","address1":"Sunam","address2":"","latitude":"29.8964","longitude":"75.7331","accuracy":"3"},{"address3":"Gobind Jawahar Ke","state":"Punjab","state_code":"23","district":"Sangrur","district_code":"053","address1":"Moonak","address2":"","latitude":"29.8964","longitude":"75.7331","accuracy":"3"},{"address3":"Gidrani","state":"Punjab","state_code":"23","district":"Sangrur","district_code":"053","address1":"Sunam","address2":"","latitude":"29.8964","longitude":"75.7331","accuracy":"3"}],"148033":[{"address3":"Dhindsa","state":"Punjab","state_code":"23","district":"Sangrur","district_code":"053","address1":"Moonak","address2":"","latitude":"30.2135","longitude":"75.8686","accuracy":"4"},{"address3":"Hamirgarh","state":"Punjab","state_code":"23","district":"Sangrur","district_code":"053","address1":"Moonak","address2":"","latitude":"30.2135","longitude":"75.8686","accuracy":"4"},{"address3":"Lehal Kalan","state":"Punjab","state_code":"23","district":"Sangrur","district_code":"053","address1":"Moonak","address2":"","latitude":"30.1234","longitude":"75.8238","accuracy":"3"},{"address3":"Shadihari","state":"Punjab","state_code":"23","district":"Sangrur","district_code":"053","address1":"Sunam","address2":"","latitude":"30.1234","longitude":"75.8238","accuracy":"3"},{"address3":"Balran","state":"Punjab","state_code":"23","district":"Sangrur","district_code":"053","address1":"Sunam","address2":"","latitude":"29.842","longitude":"75.8487","accuracy":"4"},{"address3":"Chural Kalan","state":"Punjab","state_code":"23","district":"Sangrur","district_code":"053","address1":"Moonak","address2":"","latitude":"30.1234","longitude":"75.8238","accuracy":"3"},{"address3":"Maniana","state":"Punjab","state_code":"23","district":"Sangrur","district_code":"053","address1":"Moonak","address2":"","latitude":"29.7469","longitude":"75.9261","accuracy":"4"},{"address3":"Bangan","state":"Punjab","state_code":"23","district":"Sangrur","district_code":"053","address1":"Moonak","address2":"","latitude":"30.1234","longitude":"75.8238","accuracy":"3"},{"address3":"Moonak","state":"Punjab","state_code":"23","district":"Sangrur","district_code":"053","address1":"Moonak","address2":"","latitude":"29.8253","longitude":"75.8906","accuracy":"4"},{"address3":"Makorar Sahib","state":"Punjab","state_code":"23","district":"Sangrur","district_code":"053","address1":"Moonak","address2":"","latitude":"30.1234","longitude":"75.8238","accuracy":"3"},{"address3":"Rampur Gujran","state":"Punjab","state_code":"23","district":"Sangrur","district_code":"053","address1":"Sunam","address2":"","latitude":"30.0468","longitude":"76.003","accuracy":"4"},{"address3":"Dudian","state":"Punjab","state_code":"23","district":"Sangrur","district_code":"053","address1":"Moonak","address2":"","latitude":"30.1234","longitude":"75.8238","accuracy":"3"},{"address3":"Raidharana","state":"Punjab","state_code":"23","district":"Sangrur","district_code":"053","address1":"Moonak","address2":"","latitude":"30.1234","longitude":"75.8238","accuracy":"3"},{"address3":"Nawangaon","state":"Punjab","state_code":"23","district":"Sangrur","district_code":"053","address1":"Moonak","address2":"","latitude":"30.1234","longitude":"75.8238","accuracy":"3"},{"address3":"Dehla","state":"Punjab","state_code":"23","district":"Sangrur","district_code":"053","address1":"Moonak","address2":"","latitude":"30.1234","longitude":"75.8238","accuracy":"3"}],"148034":[{"address3":"Ladda","state":"Punjab","state_code":"23","district":"Sangrur","district_code":"053","address1":"Dhuri","address2":"","latitude":"30.3166","longitude":"75.8248","accuracy":"4"},{"address3":"Benra","state":"Punjab","state_code":"23","district":"Sangrur","district_code":"053","address1":"Dhuri","address2":"","latitude":"30.4297","longitude":"75.9985","accuracy":"3"},{"address3":"Kila Hakima","state":"Punjab","state_code":"23","district":"Sangrur","district_code":"053","address1":"Dhuri","address2":"","latitude":"30.4297","longitude":"75.9985","accuracy":"3"},{"address3":"Saron","state":"Punjab","state_code":"23","district":"Sangrur","district_code":"053","address1":"Sangrur","address2":"","latitude":"30.3178","longitude":"75.8934","accuracy":"4"},{"address3":"Punnewal","state":"Punjab","state_code":"23","district":"Sangrur","district_code":"053","address1":"Dhuri","address2":"","latitude":"30.4297","longitude":"75.9985","accuracy":"3"},{"address3":"Changal","state":"Punjab","state_code":"23","district":"Sangrur","district_code":"053","address1":"Sangrur","address2":"","latitude":"30.2863","longitude":"75.7938","accuracy":"4"},{"address3":"Hassanpur","state":"Punjab","state_code":"23","district":"Sangrur","district_code":"053","address1":"Ladda","address2":"","latitude":"30.4297","longitude":"75.9985","accuracy":"3"},{"address3":"Kanjla","state":"Punjab","state_code":"23","district":"Sangrur","district_code":"053","address1":"Dhuri","address2":"","latitude":"30.2135","longitude":"75.8686","accuracy":"4"},{"address3":"Mandi Bhadur Singh Wala","state":"Punjab","state_code":"23","district":"Sangrur","district_code":"053","address1":"NA","address2":"","latitude":"30.4297","longitude":"75.9985","accuracy":"3"}],"148035":[{"address3":"Janal","state":"Punjab","state_code":"23","district":"Sangrur","district_code":"053","address1":"Sunam","address2":"","latitude":"30.0706","longitude":"75.9505","accuracy":"4"},{"address3":"Mauran","state":"Punjab","state_code":"23","district":"Sangrur","district_code":"053","address1":"Sunam","address2":"","latitude":"30.2135","longitude":"75.8686","accuracy":"4"},{"address3":"Khetla","state":"Punjab","state_code":"23","district":"Sangrur","district_code":"053","address1":"Sunam","address2":"","latitude":"30.0296","longitude":"76.0092","accuracy":"4"},{"address3":"Kadial","state":"Punjab","state_code":"23","district":"Sangrur","district_code":"053","address1":"Sunam","address2":"","latitude":"30.1034","longitude":"75.928","accuracy":"3"},{"address3":"Kamalpur","state":"Punjab","state_code":"23","district":"Sangrur","district_code":"053","address1":"Sunam","address2":"","latitude":"30.1119","longitude":"76.048","accuracy":"4"},{"address3":"Sulargharat","state":"Punjab","state_code":"23","district":"Sangrur","district_code":"053","address1":"NA","address2":"","latitude":"30.1034","longitude":"75.928","accuracy":"3"},{"address3":"Dirba","state":"Punjab","state_code":"23","district":"Sangrur","district_code":"053","address1":"NA","address2":"","latitude":"30.0722","longitude":"75.9961","accuracy":"4"},{"address3":"Chhahar","state":"Punjab","state_code":"23","district":"Sangrur","district_code":"053","address1":"Sunam","address2":"","latitude":"30.0313","longitude":"75.9091","accuracy":"4"},{"address3":"Samuran","state":"Punjab","state_code":"23","district":"Sangrur","district_code":"053","address1":"Sangrur","address2":"","latitude":"30.0829","longitude":"76.0454","accuracy":"4"},{"address3":"Gujran","state":"Punjab","state_code":"23","district":"Sangrur","district_code":"053","address1":"Sunam","address2":"","latitude":"30.1235","longitude":"75.9741","accuracy":"4"},{"address3":"Khanal Kalan","state":"Punjab","state_code":"23","district":"Sangrur","district_code":"053","address1":"Sunam","address2":"","latitude":"30.1203","longitude":"76.0117","accuracy":"4"},{"address3":"Rogla","state":"Punjab","state_code":"23","district":"Sangrur","district_code":"053","address1":"Sunam","address2":"","latitude":"30.0214","longitude":"75.9514","accuracy":"4"}],"148100":[{"address3":"Chhiniwal Khurd","state":"Punjab","state_code":"23","district":"Barnala","district_code":"054","address1":"Barnala","address2":"","latitude":"30.5794","longitude":"75.4483","accuracy":"4"},{"address3":"Ramgarh","state":"Punjab","state_code":"23","district":"Barnala","district_code":"054","address1":"Barnala","address2":"","latitude":"30.5148","longitude":"75.3905","accuracy":"4"},{"address3":"Bakhatgarh","state":"Punjab","state_code":"23","district":"Barnala","district_code":"054","address1":"Barnala","address2":"","latitude":"30.5471","longitude":"75.4194","accuracy":"3"},{"address3":"Tallewal","state":"Punjab","state_code":"23","district":"Barnala","district_code":"054","address1":"Barnala","address2":"","latitude":"30.5471","longitude":"75.4194","accuracy":"3"},{"address3":"Dewana","state":"Punjab","state_code":"23","district":"Barnala","district_code":"054","address1":"Barnala","address2":"","latitude":"30.5471","longitude":"75.4194","accuracy":"3"},{"address3":"Bihla","state":"Punjab","state_code":"23","district":"Barnala","district_code":"054","address1":"Barnala","address2":"","latitude":"30.5471","longitude":"75.4194","accuracy":"3"},{"address3":"Moom","state":"Punjab","state_code":"23","district":"Barnala","district_code":"054","address1":"Barnala","address2":"","latitude":"30.5471","longitude":"75.4194","accuracy":"3"},{"address3":"Sher Singh Pura","state":"Punjab","state_code":"23","district":"Barnala","district_code":"054","address1":"NA","address2":"","latitude":"30.5471","longitude":"75.4194","accuracy":"3"},{"address3":"Gehal","state":"Punjab","state_code":"23","district":"Barnala","district_code":"054","address1":"Barnala","address2":"","latitude":"30.5471","longitude":"75.4194","accuracy":"3"},{"address3":"Bhotna","state":"Punjab","state_code":"23","district":"Barnala","district_code":"054","address1":"Barnala","address2":"","latitude":"30.5471","longitude":"75.4194","accuracy":"3"}],"148101":[{"address3":"Thikriwala","state":"Punjab","state_code":"23","district":"Barnala","district_code":"054","address1":"Barnala","address2":"","latitude":"30.4333","longitude":"75.5273","accuracy":"4"},{"address3":"Barnala","state":"Punjab","state_code":"23","district":"Barnala","district_code":"054","address1":"Barnala","address2":"","latitude":"30.3745","longitude":"75.5487","accuracy":"4"},{"address3":"Pharwahi","state":"Punjab","state_code":"23","district":"Barnala","district_code":"054","address1":"Barnala","address2":"","latitude":"30.428","longitude":"75.5239","accuracy":"3"},{"address3":"Raisar","state":"Punjab","state_code":"23","district":"Barnala","district_code":"054","address1":"Barnala","address2":"","latitude":"30.476","longitude":"75.4957","accuracy":"4"},{"address3":"Ncc Barnala","state":"Punjab","state_code":"23","district":"Barnala","district_code":"054","address1":"Barnala","address2":"","latitude":"30.428","longitude":"75.5239","accuracy":"3"},{"address3":"Barnala Kty","state":"Punjab","state_code":"23","district":"Barnala","district_code":"054","address1":"Barnala","address2":"","latitude":"30.428","longitude":"75.5239","accuracy":"3"}],"148102":[{"address3":"Bhadaur (Sangrur)","state":"Punjab","state_code":"23","district":"Sangrur","district_code":"053","address1":"NA","address2":"","latitude":"30.4945","longitude":"75.2978","accuracy":"3"},{"address3":"Talwandi","state":"Punjab","state_code":"23","district":"Barnala","district_code":"054","address1":"Barnala","address2":"","latitude":"30.5192","longitude":"75.3181","accuracy":"4"},{"address3":"Jangiana","state":"Punjab","state_code":"23","district":"Barnala","district_code":"054","address1":"Barnala","address2":"","latitude":"30.4698","longitude":"75.2775","accuracy":"4"},{"address3":"Sandhu Kalan","state":"Punjab","state_code":"23","district":"Barnala","district_code":"054","address1":"Barnala","address2":"","latitude":"30.4945","longitude":"75.2978","accuracy":"3"},{"address3":"Nainewal","state":"Punjab","state_code":"23","district":"Barnala","district_code":"054","address1":"Barnala","address2":"","latitude":"30.4945","longitude":"75.2978","accuracy":"3"}],"148103":[{"address3":"Jodhpur","state":"Punjab","state_code":"23","district":"Barnala","district_code":"054","address1":"Barnala","address2":"","latitude":"30.3799","longitude":"75.4556","accuracy":"4"},{"address3":"Cheema","state":"Punjab","state_code":"23","district":"Barnala","district_code":"054","address1":"NA","address2":"","latitude":"30.4018","longitude":"75.4441","accuracy":"3"},{"address3":"Shaina","state":"Punjab","state_code":"23","district":"Barnala","district_code":"054","address1":"Barnala","address2":"","latitude":"30.4018","longitude":"75.4441","accuracy":"3"},{"address3":"Pakhoke","state":"Punjab","state_code":"23","district":"Barnala","district_code":"054","address1":"Barnala","address2":"","latitude":"30.4238","longitude":"75.4326","accuracy":"4"}],"148104":[{"address3":"Chhapa","state":"Punjab","state_code":"23","district":"Barnala","district_code":"054","address1":"Barnala","address2":"","latitude":"30.3972","longitude":"75.5048","accuracy":"4"},{"address3":"Qutba","state":"Punjab","state_code":"23","district":"Barnala","district_code":"054","address1":"Barnala","address2":"","latitude":"30.5786","longitude":"75.6268","accuracy":"4"},{"address3":"Kalalmajra","state":"Punjab","state_code":"23","district":"Barnala","district_code":"054","address1":"Barnala","address2":"","latitude":"31.0358","longitude":"75.1823","accuracy":"3"},{"address3":"Kurar","state":"Punjab","state_code":"23","district":"Barnala","district_code":"054","address1":"Barnala","address2":"","latitude":"31.0358","longitude":"75.1823","accuracy":"3"},{"address3":"Chananwal","state":"Punjab","state_code":"23","district":"Barnala","district_code":"054","address1":"Barnala","address2":"","latitude":"31.0358","longitude":"75.1823","accuracy":"3"},{"address3":"Gangohar","state":"Punjab","state_code":"23","district":"Barnala","district_code":"054","address1":"Barnala","address2":"","latitude":"31.0358","longitude":"75.1823","accuracy":"3"},{"address3":"Chhiniwal Kalan","state":"Punjab","state_code":"23","district":"Barnala","district_code":"054","address1":"Barnala","address2":"","latitude":"31.0358","longitude":"75.1823","accuracy":"3"},{"address3":"Nihaluwal","state":"Punjab","state_code":"23","district":"Barnala","district_code":"054","address1":"Barnala","address2":"","latitude":"31.0358","longitude":"75.1823","accuracy":"3"},{"address3":"Mehal Kalan","state":"Punjab","state_code":"23","district":"Barnala","district_code":"054","address1":"Barnala","address2":"","latitude":"31.0358","longitude":"75.1823","accuracy":"3"}],"148105":[{"address3":"Attar Singh Wala","state":"Punjab","state_code":"23","district":"Barnala","district_code":"054","address1":"Barnala","address2":"","latitude":"30.6201","longitude":"75.5633","accuracy":"3"},{"address3":"Pandher","state":"Punjab","state_code":"23","district":"Barnala","district_code":"054","address1":"Barnala","address2":"","latitude":"30.3972","longitude":"75.5048","accuracy":"4"},{"address3":"Bhathlan","state":"Punjab","state_code":"23","district":"Barnala","district_code":"054","address1":"Barnala","address2":"","latitude":"30.6201","longitude":"75.5633","accuracy":"3"},{"address3":"Dangarh","state":"Punjab","state_code":"23","district":"Barnala","district_code":"054","address1":"Barnala","address2":"","latitude":"30.6201","longitude":"75.5633","accuracy":"3"},{"address3":"Kattu","state":"Punjab","state_code":"23","district":"Barnala","district_code":"054","address1":"Barnala","address2":"","latitude":"30.3093","longitude":"75.6333","accuracy":"4"},{"address3":"Kotduna","state":"Punjab","state_code":"23","district":"Barnala","district_code":"054","address1":"Barnala","address2":"","latitude":"30.6201","longitude":"75.5633","accuracy":"3"},{"address3":"Dhanaula","state":"Punjab","state_code":"23","district":"Barnala","district_code":"054","address1":"Barnala","address2":"","latitude":"30.2822","longitude":"75.5734","accuracy":"4"},{"address3":"Bhaini Jassan","state":"Punjab","state_code":"23","district":"Barnala","district_code":"054","address1":"Barnala","address2":"","latitude":"30.6201","longitude":"75.5633","accuracy":"3"},{"address3":"Kaleke","state":"Punjab","state_code":"23","district":"Barnala","district_code":"054","address1":"Barnala","address2":"","latitude":"30.2368","longitude":"75.5409","accuracy":"4"},{"address3":"Harigarh","state":"Punjab","state_code":"23","district":"Barnala","district_code":"054","address1":"Barnala","address2":"","latitude":"30.2662","longitude":"75.6353","accuracy":"4"}],"148106":[{"address3":"Sahoke","state":"Punjab","state_code":"23","district":"Sangrur","district_code":"053","address1":"Sangrur","address2":"","latitude":"30.2084","longitude":"75.6891","accuracy":"3"},{"address3":"Balian","state":"Punjab","state_code":"23","district":"Sangrur","district_code":"053","address1":"Sangrur","address2":"","latitude":"30.2797","longitude":"75.8997","accuracy":"4"},{"address3":"Longowal","state":"Punjab","state_code":"23","district":"Sangrur","district_code":"053","address1":"NA","address2":"","latitude":"30.1985","longitude":"75.6819","accuracy":"4"},{"address3":"Namol","state":"Punjab","state_code":"23","district":"Sangrur","district_code":"053","address1":"Sunam","address2":"","latitude":"30.2084","longitude":"75.6891","accuracy":"3"},{"address3":"Mander Kalan","state":"Punjab","state_code":"23","district":"Sangrur","district_code":"053","address1":"Sangrur","address2":"","latitude":"30.1796","longitude":"75.6398","accuracy":"4"},{"address3":"Sliet Longowal","state":"Punjab","state_code":"23","district":"Sangrur","district_code":"053","address1":"NA","address2":"","latitude":"30.2084","longitude":"75.6891","accuracy":"3"},{"address3":"Sheron","state":"Punjab","state_code":"23","district":"Sangrur","district_code":"053","address1":"Sunam","address2":"","latitude":"30.1582","longitude":"75.7178","accuracy":"4"},{"address3":"Loha Khera","state":"Punjab","state_code":"23","district":"Sangrur","district_code":"053","address1":"Sangrur","address2":"","latitude":"30.2169","longitude":"75.6294","accuracy":"4"},{"address3":"Dhadrian","state":"Punjab","state_code":"23","district":"Sangrur","district_code":"053","address1":"Sangrur","address2":"","latitude":"30.1709","longitude":"75.5901","accuracy":"4"},{"address3":"Badbar","state":"Punjab","state_code":"23","district":"Barnala","district_code":"054","address1":"Barnala","address2":"","latitude":"30.2548","longitude":"75.665","accuracy":"4"},{"address3":"Bhani Mehraj","state":"Punjab","state_code":"23","district":"Barnala","district_code":"054","address1":"Barnala","address2":"","latitude":"30.2084","longitude":"75.6891","accuracy":"3"}],"148107":[{"address3":"Rure Ke Kalan","state":"Punjab","state_code":"23","district":"Ludhiana","district_code":"041","address1":"NA","address2":"","latitude":"30.2856","longitude":"75.4602","accuracy":"3"},{"address3":"Handiaya","state":"Punjab","state_code":"23","district":"Ludhiana","district_code":"041","address1":"Ludhiana (East)","address2":"","latitude":"30.2856","longitude":"75.4602","accuracy":"3"},{"address3":"Kahne Ke","state":"Punjab","state_code":"23","district":"Barnala","district_code":"054","address1":"Barnala","address2":"","latitude":"30.2856","longitude":"75.4602","accuracy":"3"},{"address3":"Dhaula","state":"Punjab","state_code":"23","district":"Barnala","district_code":"054","address1":"Barnala","address2":"","latitude":"30.2856","longitude":"75.4602","accuracy":"4"},{"address3":"Dhurkot","state":"Punjab","state_code":"23","district":"Barnala","district_code":"054","address1":"Barnala","address2":"","latitude":"30.2856","longitude":"75.4602","accuracy":"3"},{"address3":"Khudi  Kalan","state":"Punjab","state_code":"23","district":"Barnala","district_code":"054","address1":"Barnala","address2":"","latitude":"30.2856","longitude":"75.4602","accuracy":"3"}],"148108":[{"address3":"Tapa","state":"Punjab","state_code":"23","district":"Sangrur","district_code":"053","address1":"NA","address2":"","latitude":"30.2135","longitude":"75.8686","accuracy":"4"},{"address3":"Sukhpura Maur","state":"Punjab","state_code":"23","district":"Sangrur","district_code":"053","address1":"NA","address2":"","latitude":"30.33","longitude":"75.3877","accuracy":"3"},{"address3":"Mauran","state":"Punjab","state_code":"23","district":"Barnala","district_code":"054","address1":"Barnala","address2":"","latitude":"30.37","longitude":"75.3842","accuracy":"4"},{"address3":"Tajoke","state":"Punjab","state_code":"23","district":"Barnala","district_code":"054","address1":"Barnala","address2":"","latitude":"30.2588","longitude":"75.3759","accuracy":"4"},{"address3":"Daraj","state":"Punjab","state_code":"23","district":"Barnala","district_code":"054","address1":"Barnala","address2":"","latitude":"30.33","longitude":"75.3877","accuracy":"3"},{"address3":"Ugoke","state":"Punjab","state_code":"23","district":"Barnala","district_code":"054","address1":"Barnala","address2":"","latitude":"30.3803","longitude":"75.4228","accuracy":"4"},{"address3":"Dhilwan","state":"Punjab","state_code":"23","district":"Barnala","district_code":"054","address1":"Barnala","address2":"","latitude":"30.3429","longitude":"75.3861","accuracy":"4"},{"address3":"Ghunas","state":"Punjab","state_code":"23","district":"Barnala","district_code":"054","address1":"Barnala","address2":"","latitude":"30.33","longitude":"75.3877","accuracy":"3"},{"address3":"Pakho Kalan","state":"Punjab","state_code":"23","district":"Barnala","district_code":"054","address1":"Barnala","address2":"","latitude":"30.33","longitude":"75.3877","accuracy":"3"}],"148109":[{"address3":"Karamgarh","state":"Punjab","state_code":"23","district":"Barnala","district_code":"054","address1":"Barnala","address2":"","latitude":"30.4147","longitude":"75.6104","accuracy":"4"},{"address3":"Nangal Thulewal","state":"Punjab","state_code":"23","district":"Barnala","district_code":"054","address1":"Barnala","address2":"","latitude":"30.4078","longitude":"75.5864","accuracy":"3"},{"address3":"Sanghera","state":"Punjab","state_code":"23","district":"Barnala","district_code":"054","address1":"Barnala","address2":"","latitude":"30.4008","longitude":"75.5624","accuracy":"4"},{"address3":"Chauhan Ke Kalan","state":"Punjab","state_code":"23","district":"Barnala","district_code":"054","address1":"Barnala","address2":"","latitude":"30.4078","longitude":"75.5864","accuracy":"3"},{"address3":"Sehjra","state":"Punjab","state_code":"23","district":"Barnala","district_code":"054","address1":"Barnala","address2":"","latitude":"30.4078","longitude":"75.5864","accuracy":"3"},{"address3":"Wazid Ke Khurd","state":"Punjab","state_code":"23","district":"Barnala","district_code":"054","address1":"Barnala","address2":"","latitude":"30.4078","longitude":"75.5864","accuracy":"3"},{"address3":"Bhadalwad","state":"Punjab","state_code":"23","district":"Barnala","district_code":"054","address1":"Barnala","address2":"","latitude":"30.4078","longitude":"75.5864","accuracy":"3"}],"credits":[{"name":"geonames","url":"https://www.geonames.org"}],"last_update":"2019-03-01T09:01:34.023Z"}