{"171001":[{"address3":"Combermere","state":"Himachal Pradesh","state_code":"11","district":"Shimla","district_code":"033","address1":"Shimla Urban(T)","address2":"","latitude":"31.1167","longitude":"77.1684","accuracy":"1"},{"address3":"IGMC","state":"Himachal Pradesh","state_code":"11","district":"Shimla","district_code":"033","address1":"Shimla Urban(T)","address2":"","latitude":"31.1167","longitude":"77.1684","accuracy":"1"},{"address3":"Busstand","state":"Himachal Pradesh","state_code":"11","district":"Shimla","district_code":"033","address1":"Shimla Urban(T)","address2":"","latitude":"31.1167","longitude":"77.1684","accuracy":"1"},{"address3":"Shimla G.P.O.","state":"Himachal Pradesh","state_code":"11","district":"Shimla","district_code":"033","address1":"Shimla Urban(T)","address2":"","latitude":"31.1167","longitude":"77.1684","accuracy":"1"},{"address3":"Shimla High Court","state":"Himachal Pradesh","state_code":"11","district":"Shimla","district_code":"033","address1":"Shimla Urban(T)","address2":"","latitude":"31.1167","longitude":"77.1684","accuracy":"1"},{"address3":"CPRI","state":"Himachal Pradesh","state_code":"11","district":"Shimla","district_code":"033","address1":"Shimla Urban(T)","address2":"","latitude":"31.1167","longitude":"77.1684","accuracy":"1"}],"171002":[{"address3":"HP.Sectt.","state":"Himachal Pradesh","state_code":"11","district":"Shimla","district_code":"033","address1":"Shimla Urban(T)","address2":"","latitude":"31.1167","longitude":"77.1684","accuracy":"1"},{"address3":"Shimla East","state":"Himachal Pradesh","state_code":"11","district":"Shimla","district_code":"033","address1":"Shimla Urban(T)","address2":"","latitude":"31.1167","longitude":"77.1684","accuracy":"1"},{"address3":"Khalini","state":"Himachal Pradesh","state_code":"11","district":"Shimla","district_code":"033","address1":"Shimla Urban(T)","address2":"","latitude":"31.1167","longitude":"77.1684","accuracy":"1"}],"171003":[{"address3":"Kaithu","state":"Himachal Pradesh","state_code":"11","district":"Shimla","district_code":"033","address1":"Shimla Urban(T)","address2":"","latitude":"31.1128","longitude":"77.1637","accuracy":"4"},{"address3":"Bhont","state":"Himachal Pradesh","state_code":"11","district":"Shimla","district_code":"033","address1":"Shimla","address2":"","latitude":"31.1192","longitude":"77.1702","accuracy":"3"},{"address3":"Bharari","state":"Himachal Pradesh","state_code":"11","district":"Shimla","district_code":"033","address1":"Shimla Rural(T)","address2":"","latitude":"31.1256","longitude":"77.1766","accuracy":"4"},{"address3":"AGPO","state":"Himachal Pradesh","state_code":"11","district":"Shimla","district_code":"033","address1":"Shimla Urban(T)","address2":"","latitude":"31.1192","longitude":"77.1702","accuracy":"3"}],"171004":[{"address3":"Ambedkarchowk","state":"Himachal Pradesh","state_code":"11","district":"Shimla","district_code":"033","address1":"Shimla Urban(T)","address2":"","latitude":"31.1167","longitude":"77.1684","accuracy":"1"},{"address3":"Nabha Estate","state":"Himachal Pradesh","state_code":"11","district":"Shimla","district_code":"033","address1":"Shimla Urban(T)","address2":"","latitude":"31.1167","longitude":"77.1684","accuracy":"1"}],"171005":[{"address3":"Chaili","state":"Himachal Pradesh","state_code":"11","district":"Shimla","district_code":"033","address1":"Shimla","address2":"","latitude":"31.1152","longitude":"77.2781","accuracy":"4"},{"address3":"Distt. Court Chakkar","state":"Himachal Pradesh","state_code":"11","district":"Shimla","district_code":"033","address1":"Shimla Urban(T)","address2":"","latitude":"31.1152","longitude":"77.2781","accuracy":"3"},{"address3":"Summerhill","state":"Himachal Pradesh","state_code":"11","district":"Shimla","district_code":"033","address1":"Shimla Urban(T)","address2":"","latitude":"31.1152","longitude":"77.2781","accuracy":"3"}],"171006":[{"address3":"Poabo","state":"Himachal Pradesh","state_code":"11","district":"Shimla","district_code":"033","address1":"Shimla","address2":"","latitude":"31.0853","longitude":"77.0447","accuracy":"4"},{"address3":"Kamlanagar","state":"Himachal Pradesh","state_code":"11","district":"Shimla","district_code":"033","address1":"Shimla","address2":"","latitude":"31.0928","longitude":"77.1229","accuracy":"3"},{"address3":"Sanjauli","state":"Himachal Pradesh","state_code":"11","district":"Shimla","district_code":"033","address1":"Shimla Urban(T)","address2":"","latitude":"31.1004","longitude":"77.2011","accuracy":"4"},{"address3":"Malyana","state":"Himachal Pradesh","state_code":"11","district":"Shimla","district_code":"033","address1":"Shimla","address2":"","latitude":"31.0928","longitude":"77.1229","accuracy":"3"}],"171007":[{"address3":"Mashobra","state":"Himachal Pradesh","state_code":"11","district":"Shimla","district_code":"033","address1":"Shimla","address2":"","latitude":"31.1344","longitude":"77.2271","accuracy":"4"},{"address3":"Pahal","state":"Himachal Pradesh","state_code":"11","district":"Shimla","district_code":"033","address1":"Suni","address2":"","latitude":"31.1995","longitude":"77.1222","accuracy":"4"},{"address3":"Baldeyan","state":"Himachal Pradesh","state_code":"11","district":"Shimla","district_code":"033","address1":"Shimla","address2":"","latitude":"31.1669","longitude":"77.1746","accuracy":"3"},{"address3":"Durgapur","state":"Himachal Pradesh","state_code":"11","district":"Shimla","district_code":"033","address1":"Suni","address2":"","latitude":"31.1669","longitude":"77.1746","accuracy":"3"},{"address3":"Kiarkoti","state":"Himachal Pradesh","state_code":"11","district":"Shimla","district_code":"033","address1":"Shimla","address2":"","latitude":"31.1669","longitude":"77.1746","accuracy":"3"},{"address3":"Ghaini","state":"Himachal Pradesh","state_code":"11","district":"Shimla","district_code":"033","address1":"Suni","address2":"","latitude":"31.1669","longitude":"77.1746","accuracy":"3"},{"address3":"Dewla","state":"Himachal Pradesh","state_code":"11","district":"Shimla","district_code":"033","address1":"Suni","address2":"","latitude":"31.1669","longitude":"77.1746","accuracy":"3"},{"address3":"Thailla","state":"Himachal Pradesh","state_code":"11","district":"Shimla","district_code":"033","address1":"Suni","address2":"","latitude":"31.1669","longitude":"77.1746","accuracy":"3"},{"address3":"Khatnol","state":"Himachal Pradesh","state_code":"11","district":"Shimla","district_code":"033","address1":"Suni","address2":"","latitude":"31.1669","longitude":"77.1746","accuracy":"3"}],"171008":[{"address3":"Jutogh","state":"Himachal Pradesh","state_code":"11","district":"Shimla","district_code":"033","address1":"Shimla Urban(T)","address2":"","latitude":"31.1","longitude":"77.1167","accuracy":"4"}],"171009":[{"address3":"New Shimla","state":"Himachal Pradesh","state_code":"11","district":"Shimla","district_code":"033","address1":"Shimla Urban(T)","address2":"","latitude":"31.0769","longitude":"77.1856","accuracy":"3"},{"address3":"Kasumpti","state":"Himachal Pradesh","state_code":"11","district":"Shimla","district_code":"033","address1":"Shimla Urban(T)","address2":"","latitude":"31.0769","longitude":"77.1856","accuracy":"4"},{"address3":"Rajhana","state":"Himachal Pradesh","state_code":"11","district":"Shimla","district_code":"033","address1":"Shimla","address2":"","latitude":"31.0769","longitude":"77.1856","accuracy":"3"}],"171010":[{"address3":"Tara Devi","state":"Himachal Pradesh","state_code":"11","district":"Shimla","district_code":"033","address1":"Shimla Urban(T)","address2":"","latitude":"31.1783","longitude":"77.2459","accuracy":"1"}],"171011":[{"address3":"Chanog","state":"Himachal Pradesh","state_code":"11","district":"Shimla","district_code":"033","address1":"Shimla","address2":"","latitude":"31.2381","longitude":"77.0242","accuracy":"4"},{"address3":"Rampur Keonthal","state":"Himachal Pradesh","state_code":"11","district":"Shimla","district_code":"033","address1":"Shimla","address2":"","latitude":"31.1616","longitude":"77.0922","accuracy":"3"},{"address3":"Totu","state":"Himachal Pradesh","state_code":"11","district":"Shimla","district_code":"033","address1":"Shimla Urban(T)","address2":"","latitude":"31.1018","longitude":"77.1211","accuracy":"4"},{"address3":"Jathia Devi","state":"Himachal Pradesh","state_code":"11","district":"Shimla","district_code":"033","address1":"Shimla","address2":"","latitude":"31.1616","longitude":"77.0922","accuracy":"3"},{"address3":"Rauri","state":"Himachal Pradesh","state_code":"11","district":"Shimla","district_code":"033","address1":"Shimla","address2":"","latitude":"31.145","longitude":"77.1312","accuracy":"4"},{"address3":"Bychari","state":"Himachal Pradesh","state_code":"11","district":"Shimla","district_code":"033","address1":"Shimla","address2":"","latitude":"31.1616","longitude":"77.0922","accuracy":"3"},{"address3":"Badehari","state":"Himachal Pradesh","state_code":"11","district":"Shimla","district_code":"033","address1":"Shimla","address2":"","latitude":"31.1616","longitude":"77.0922","accuracy":"3"},{"address3":"Jubbarhatti","state":"Himachal Pradesh","state_code":"11","district":"Shimla","district_code":"033","address1":"Shimla","address2":"","latitude":"31.1616","longitude":"77.0922","accuracy":"3"}],"171012":[{"address3":"Koti","state":"Himachal Pradesh","state_code":"11","district":"Shimla","district_code":"033","address1":"Shimla R","address2":"","latitude":"31.1225","longitude":"77.2558","accuracy":"4"},{"address3":"Darbhog","state":"Himachal Pradesh","state_code":"11","district":"Shimla","district_code":"033","address1":"Shimla R","address2":"","latitude":"31.0372","longitude":"77.2843","accuracy":"4"},{"address3":"Kufri","state":"Himachal Pradesh","state_code":"11","district":"Shimla","district_code":"033","address1":"Shimla R","address2":"","latitude":"31.1022","longitude":"77.2651","accuracy":"4"},{"address3":"Mundghat","state":"Himachal Pradesh","state_code":"11","district":"Shimla","district_code":"033","address1":"Shimla R","address2":"","latitude":"31.0946","longitude":"77.2625","accuracy":"3"},{"address3":"Chharabra","state":"Himachal Pradesh","state_code":"11","district":"Shimla","district_code":"033","address1":"Shimla R","address2":"","latitude":"31.1164","longitude":"77.2449","accuracy":"4"},{"address3":"Satlai","state":"Himachal Pradesh","state_code":"11","district":"Shimla","district_code":"033","address1":"Shimla R","address2":"","latitude":"31.0946","longitude":"77.2625","accuracy":"3"},{"address3":"Maloothi","state":"Himachal Pradesh","state_code":"11","district":"Shimla","district_code":"033","address1":"Shimlar","address2":"","latitude":"31.0946","longitude":"77.2625","accuracy":"3"},{"address3":"Dhalli","state":"Himachal Pradesh","state_code":"11","district":"Shimla","district_code":"033","address1":"Shimla Urban(T)","address2":"","latitude":"31.0946","longitude":"77.2625","accuracy":"3"}],"171013":[{"address3":"Beolia","state":"Himachal Pradesh","state_code":"11","district":"Shimla","district_code":"033","address1":"Shimla","address2":"","latitude":"31.1783","longitude":"77.2459","accuracy":"1"},{"address3":"Mehli","state":"Himachal Pradesh","state_code":"11","district":"Shimla","district_code":"033","address1":"Shimla","address2":"","latitude":"31.1783","longitude":"77.2459","accuracy":"1"}],"171014":[{"address3":"Kanda","state":"Himachal Pradesh","state_code":"11","district":"Shimla","district_code":"033","address1":"Shimla","address2":"","latitude":"31.1281","longitude":"77.2667","accuracy":"4"},{"address3":"Ghanahatti","state":"Himachal Pradesh","state_code":"11","district":"Shimla","district_code":"033","address1":"Shimla","address2":"","latitude":"31.1224","longitude":"77.1902","accuracy":"3"},{"address3":"Kalihatti","state":"Himachal Pradesh","state_code":"11","district":"Shimla","district_code":"033","address1":"Shimla","address2":"","latitude":"31.1345","longitude":"77.0443","accuracy":"4"},{"address3":"Devnagar","state":"Himachal Pradesh","state_code":"11","district":"Shimla","district_code":"033","address1":"Shimla","address2":"","latitude":"31.1224","longitude":"77.1902","accuracy":"3"},{"address3":"Nehra","state":"Himachal Pradesh","state_code":"11","district":"Shimla","district_code":"033","address1":"Shimla","address2":"","latitude":"31.1122","longitude":"77.384","accuracy":"4"},{"address3":"Shakarah","state":"Himachal Pradesh","state_code":"11","district":"Shimla","district_code":"033","address1":"Shimla","address2":"","latitude":"31.1224","longitude":"77.1902","accuracy":"3"},{"address3":"Kohbag","state":"Himachal Pradesh","state_code":"11","district":"Shimla","district_code":"033","address1":"Shimla","address2":"","latitude":"31.1224","longitude":"77.1902","accuracy":"3"},{"address3":"Panesh","state":"Himachal Pradesh","state_code":"11","district":"Shimla","district_code":"033","address1":"Shimla","address2":"","latitude":"31.1147","longitude":"77.0656","accuracy":"4"}],"171015":[{"address3":"Baldeyan","state":"Himachal Pradesh","state_code":"11","district":"Shimla","district_code":"033","address1":"Shimla","address2":"","latitude":"31.1783","longitude":"77.2459","accuracy":"1"}],"171018":[{"address3":"Gumma","state":"Himachal Pradesh","state_code":"11","district":"Shimla","district_code":"033","address1":"Suni","address2":"","latitude":"31.1251","longitude":"77.4872","accuracy":"4"},{"address3":"Majhiwar","state":"Himachal Pradesh","state_code":"11","district":"Shimla","district_code":"033","address1":"Suni","address2":"","latitude":"31.205","longitude":"77.3226","accuracy":"3"},{"address3":"Kariali","state":"Himachal Pradesh","state_code":"11","district":"Shimla","district_code":"033","address1":"Suni","address2":"","latitude":"31.2335","longitude":"77.2461","accuracy":"4"},{"address3":"Kadarghat","state":"Himachal Pradesh","state_code":"11","district":"Shimla","district_code":"033","address1":"Suni","address2":"","latitude":"31.205","longitude":"77.3226","accuracy":"3"},{"address3":"Bharara","state":"Himachal Pradesh","state_code":"11","district":"Shimla","district_code":"033","address1":"Suni","address2":"","latitude":"31.2564","longitude":"77.2345","accuracy":"4"},{"address3":"Basanatpur","state":"Himachal Pradesh","state_code":"11","district":"Shimla","district_code":"033","address1":"Suni","address2":"","latitude":"31.205","longitude":"77.3226","accuracy":"3"},{"address3":"Khera","state":"Himachal Pradesh","state_code":"11","district":"Shimla","district_code":"033","address1":"Suni","address2":"","latitude":"31.205","longitude":"77.3226","accuracy":"3"}],"171019":[{"address3":"Pandoa","state":"Himachal Pradesh","state_code":"11","district":"Shimla","district_code":"033","address1":"Suni","address2":"","latitude":"31.2744","longitude":"77.3093","accuracy":"4"},{"address3":"Dharogra","state":"Himachal Pradesh","state_code":"11","district":"Shimla","district_code":"033","address1":"Suni","address2":"","latitude":"31.2461","longitude":"77.3227","accuracy":"4"},{"address3":"Jalog","state":"Himachal Pradesh","state_code":"11","district":"Shimla","district_code":"033","address1":"Suni","address2":"","latitude":"31.2541","longitude":"77.2703","accuracy":"4"},{"address3":"Gadheri","state":"Himachal Pradesh","state_code":"11","district":"Shimla","district_code":"033","address1":"Suni","address2":"","latitude":"31.2358","longitude":"77.2971","accuracy":"4"},{"address3":"Ogli","state":"Himachal Pradesh","state_code":"11","district":"Shimla","district_code":"033","address1":"Suni","address2":"","latitude":"31.2667","longitude":"77.2724","accuracy":"4"},{"address3":"Kangal","state":"Himachal Pradesh","state_code":"11","district":"Shimla","district_code":"033","address1":"Suni","address2":"","latitude":"31.2767","longitude":"77.3594","accuracy":"4"},{"address3":"Himri","state":"Himachal Pradesh","state_code":"11","district":"Shimla","district_code":"033","address1":"Suni","address2":"","latitude":"31.2235","longitude":"77.2774","accuracy":"4"}],"171102":[{"address3":"Kashlog","state":"Himachal Pradesh","state_code":"11","district":"Solan","district_code":"031","address1":"NA","address2":"","latitude":"31.2574","longitude":"76.9735","accuracy":"4"},{"address3":"Darla","state":"Himachal Pradesh","state_code":"11","district":"Solan","district_code":"031","address1":"NA","address2":"","latitude":"31.0429","longitude":"76.9095","accuracy":"4"},{"address3":"Beral","state":"Himachal Pradesh","state_code":"11","district":"Solan","district_code":"031","address1":"NA","address2":"","latitude":"31.0429","longitude":"76.9095","accuracy":"4"},{"address3":"Sewra Chandi","state":"Himachal Pradesh","state_code":"11","district":"Solan","district_code":"031","address1":"NA","address2":"","latitude":"31.1537","longitude":"77.3178","accuracy":"3"},{"address3":"Mangal","state":"Himachal Pradesh","state_code":"11","district":"Solan","district_code":"031","address1":"NA","address2":"","latitude":"31.0429","longitude":"76.9095","accuracy":"4"},{"address3":"Parnoo","state":"Himachal Pradesh","state_code":"11","district":"Solan","district_code":"031","address1":"NA","address2":"","latitude":"31.1537","longitude":"77.3178","accuracy":"3"},{"address3":"Nagaon","state":"Himachal Pradesh","state_code":"11","district":"Solan","district_code":"031","address1":"NA","address2":"","latitude":"30.982","longitude":"77.137","accuracy":"4"},{"address3":"Ganagughat","state":"Himachal Pradesh","state_code":"11","district":"Solan","district_code":"031","address1":"NA","address2":"","latitude":"31.1537","longitude":"77.3178","accuracy":"3"},{"address3":"Danoghat","state":"Himachal Pradesh","state_code":"11","district":"Solan","district_code":"031","address1":"NA","address2":"","latitude":"31.1537","longitude":"77.3178","accuracy":"3"},{"address3":"Chakhar Bughar","state":"Himachal Pradesh","state_code":"11","district":"Solan","district_code":"031","address1":"NA","address2":"","latitude":"31.1537","longitude":"77.3178","accuracy":"3"},{"address3":"Mangoo","state":"Himachal Pradesh","state_code":"11","district":"Solan","district_code":"031","address1":"NA","address2":"","latitude":"31.1537","longitude":"77.3178","accuracy":"3"}],"171103":[{"address3":"Chanawag","state":"Himachal Pradesh","state_code":"11","district":"Shimla","district_code":"033","address1":"Suni","address2":"","latitude":"31.2383","longitude":"77.0244","accuracy":"4"},{"address3":"Sainj","state":"Himachal Pradesh","state_code":"11","district":"Shimla","district_code":"033","address1":"Suni","address2":"","latitude":"31.1478","longitude":"77.2861","accuracy":"4"},{"address3":"Dhami","state":"Himachal Pradesh","state_code":"11","district":"Shimla","district_code":"033","address1":"Shimla","address2":"","latitude":"31.2193","longitude":"77.1576","accuracy":"3"},{"address3":"Chalahal","state":"Himachal Pradesh","state_code":"11","district":"Shimla","district_code":"033","address1":"Shimla","address2":"","latitude":"31.2111","longitude":"77.075","accuracy":"4"},{"address3":"Thachi","state":"Himachal Pradesh","state_code":"11","district":"Shimla","district_code":"033","address1":"Suni","address2":"","latitude":"31.3251","longitude":"77.3501","accuracy":"4"},{"address3":"Jabri","state":"Himachal Pradesh","state_code":"11","district":"Shimla","district_code":"033","address1":"Shimla","address2":"","latitude":"31.1742","longitude":"77.0525","accuracy":"4"},{"address3":"Toon","state":"Himachal Pradesh","state_code":"11","district":"Shimla","district_code":"033","address1":"Shimla","address2":"","latitude":"31.2193","longitude":"77.1576","accuracy":"3"},{"address3":"Okharoo","state":"Himachal Pradesh","state_code":"11","district":"Shimla","district_code":"033","address1":"Shimla","address2":"","latitude":"31.2193","longitude":"77.1576","accuracy":"3"}],"171201":[{"address3":"Chikar","state":"Himachal Pradesh","state_code":"11","district":"Shimla","district_code":"033","address1":"Theog","address2":"","latitude":"31.197","longitude":"77.6324","accuracy":"4"},{"address3":"Jais","state":"Himachal Pradesh","state_code":"11","district":"Shimla","district_code":"033","address1":"Theog","address2":"","latitude":"31.0982","longitude":"77.368","accuracy":"4"},{"address3":"Barog","state":"Himachal Pradesh","state_code":"11","district":"Shimla","district_code":"033","address1":"Theog","address2":"","latitude":"31.1623","longitude":"77.3218","accuracy":"4"},{"address3":"Dharampur Madhan","state":"Himachal Pradesh","state_code":"11","district":"Shimla","district_code":"033","address1":"Theog","address2":"","latitude":"31.1079","longitude":"77.3181","accuracy":"3"},{"address3":"Theog","state":"Himachal Pradesh","state_code":"11","district":"Shimla","district_code":"033","address1":"Theog","address2":"","latitude":"31.1215","longitude":"77.3584","accuracy":"4"},{"address3":"Sarog","state":"Himachal Pradesh","state_code":"11","district":"Shimla","district_code":"033","address1":"Theog","address2":"","latitude":"31.138","longitude":"77.3099","accuracy":"4"},{"address3":"Sariun","state":"Himachal Pradesh","state_code":"11","district":"Shimla","district_code":"033","address1":"Theog","address2":"","latitude":"31.197","longitude":"77.6324","accuracy":"4"},{"address3":"Bhogra","state":"Himachal Pradesh","state_code":"11","district":"Shimla","district_code":"033","address1":"Theog","address2":"","latitude":"31.1079","longitude":"77.3181","accuracy":"3"},{"address3":"Kiartoonal","state":"Himachal Pradesh","state_code":"11","district":"Shimla","district_code":"033","address1":"Theog","address2":"","latitude":"31.1079","longitude":"77.3181","accuracy":"3"}],"171202":[{"address3":"Baghar","state":"Himachal Pradesh","state_code":"11","district":"Shimla","district_code":"033","address1":"Kotkhai","address2":"","latitude":"30.9344","longitude":"77.5504","accuracy":"4"},{"address3":"Nagan","state":"Himachal Pradesh","state_code":"11","district":"Shimla","district_code":"033","address1":"Kotkhai","address2":"","latitude":"31.1742","longitude":"77.5091","accuracy":"4"},{"address3":"Himri","state":"Himachal Pradesh","state_code":"11","district":"Shimla","district_code":"033","address1":"Kotkhai","address2":"","latitude":"31.2235","longitude":"77.2774","accuracy":"4"},{"address3":"Devgarh","state":"Himachal Pradesh","state_code":"11","district":"Shimla","district_code":"033","address1":"Kotkhai","address2":"","latitude":"31.096","longitude":"77.4804","accuracy":"3"},{"address3":"Garog","state":"Himachal Pradesh","state_code":"11","district":"Shimla","district_code":"033","address1":"Kotkhai","address2":"","latitude":"31.197","longitude":"77.6324","accuracy":"4"},{"address3":"Mahasu","state":"Himachal Pradesh","state_code":"11","district":"Shimla","district_code":"033","address1":"Kotkhai","address2":"","latitude":"31.0985","longitude":"77.5059","accuracy":"4"},{"address3":"Purag","state":"Himachal Pradesh","state_code":"11","district":"Shimla","district_code":"033","address1":"Kotkhai","address2":"","latitude":"31.1259","longitude":"77.5123","accuracy":"4"},{"address3":"Kokunala","state":"Himachal Pradesh","state_code":"11","district":"Shimla","district_code":"033","address1":"Kotkhai","address2":"","latitude":"31.096","longitude":"77.4804","accuracy":"3"},{"address3":"Tharola","state":"Himachal Pradesh","state_code":"11","district":"Shimla","district_code":"033","address1":"Kotkhai","address2":"","latitude":"31.1401","longitude":"77.5875","accuracy":"4"},{"address3":"Rawlakiar","state":"Himachal Pradesh","state_code":"11","district":"Shimla","district_code":"033","address1":"Kotkhai","address2":"","latitude":"31.096","longitude":"77.4804","accuracy":"3"},{"address3":"Kotkhai","state":"Himachal Pradesh","state_code":"11","district":"Shimla","district_code":"033","address1":"Kothkhai","address2":"","latitude":"31.1173","longitude":"77.5394","accuracy":"4"},{"address3":"Quinal","state":"Himachal Pradesh","state_code":"11","district":"Shimla","district_code":"033","address1":"Kotkhai","address2":"","latitude":"31.096","longitude":"77.4804","accuracy":"3"},{"address3":"Bakhol","state":"Himachal Pradesh","state_code":"11","district":"Shimla","district_code":"033","address1":"Kotkhai","address2":"","latitude":"31.1068","longitude":"77.4907","accuracy":"4"},{"address3":"Chalnair","state":"Himachal Pradesh","state_code":"11","district":"Shimla","district_code":"033","address1":"Kotkhai","address2":"","latitude":"31.1129","longitude":"77.5607","accuracy":"4"},{"address3":"Darkoti","state":"Himachal Pradesh","state_code":"11","district":"Shimla","district_code":"033","address1":"Kotkhai","address2":"","latitude":"31.1214","longitude":"77.6045","accuracy":"4"},{"address3":"Gumma","state":"Himachal Pradesh","state_code":"11","district":"Shimla","district_code":"033","address1":"Kotkhai","address2":"","latitude":"31.1251","longitude":"77.4872","accuracy":"4"}],"171203":[{"address3":"Sharontha","state":"Himachal Pradesh","state_code":"11","district":"Shimla","district_code":"033","address1":"Rohru","address2":"","latitude":"31.0004","longitude":"77.3036","accuracy":"3"},{"address3":"Dharara","state":"Himachal Pradesh","state_code":"11","district":"Shimla","district_code":"033","address1":"Rohru","address2":"","latitude":"31.197","longitude":"77.6324","accuracy":"4"},{"address3":"Pujarli No-3","state":"Himachal Pradesh","state_code":"11","district":"Shimla","district_code":"033","address1":"Rohru","address2":"","latitude":"31.0004","longitude":"77.3036","accuracy":"3"},{"address3":"Tikkar","state":"Himachal Pradesh","state_code":"11","district":"Shimla","district_code":"033","address1":"Jubbal","address2":"","latitude":"31.2779","longitude":"77.4962","accuracy":"4"},{"address3":"Kadiwan","state":"Himachal Pradesh","state_code":"11","district":"Shimla","district_code":"033","address1":"Rohru","address2":"","latitude":"31.0004","longitude":"77.3036","accuracy":"3"},{"address3":"Ghasani","state":"Himachal Pradesh","state_code":"11","district":"Shimla","district_code":"033","address1":"Rohru","address2":"","latitude":"31.0004","longitude":"77.3036","accuracy":"3"},{"address3":"Samara","state":"Himachal Pradesh","state_code":"11","district":"Shimla","district_code":"033","address1":"Rohru","address2":"","latitude":"31.0004","longitude":"77.3036","accuracy":"3"}],"171204":[{"address3":"Galeha","state":"Himachal Pradesh","state_code":"11","district":"Shimla","district_code":"033","address1":"Kotkhai","address2":"","latitude":"31.1865","longitude":"77.5357","accuracy":"4"},{"address3":"Kiari","state":"Himachal Pradesh","state_code":"11","district":"Shimla","district_code":"033","address1":"Kothkhai","address2":"","latitude":"31.1163","longitude":"77.6822","accuracy":"4"},{"address3":"Panog","state":"Himachal Pradesh","state_code":"11","district":"Shimla","district_code":"033","address1":"Kotkhai","address2":"","latitude":"31.1245","longitude":"77.5258","accuracy":"4"},{"address3":"Deori Khaneti","state":"Himachal Pradesh","state_code":"11","district":"Shimla","district_code":"033","address1":"Kotkhai","address2":"","latitude":"31.1424","longitude":"77.5812","accuracy":"3"}],"171205":[{"address3":"Deem","state":"Himachal Pradesh","state_code":"11","district":"Shimla","district_code":"033","address1":"Jubbal","address2":"","latitude":"30.9899","longitude":"77.475","accuracy":"3"},{"address3":"Jubbal","state":"Himachal Pradesh","state_code":"11","district":"Shimla","district_code":"033","address1":"Jubbal","address2":"","latitude":"31.1092","longitude":"77.6508","accuracy":"4"},{"address3":"Kayana","state":"Himachal Pradesh","state_code":"11","district":"Shimla","district_code":"033","address1":"Jubbal","address2":"","latitude":"31.197","longitude":"77.6324","accuracy":"4"},{"address3":"Dhar","state":"Himachal Pradesh","state_code":"11","district":"Shimla","district_code":"033","address1":"Jubbal","address2":"","latitude":"31.1086","longitude":"77.6996","accuracy":"4"},{"address3":"Praunthi","state":"Himachal Pradesh","state_code":"11","district":"Shimla","district_code":"033","address1":"Jubbal","address2":"","latitude":"30.9899","longitude":"77.475","accuracy":"3"},{"address3":"Sheel","state":"Himachal Pradesh","state_code":"11","district":"Shimla","district_code":"033","address1":"Jubbal","address2":"","latitude":"30.9899","longitude":"77.475","accuracy":"3"},{"address3":"Pujarli No-2","state":"Himachal Pradesh","state_code":"11","district":"Shimla","district_code":"033","address1":"Jubbal","address2":"","latitude":"30.9899","longitude":"77.475","accuracy":"3"},{"address3":"Shailapani","state":"Himachal Pradesh","state_code":"11","district":"Shimla","district_code":"033","address1":"Jubbal","address2":"","latitude":"30.9899","longitude":"77.475","accuracy":"3"}],"171206":[{"address3":"Dhadighunsa","state":"Himachal Pradesh","state_code":"11","district":"Shimla","district_code":"033","address1":"Jubbal","address2":"","latitude":"31.1005","longitude":"77.7332","accuracy":"3"},{"address3":"Barthata","state":"Himachal Pradesh","state_code":"11","district":"Shimla","district_code":"033","address1":"Jubbal","address2":"","latitude":"31.0836","longitude":"77.7089","accuracy":"4"},{"address3":"Jharag","state":"Himachal Pradesh","state_code":"11","district":"Shimla","district_code":"033","address1":"Jubbal","address2":"","latitude":"31.1005","longitude":"77.7332","accuracy":"3"},{"address3":"Pandranu","state":"Himachal Pradesh","state_code":"11","district":"Shimla","district_code":"033","address1":"Jubbal","address2":"","latitude":"31.1005","longitude":"77.7332","accuracy":"3"},{"address3":"Solang","state":"Himachal Pradesh","state_code":"11","district":"Shimla","district_code":"033","address1":"Jubbal","address2":"","latitude":"31.1005","longitude":"77.7332","accuracy":"3"},{"address3":"Hatkoti","state":"Himachal Pradesh","state_code":"11","district":"Shimla","district_code":"033","address1":"Jubbal","address2":"","latitude":"31.131","longitude":"77.744","accuracy":"4"},{"address3":"Anti","state":"Himachal Pradesh","state_code":"11","district":"Shimla","district_code":"033","address1":"Jubbal","address2":"","latitude":"31.1005","longitude":"77.7332","accuracy":"3"},{"address3":"Nandpur","state":"Himachal Pradesh","state_code":"11","district":"Shimla","district_code":"033","address1":"Jubbal","address2":"","latitude":"31.0868","longitude":"77.7468","accuracy":"4"},{"address3":"Dhadirawat","state":"Himachal Pradesh","state_code":"11","district":"Shimla","district_code":"033","address1":"Jubbal","address2":"","latitude":"31.1005","longitude":"77.7332","accuracy":"3"},{"address3":"Kathasu","state":"Himachal Pradesh","state_code":"11","district":"Shimla","district_code":"033","address1":"Jubbal","address2":"","latitude":"31.1005","longitude":"77.7332","accuracy":"3"}],"171207":[{"address3":"Kuthara","state":"Himachal Pradesh","state_code":"11","district":"Shimla","district_code":"033","address1":"Rohru","address2":"","latitude":"31.197","longitude":"77.6324","accuracy":"4"},{"address3":"Karasa","state":"Himachal Pradesh","state_code":"11","district":"Shimla","district_code":"033","address1":"Rohru","address2":"","latitude":"31.1769","longitude":"77.7067","accuracy":"4"},{"address3":"Rohru","state":"Himachal Pradesh","state_code":"11","district":"Shimla","district_code":"033","address1":"Shimla","address2":"","latitude":"31.2027","longitude":"77.7548","accuracy":"4"},{"address3":"Jagothi","state":"Himachal Pradesh","state_code":"11","district":"Shimla","district_code":"033","address1":"Rohru","address2":"","latitude":"31.2494","longitude":"77.7009","accuracy":"4"},{"address3":"Samoli","state":"Himachal Pradesh","state_code":"11","district":"Shimla","district_code":"033","address1":"Rohru","address2":"","latitude":"31.197","longitude":"77.6324","accuracy":"4"},{"address3":"Bachhunchh","state":"Himachal Pradesh","state_code":"11","district":"Shimla","district_code":"033","address1":"Rohru","address2":"","latitude":"31.3599","longitude":"77.4331","accuracy":"3"},{"address3":"Kaloti","state":"Himachal Pradesh","state_code":"11","district":"Shimla","district_code":"033","address1":"Rohru","address2":"","latitude":"31.2101","longitude":"77.8128","accuracy":"4"},{"address3":"Kui","state":"Himachal Pradesh","state_code":"11","district":"Shimla","district_code":"033","address1":"Rohru","address2":"","latitude":"31.3214","longitude":"77.4138","accuracy":"4"},{"address3":"Kansakoti","state":"Himachal Pradesh","state_code":"11","district":"Shimla","district_code":"033","address1":"Rohru","address2":"","latitude":"31.2179","longitude":"77.7242","accuracy":"4"},{"address3":"Gawas","state":"Himachal Pradesh","state_code":"11","district":"Shimla","district_code":"033","address1":"Rohru","address2":"","latitude":"31.3599","longitude":"77.4331","accuracy":"3"},{"address3":"Lower Koti","state":"Himachal Pradesh","state_code":"11","district":"Shimla","district_code":"033","address1":"Rohru","address2":"","latitude":"31.3599","longitude":"77.4331","accuracy":"3"},{"address3":"Pujarli No.4","state":"Himachal Pradesh","state_code":"11","district":"Shimla","district_code":"033","address1":"Rohru","address2":"","latitude":"31.3599","longitude":"77.4331","accuracy":"3"},{"address3":"Seema","state":"Himachal Pradesh","state_code":"11","district":"Shimla","district_code":"033","address1":"Rohru","address2":"","latitude":"31.3599","longitude":"77.4331","accuracy":"3"}],"171208":[{"address3":"Rohal","state":"Himachal Pradesh","state_code":"11","district":"Shimla","district_code":"033","address1":"Chirgaon","address2":"","latitude":"31.197","longitude":"77.6324","accuracy":"4"},{"address3":"Chilala","state":"Himachal Pradesh","state_code":"11","district":"Shimla","district_code":"033","address1":"Chirgaon","address2":"","latitude":"31.1255","longitude":"77.7792","accuracy":"4"},{"address3":"Khabal","state":"Himachal Pradesh","state_code":"11","district":"Shimla","district_code":"033","address1":"Chirgaon","address2":"","latitude":"31.197","longitude":"77.6324","accuracy":"4"},{"address3":"Sindhasli","state":"Himachal Pradesh","state_code":"11","district":"Shimla","district_code":"033","address1":"Chirgaon","address2":"","latitude":"31.3968","longitude":"77.5136","accuracy":"3"},{"address3":"Khashdhar","state":"Himachal Pradesh","state_code":"11","district":"Shimla","district_code":"033","address1":"Chirgaon","address2":"","latitude":"31.2169","longitude":"77.8779","accuracy":"4"},{"address3":"Kanthli","state":"Himachal Pradesh","state_code":"11","district":"Shimla","district_code":"033","address1":"Chirgaon","address2":"","latitude":"31.3968","longitude":"77.5136","accuracy":"3"},{"address3":"Larot","state":"Himachal Pradesh","state_code":"11","district":"Shimla","district_code":"033","address1":"Chirgaon","address2":"","latitude":"31.2317","longitude":"77.9417","accuracy":"4"},{"address3":"Gaonsari","state":"Himachal Pradesh","state_code":"11","district":"Shimla","district_code":"033","address1":"Chirgaon","address2":"","latitude":"31.3968","longitude":"77.5136","accuracy":"3"},{"address3":"Tikkari","state":"Himachal Pradesh","state_code":"11","district":"Shimla","district_code":"033","address1":"Chirgaon","address2":"","latitude":"31.3968","longitude":"77.5136","accuracy":"3"},{"address3":"Pekha","state":"Himachal Pradesh","state_code":"11","district":"Shimla","district_code":"033","address1":"Chirgaon","address2":"","latitude":"31.3968","longitude":"77.5136","accuracy":"3"},{"address3":"Tangnu","state":"Himachal Pradesh","state_code":"11","district":"Shimla","district_code":"033","address1":"Chirgaon","address2":"","latitude":"31.3968","longitude":"77.5136","accuracy":"3"},{"address3":"Chirgaon (Shimla)","state":"Himachal Pradesh","state_code":"11","district":"Shimla","district_code":"033","address1":"Chirgaon","address2":"","latitude":"31.3968","longitude":"77.5136","accuracy":"3"},{"address3":"Masli","state":"Himachal Pradesh","state_code":"11","district":"Shimla","district_code":"033","address1":"Chirgaon","address2":"","latitude":"31.3968","longitude":"77.5136","accuracy":"3"}],"171209":[{"address3":"Dharech","state":"Himachal Pradesh","state_code":"11","district":"Shimla","district_code":"033","address1":"Theog","address2":"","latitude":"31.0239","longitude":"77.3313","accuracy":"4"},{"address3":"Satog","state":"Himachal Pradesh","state_code":"11","district":"Shimla","district_code":"033","address1":"Theog","address2":"","latitude":"31.0146","longitude":"77.3136","accuracy":"4"},{"address3":"Tiyali","state":"Himachal Pradesh","state_code":"11","district":"Shimla","district_code":"033","address1":"Theog","address2":"","latitude":"31.0532","longitude":"77.3166","accuracy":"3"},{"address3":"Majhar","state":"Himachal Pradesh","state_code":"11","district":"Shimla","district_code":"033","address1":"Theog","address2":"","latitude":"31.1212","longitude":"77.305","accuracy":"4"},{"address3":"Dhamandari","state":"Himachal Pradesh","state_code":"11","district":"Shimla","district_code":"033","address1":"Theog","address2":"","latitude":"31.0532","longitude":"77.3166","accuracy":"3"},{"address3":"Fagu (Shimla)","state":"Himachal Pradesh","state_code":"11","district":"Shimla","district_code":"033","address1":"Theog","address2":"","latitude":"31.0532","longitude":"77.3166","accuracy":"3"},{"address3":"Cheog","state":"Himachal Pradesh","state_code":"11","district":"Shimla","district_code":"033","address1":"Theog","address2":"","latitude":"31.0532","longitude":"77.3166","accuracy":"3"}],"171210":[{"address3":"Tikkri Neol","state":"Himachal Pradesh","state_code":"11","district":"Shimla","district_code":"033","address1":"Chopal","address2":"","latitude":"30.9753","longitude":"77.4764","accuracy":"3"},{"address3":"Bour","state":"Himachal Pradesh","state_code":"11","district":"Shimla","district_code":"033","address1":"Chopal","address2":"","latitude":"30.9753","longitude":"77.4764","accuracy":"3"},{"address3":"Nerwa","state":"Himachal Pradesh","state_code":"11","district":"Shimla","district_code":"033","address1":"Choupal","address2":"","latitude":"30.9753","longitude":"77.4764","accuracy":"3"},{"address3":"Bharanu","state":"Himachal Pradesh","state_code":"11","district":"Shimla","district_code":"033","address1":"Chopal","address2":"","latitude":"30.9753","longitude":"77.4764","accuracy":"3"},{"address3":"Madhana","state":"Himachal Pradesh","state_code":"11","district":"Shimla","district_code":"033","address1":"Chopal","address2":"","latitude":"31.197","longitude":"77.6324","accuracy":"4"},{"address3":"Telar","state":"Himachal Pradesh","state_code":"11","district":"Shimla","district_code":"033","address1":"Choupal","address2":"","latitude":"30.9753","longitude":"77.4764","accuracy":"3"},{"address3":"Malat","state":"Himachal Pradesh","state_code":"11","district":"Shimla","district_code":"033","address1":"Chopal","address2":"","latitude":"30.9542","longitude":"77.6063","accuracy":"4"},{"address3":"Tharoach","state":"Himachal Pradesh","state_code":"11","district":"Shimla","district_code":"033","address1":"Chopal","address2":"","latitude":"30.9753","longitude":"77.4764","accuracy":"3"},{"address3":"Giahan","state":"Himachal Pradesh","state_code":"11","district":"Shimla","district_code":"033","address1":"Chopal","address2":"","latitude":"31.197","longitude":"77.6324","accuracy":"4"},{"address3":"Thangad","state":"Himachal Pradesh","state_code":"11","district":"Shimla","district_code":"033","address1":"Chopal","address2":"","latitude":"30.9753","longitude":"77.4764","accuracy":"3"},{"address3":"Bijmal","state":"Himachal Pradesh","state_code":"11","district":"Shimla","district_code":"033","address1":"Chopal","address2":"","latitude":"30.8929","longitude":"77.6957","accuracy":"4"},{"address3":"Ruslah","state":"Himachal Pradesh","state_code":"11","district":"Shimla","district_code":"033","address1":"Chopal","address2":"","latitude":"30.9753","longitude":"77.4764","accuracy":"3"},{"address3":"Kedi","state":"Himachal Pradesh","state_code":"11","district":"Shimla","district_code":"033","address1":"Chopal","address2":"","latitude":"30.9037","longitude":"77.6717","accuracy":"4"},{"address3":"Pawan","state":"Himachal Pradesh","state_code":"11","district":"Shimla","district_code":"033","address1":"Chopal","address2":"","latitude":"30.9753","longitude":"77.4764","accuracy":"3"},{"address3":"Jublee","state":"Himachal Pradesh","state_code":"11","district":"Shimla","district_code":"033","address1":"Chopal","address2":"","latitude":"30.9753","longitude":"77.4764","accuracy":"3"},{"address3":"Kiarla","state":"Himachal Pradesh","state_code":"11","district":"Shimla","district_code":"033","address1":"Chopal","address2":"","latitude":"30.9753","longitude":"77.4764","accuracy":"3"},{"address3":"Eera","state":"Himachal Pradesh","state_code":"11","district":"Shimla","district_code":"033","address1":"Chopal","address2":"","latitude":"30.9753","longitude":"77.4764","accuracy":"3"},{"address3":"Deiya","state":"Himachal Pradesh","state_code":"11","district":"Shimla","district_code":"033","address1":"Chopal","address2":"","latitude":"30.9753","longitude":"77.4764","accuracy":"3"},{"address3":"Chanana Dhar","state":"Himachal Pradesh","state_code":"11","district":"Shimla","district_code":"033","address1":"Chopal","address2":"","latitude":"30.9753","longitude":"77.4764","accuracy":"3"}],"171211":[{"address3":"Dewat","state":"Himachal Pradesh","state_code":"11","district":"Shimla","district_code":"033","address1":"Chopal","address2":"","latitude":"31.1073","longitude":"77.4875","accuracy":"3"},{"address3":"Chopal","state":"Himachal Pradesh","state_code":"11","district":"Shimla","district_code":"033","address1":"Chopal","address2":"","latitude":"31.1073","longitude":"77.4875","accuracy":"3"},{"address3":"Jhiknipul","state":"Himachal Pradesh","state_code":"11","district":"Shimla","district_code":"033","address1":"Chopal","address2":"","latitude":"31.1073","longitude":"77.4875","accuracy":"3"},{"address3":"Chauth","state":"Himachal Pradesh","state_code":"11","district":"Shimla","district_code":"033","address1":"Chopal","address2":"","latitude":"31.0272","longitude":"77.5528","accuracy":"4"},{"address3":"Nakorapul","state":"Himachal Pradesh","state_code":"11","district":"Shimla","district_code":"033","address1":"Chopal","address2":"","latitude":"31.1073","longitude":"77.4875","accuracy":"3"},{"address3":"Khagna","state":"Himachal Pradesh","state_code":"11","district":"Shimla","district_code":"033","address1":"Chopal","address2":"","latitude":"31.0225","longitude":"77.4991","accuracy":"4"},{"address3":"Sarain","state":"Himachal Pradesh","state_code":"11","district":"Shimla","district_code":"033","address1":"Chopal","address2":"","latitude":"31.1073","longitude":"77.4875","accuracy":"3"},{"address3":"Dhawas","state":"Himachal Pradesh","state_code":"11","district":"Shimla","district_code":"033","address1":"Chopal","address2":"","latitude":"31.197","longitude":"77.6324","accuracy":"4"},{"address3":"Bamta","state":"Himachal Pradesh","state_code":"11","district":"Shimla","district_code":"033","address1":"Chopal","address2":"","latitude":"31.0191","longitude":"77.6203","accuracy":"4"},{"address3":"Matal","state":"Himachal Pradesh","state_code":"11","district":"Shimla","district_code":"033","address1":"Chopal","address2":"","latitude":"31.0201","longitude":"77.5904","accuracy":"4"},{"address3":"Pauria","state":"Himachal Pradesh","state_code":"11","district":"Shimla","district_code":"033","address1":"Chopal","address2":"","latitude":"30.9949","longitude":"77.6439","accuracy":"4"},{"address3":"Marog","state":"Himachal Pradesh","state_code":"11","district":"Shimla","district_code":"033","address1":"Chopal","address2":"","latitude":"31.1527","longitude":"77.2894","accuracy":"4"},{"address3":"Chambi","state":"Himachal Pradesh","state_code":"11","district":"Shimla","district_code":"033","address1":"Chopl","address2":"","latitude":"31.0108","longitude":"77.4919","accuracy":"4"}],"171212":[{"address3":"Nagjubber","state":"Himachal Pradesh","state_code":"11","district":"Shimla","district_code":"033","address1":"Theog","address2":"","latitude":"31.1661","longitude":"77.3555","accuracy":"3"},{"address3":"Shari","state":"Himachal Pradesh","state_code":"11","district":"Shimla","district_code":"033","address1":"Theog","address2":"","latitude":"31.1431","longitude":"77.2556","accuracy":"4"},{"address3":"Mahog","state":"Himachal Pradesh","state_code":"11","district":"Shimla","district_code":"033","address1":"Theog","address2":"","latitude":"31.1477","longitude":"77.4034","accuracy":"4"},{"address3":"Kotighat","state":"Himachal Pradesh","state_code":"11","district":"Shimla","district_code":"033","address1":"Kumarsain","address2":"","latitude":"31.1661","longitude":"77.3555","accuracy":"3"},{"address3":"Matiana","state":"Himachal Pradesh","state_code":"11","district":"Shimla","district_code":"033","address1":"Theog","address2":"","latitude":"31.2076","longitude":"77.4075","accuracy":"4"},{"address3":"Kandroo","state":"Himachal Pradesh","state_code":"11","district":"Shimla","district_code":"033","address1":"Theog","address2":"","latitude":"31.1661","longitude":"77.3555","accuracy":"3"},{"address3":"Kelvi","state":"Himachal Pradesh","state_code":"11","district":"Shimla","district_code":"033","address1":"Theog","address2":"","latitude":"31.1661","longitude":"77.3555","accuracy":"3"},{"address3":"Bharana","state":"Himachal Pradesh","state_code":"11","district":"Shimla","district_code":"033","address1":"Theog","address2":"","latitude":"31.1661","longitude":"77.3555","accuracy":"3"}],"171213":[{"address3":"Kiara","state":"Himachal Pradesh","state_code":"11","district":"Shimla","district_code":"033","address1":"Theog","address2":"","latitude":"31.197","longitude":"77.6324","accuracy":"4"},{"address3":"Oddi","state":"Himachal Pradesh","state_code":"11","district":"Shimla","district_code":"033","address1":"Kumarsain","address2":"","latitude":"31.132","longitude":"77.3305","accuracy":"3"},{"address3":"Kharahan","state":"Himachal Pradesh","state_code":"11","district":"Shimla","district_code":"033","address1":"Rampur","address2":"","latitude":"31.197","longitude":"77.6324","accuracy":"4"},{"address3":"Halanidhar","state":"Himachal Pradesh","state_code":"11","district":"Shimla","district_code":"033","address1":"Kumarsain","address2":"","latitude":"31.132","longitude":"77.3305","accuracy":"3"},{"address3":"Bhalawag","state":"Himachal Pradesh","state_code":"11","district":"Shimla","district_code":"033","address1":"Kumarsain","address2":"","latitude":"30.9952","longitude":"77.2169","accuracy":"4"},{"address3":"Madhawani","state":"Himachal Pradesh","state_code":"11","district":"Shimla","district_code":"033","address1":"Kumarsain","address2":"","latitude":"31.132","longitude":"77.3305","accuracy":"3"},{"address3":"Kanahar","state":"Himachal Pradesh","state_code":"11","district":"Shimla","district_code":"033","address1":"Theog","address2":"","latitude":"31.2663","longitude":"77.4779","accuracy":"4"},{"address3":"Narkanda","state":"Himachal Pradesh","state_code":"11","district":"Shimla","district_code":"033","address1":"Kumarsain","address2":"","latitude":"31.257","longitude":"77.4612","accuracy":"4"},{"address3":"Khunni","state":"Himachal Pradesh","state_code":"11","district":"Shimla","district_code":"033","address1":"Rampur","address2":"","latitude":"31.132","longitude":"77.3305","accuracy":"3"},{"address3":"Shilaru","state":"Himachal Pradesh","state_code":"11","district":"Shimla","district_code":"033","address1":"Theog","address2":"","latitude":"31.1236","longitude":"77.5423","accuracy":"4"},{"address3":"Kandyali","state":"Himachal Pradesh","state_code":"11","district":"Shimla","district_code":"033","address1":"Kumarsain","address2":"","latitude":"31.132","longitude":"77.3305","accuracy":"3"},{"address3":"Jahu","state":"Himachal Pradesh","state_code":"11","district":"Shimla","district_code":"033","address1":"Rampur","address2":"","latitude":"31.132","longitude":"77.3305","accuracy":"3"}],"171214":[{"address3":"Devidhar","state":"Himachal Pradesh","state_code":"11","district":"Shimla","district_code":"033","address1":"Rohru","address2":"","latitude":"31.197","longitude":"77.6324","accuracy":"4"},{"address3":"Todsa","state":"Himachal Pradesh","state_code":"11","district":"Shimla","district_code":"033","address1":"Rohru","address2":"","latitude":"31.7559","longitude":"77.059","accuracy":"3"},{"address3":"Thana","state":"Himachal Pradesh","state_code":"11","district":"Shimla","district_code":"033","address1":"Rohru","address2":"","latitude":"31.1491","longitude":"77.503","accuracy":"4"},{"address3":"Ranol","state":"Himachal Pradesh","state_code":"11","district":"Shimla","district_code":"033","address1":"Rohru","address2":"","latitude":"31.7559","longitude":"77.059","accuracy":"3"},{"address3":"Jangla","state":"Himachal Pradesh","state_code":"11","district":"Shimla","district_code":"033","address1":"Chirgaon","address2":"","latitude":"31.197","longitude":"77.6324","accuracy":"4"}],"171215":[{"address3":"Mandhole","state":"Himachal Pradesh","state_code":"11","district":"Shimla","district_code":"033","address1":"Jubbal","address2":"","latitude":"31.122","longitude":"77.3836","accuracy":"1"}],"171216":[{"address3":"Jhagtan","state":"Himachal Pradesh","state_code":"11","district":"Shimla","district_code":"033","address1":"Jubbal","address2":"","latitude":"31.101","longitude":"77.8293","accuracy":"3"},{"address3":"Giltari","state":"Himachal Pradesh","state_code":"11","district":"Shimla","district_code":"033","address1":"Jubbal","address2":"","latitude":"31.1081","longitude":"77.8326","accuracy":"4"},{"address3":"Mandal (Shimla)","state":"Himachal Pradesh","state_code":"11","district":"Shimla","district_code":"033","address1":"Jubbal","address2":"","latitude":"31.101","longitude":"77.8293","accuracy":"3"},{"address3":"Bholad","state":"Himachal Pradesh","state_code":"11","district":"Shimla","district_code":"033","address1":"Jubbal","address2":"","latitude":"31.101","longitude":"77.8293","accuracy":"3"},{"address3":"Jhalta","state":"Himachal Pradesh","state_code":"11","district":"Shimla","district_code":"033","address1":"Jubbal","address2":"","latitude":"31.0939","longitude":"77.8259","accuracy":"4"},{"address3":"Tooran","state":"Himachal Pradesh","state_code":"11","district":"Shimla","district_code":"033","address1":"Jubbal","address2":"","latitude":"31.101","longitude":"77.8293","accuracy":"3"}],"171217":[{"address3":"Majholi","state":"Himachal Pradesh","state_code":"11","district":"Shimla","district_code":"033","address1":"Chopal","address2":"","latitude":"31.1045","longitude":"77.4948","accuracy":"4"},{"address3":"Charoli","state":"Himachal Pradesh","state_code":"11","district":"Shimla","district_code":"033","address1":"Chopal","address2":"","latitude":"31.197","longitude":"77.6324","accuracy":"4"},{"address3":"Kanda Banah","state":"Himachal Pradesh","state_code":"11","district":"Shimla","district_code":"033","address1":"Chopal","address2":"","latitude":"30.9571","longitude":"77.3867","accuracy":"3"},{"address3":"Kupvi","state":"Himachal Pradesh","state_code":"11","district":"Shimla","district_code":"033","address1":"Chopal","address2":"","latitude":"30.9571","longitude":"77.3867","accuracy":"3"},{"address3":"Bhalu","state":"Himachal Pradesh","state_code":"11","district":"Shimla","district_code":"033","address1":"Chopal","address2":"","latitude":"30.8634","longitude":"77.5752","accuracy":"4"},{"address3":"Jokhar","state":"Himachal Pradesh","state_code":"11","district":"Shimla","district_code":"033","address1":"Chopal","address2":"","latitude":"30.8884","longitude":"77.5646","accuracy":"4"},{"address3":"Kulag","state":"Himachal Pradesh","state_code":"11","district":"Shimla","district_code":"033","address1":"Chopal","address2":"","latitude":"30.8055","longitude":"77.5582","accuracy":"4"}],"171218":[{"address3":"Junga","state":"Himachal Pradesh","state_code":"11","district":"Shimla","district_code":"033","address1":"Shimla","address2":"","latitude":"31.0245","longitude":"77.1913","accuracy":"4"}],"171219":[{"address3":"Anandpur","state":"Himachal Pradesh","state_code":"11","district":"Shimla","district_code":"033","address1":"Shimla","address2":"","latitude":"30.9818","longitude":"77.0676","accuracy":"3"},{"address3":"Salana","state":"Himachal Pradesh","state_code":"11","district":"Shimla","district_code":"033","address1":"Shimla","address2":"","latitude":"31.0478","longitude":"77.1006","accuracy":"4"},{"address3":"Dhari","state":"Himachal Pradesh","state_code":"11","district":"Shimla","district_code":"033","address1":"Shimla","address2":"","latitude":"31.197","longitude":"77.6324","accuracy":"4"},{"address3":"Shoghi","state":"Himachal Pradesh","state_code":"11","district":"Shimla","district_code":"033","address1":"Shimla","address2":"","latitude":"30.9818","longitude":"77.0676","accuracy":"3"}],"171220":[{"address3":"Ghoond","state":"Himachal Pradesh","state_code":"11","district":"Shimla","district_code":"033","address1":"Theog","address2":"","latitude":"31.1077","longitude":"77.3889","accuracy":"3"},{"address3":"Bagri","state":"Himachal Pradesh","state_code":"11","district":"Shimla","district_code":"033","address1":"Theog","address2":"","latitude":"31.0519","longitude":"77.422","accuracy":"4"},{"address3":"Kalind","state":"Himachal Pradesh","state_code":"11","district":"Shimla","district_code":"033","address1":"Kotkhai","address2":"","latitude":"31.1603","longitude":"77.4419","accuracy":"4"},{"address3":"Chanair","state":"Himachal Pradesh","state_code":"11","district":"Shimla","district_code":"033","address1":"Theog","address2":"","latitude":"31.1077","longitude":"77.3889","accuracy":"3"},{"address3":"Kiar","state":"Himachal Pradesh","state_code":"11","district":"Shimla","district_code":"033","address1":"Theog","address2":"","latitude":"31.142","longitude":"77.1966","accuracy":"4"},{"address3":"Bagain","state":"Himachal Pradesh","state_code":"11","district":"Shimla","district_code":"033","address1":"Kothkhai","address2":"","latitude":"31.1029","longitude":"77.4378","accuracy":"4"},{"address3":"Deothibalson","state":"Himachal Pradesh","state_code":"11","district":"Shimla","district_code":"033","address1":"Theog","address2":"","latitude":"31.1077","longitude":"77.3889","accuracy":"3"},{"address3":"Parala","state":"Himachal Pradesh","state_code":"11","district":"Shimla","district_code":"033","address1":"Kotkhai","address2":"","latitude":"31.0954","longitude":"77.4018","accuracy":"4"},{"address3":"Mahori","state":"Himachal Pradesh","state_code":"11","district":"Shimla","district_code":"033","address1":"Theog","address2":"","latitude":"31.1679","longitude":"77.4226","accuracy":"4"},{"address3":"Dehabalson","state":"Himachal Pradesh","state_code":"11","district":"Shimla","district_code":"033","address1":"Theog","address2":"","latitude":"31.1077","longitude":"77.3889","accuracy":"3"},{"address3":"Balghar","state":"Himachal Pradesh","state_code":"11","district":"Shimla","district_code":"033","address1":"Theog","address2":"","latitude":"31.068","longitude":"77.3977","accuracy":"4"},{"address3":"Sainj","state":"Himachal Pradesh","state_code":"11","district":"Shimla","district_code":"033","address1":"Kotkhai","address2":"","latitude":"31.0733","longitude":"77.3906","accuracy":"4"}],"171221":[{"address3":"Jakha","state":"Himachal Pradesh","state_code":"11","district":"Shimla","district_code":"033","address1":"Rohru","address2":"","latitude":"31.1885","longitude":"77.3245","accuracy":"3"},{"address3":"Dodra","state":"Himachal Pradesh","state_code":"11","district":"Shimla","district_code":"033","address1":"Rohru","address2":"","latitude":"31.1885","longitude":"77.3245","accuracy":"4"},{"address3":"Kawar","state":"Himachal Pradesh","state_code":"11","district":"Shimla","district_code":"033","address1":"Dodra Kawar","address2":"","latitude":"31.1885","longitude":"77.3245","accuracy":"3"}],"171222":[{"address3":"Lafughati","state":"Himachal Pradesh","state_code":"11","district":"Shimla","district_code":"033","address1":"Theog","address2":"","latitude":"30.9943","longitude":"77.4029","accuracy":"3"},{"address3":"Chikar","state":"Himachal Pradesh","state_code":"11","district":"Shimla","district_code":"033","address1":"Theog","address2":"","latitude":"31.197","longitude":"77.6324","accuracy":"4"},{"address3":"Kathog","state":"Himachal Pradesh","state_code":"11","district":"Shimla","district_code":"033","address1":"Theog","address2":"","latitude":"31.1722","longitude":"77.1784","accuracy":"4"},{"address3":"Sandhu","state":"Himachal Pradesh","state_code":"11","district":"Shimla","district_code":"033","address1":"Theog","address2":"","latitude":"31.1553","longitude":"77.3822","accuracy":"4"}],"171223":[{"address3":"Arhal","state":"Himachal Pradesh","state_code":"11","district":"Shimla","district_code":"033","address1":"Rohru","address2":"","latitude":"31.2094","longitude":"77.6999","accuracy":"4"}],"171224":[{"address3":"Sungri","state":"Himachal Pradesh","state_code":"11","district":"Shimla","district_code":"033","address1":"Rohru","address2":"","latitude":"31.3085","longitude":"77.7038","accuracy":"4"},{"address3":"Summer Kot","state":"Himachal Pradesh","state_code":"11","district":"Shimla","district_code":"033","address1":"Rohru","address2":"","latitude":"31.3085","longitude":"77.7038","accuracy":"3"}],"171225":[{"address3":"Ratnari","state":"Himachal Pradesh","state_code":"11","district":"Shimla","district_code":"033","address1":"Kotkhai","address2":"","latitude":"31.2252","longitude":"77.5393","accuracy":"4"},{"address3":"Baghi (Shimla)","state":"Himachal Pradesh","state_code":"11","district":"Shimla","district_code":"033","address1":"Kothkhai","address2":"","latitude":"31.2399","longitude":"77.5556","accuracy":"4"},{"address3":"Khadrala","state":"Himachal Pradesh","state_code":"11","district":"Shimla","district_code":"033","address1":"Rohru","address2":"","latitude":"31.261","longitude":"77.6295","accuracy":"4"},{"address3":"Kalbog","state":"Himachal Pradesh","state_code":"11","district":"Shimla","district_code":"033","address1":"Kotkhai","address2":"","latitude":"31.2027","longitude":"77.5195","accuracy":"4"},{"address3":"Khangteri","state":"Himachal Pradesh","state_code":"11","district":"Shimla","district_code":"033","address1":"Kotkhai","address2":"","latitude":"31.2483","longitude":"77.6574","accuracy":"4"}],"171226":[{"address3":"Bharoli","state":"Himachal Pradesh","state_code":"11","district":"Sirmaur","district_code":"032","address1":"Rajgarh","address2":"","latitude":"30.9762","longitude":"77.4344","accuracy":"4"},{"address3":"Deothi Manjghaon","state":"Himachal Pradesh","state_code":"11","district":"Sirmaur","district_code":"032","address1":"Rajgarh","address2":"","latitude":"31.19","longitude":"77.2366","accuracy":"3"},{"address3":"Bhujjal","state":"Himachal Pradesh","state_code":"11","district":"Sirmaur","district_code":"032","address1":"Rajgarh","address2":"","latitude":"30.6676","longitude":"77.431","accuracy":"4"},{"address3":"Neripul","state":"Himachal Pradesh","state_code":"11","district":"Sirmaur","district_code":"032","address1":"Rajgarh","address2":"","latitude":"31.19","longitude":"77.2366","accuracy":"3"},{"address3":"Mundu","state":"Himachal Pradesh","state_code":"11","district":"Shimla","district_code":"033","address1":"Theog","address2":"","latitude":"31.0298","longitude":"77.3995","accuracy":"4"},{"address3":"Sari","state":"Himachal Pradesh","state_code":"11","district":"Shimla","district_code":"033","address1":"Theog","address2":"","latitude":"30.9352","longitude":"77.4698","accuracy":"4"},{"address3":"Pulbahal","state":"Himachal Pradesh","state_code":"11","district":"Shimla","district_code":"033","address1":"Theog","address2":"","latitude":"31.19","longitude":"77.2366","accuracy":"3"},{"address3":"Basadhar","state":"Himachal Pradesh","state_code":"11","district":"Shimla","district_code":"033","address1":"Theog","address2":"","latitude":"31.004","longitude":"77.4606","accuracy":"4"},{"address3":"Kuthar","state":"Himachal Pradesh","state_code":"11","district":"Shimla","district_code":"033","address1":"Theog","address2":"","latitude":"31.0027","longitude":"77.4197","accuracy":"4"},{"address3":"Balag","state":"Himachal Pradesh","state_code":"11","district":"Shimla","district_code":"033","address1":"Theog","address2":"","latitude":"31.032","longitude":"77.3752","accuracy":"4"}],"171301":[{"address3":"Rewag","state":"Himachal Pradesh","state_code":"11","district":"Shimla","district_code":"033","address1":"Suni","address2":"","latitude":"31.2255","longitude":"77.1017","accuracy":"4"},{"address3":"Juni","state":"Himachal Pradesh","state_code":"11","district":"Shimla","district_code":"033","address1":"Suni","address2":"","latitude":"31.3023","longitude":"77.5384","accuracy":"4"},{"address3":"Chaba","state":"Himachal Pradesh","state_code":"11","district":"Shimla","district_code":"033","address1":"Suni","address2":"","latitude":"31.2304","longitude":"77.1621","accuracy":"4"},{"address3":"Mandhor Ghat","state":"Himachal Pradesh","state_code":"11","district":"Shimla","district_code":"033","address1":"Sunni","address2":"","latitude":"31.2453","longitude":"77.0605","accuracy":"4"},{"address3":"Sunni Bhajji","state":"Himachal Pradesh","state_code":"11","district":"Shimla","district_code":"033","address1":"Sunni","address2":"","latitude":"31.2508","longitude":"77.2156","accuracy":"3"}],"credits":[{"name":"geonames","url":"https://www.geonames.org"}],"last_update":"2019-03-01T09:01:30.605Z"}