{"173001":[{"address3":"Chalana","state":"Himachal Pradesh","state_code":"11","district":"Sirmaur","district_code":"032","address1":"Sangrah","address2":"","latitude":"30.6553","longitude":"77.3203","accuracy":"4"},{"address3":"Puruwala","state":"Himachal Pradesh","state_code":"11","district":"Sirmaur","district_code":"032","address1":"Paonta","address2":"","latitude":"30.5127","longitude":"77.6848","accuracy":"4"},{"address3":"Matar","state":"Himachal Pradesh","state_code":"11","district":"Sirmaur","district_code":"032","address1":"Nahan","address2":"","latitude":"30.4905","longitude":"77.349","accuracy":"4"},{"address3":"Mahipur","state":"Himachal Pradesh","state_code":"11","district":"Sirmaur","district_code":"032","address1":"Sangrah","address2":"","latitude":"30.6515","longitude":"77.3507","accuracy":"4"},{"address3":"Bagthan","state":"Himachal Pradesh","state_code":"11","district":"Sirmaur","district_code":"032","address1":"Pachhad","address2":"","latitude":"30.6853","longitude":"77.2795","accuracy":"4"},{"address3":"Dingar Kinner","state":"Himachal Pradesh","state_code":"11","district":"Sirmaur","district_code":"032","address1":"Pachhad","address2":"","latitude":"30.6089","longitude":"77.3475","accuracy":"3"},{"address3":"Banethi","state":"Himachal Pradesh","state_code":"11","district":"Sirmaur","district_code":"032","address1":"Nahan","address2":"","latitude":"30.6338","longitude":"77.2722","accuracy":"4"},{"address3":"Bikram Bag","state":"Himachal Pradesh","state_code":"11","district":"Sirmaur","district_code":"032","address1":"Nahan","address2":"","latitude":"30.6089","longitude":"77.3475","accuracy":"3"},{"address3":"Kolar","state":"Himachal Pradesh","state_code":"11","district":"Sirmaur","district_code":"032","address1":"Paonta","address2":"","latitude":"30.5022","longitude":"77.4197","accuracy":"4"},{"address3":"Gagal Shikor","state":"Himachal Pradesh","state_code":"11","district":"Sirmaur","district_code":"032","address1":"Pachhad","address2":"","latitude":"30.6089","longitude":"77.3475","accuracy":"3"},{"address3":"Shambhuwala","state":"Himachal Pradesh","state_code":"11","district":"Sirmaur","district_code":"032","address1":"Nahan","address2":"","latitude":"30.5244","longitude":"77.3219","accuracy":"4"},{"address3":"Haripur Khol","state":"Himachal Pradesh","state_code":"11","district":"Sirmaur","district_code":"032","address1":"Paonta","address2":"","latitude":"30.6089","longitude":"77.3475","accuracy":"3"},{"address3":"Parara","state":"Himachal Pradesh","state_code":"11","district":"Sirmaur","district_code":"032","address1":"Sangrah","address2":"","latitude":"30.6763","longitude":"77.3559","accuracy":"4"},{"address3":"Jamta","state":"Himachal Pradesh","state_code":"11","district":"Sirmaur","district_code":"032","address1":"Nahan","address2":"","latitude":"30.6089","longitude":"77.3475","accuracy":"3"},{"address3":"Chakli","state":"Himachal Pradesh","state_code":"11","district":"Sirmaur","district_code":"032","address1":"Nahan","address2":"","latitude":"30.6247","longitude":"77.3347","accuracy":"4"},{"address3":"Kotla Molar","state":"Himachal Pradesh","state_code":"11","district":"Sirmaur","district_code":"032","address1":"Sangrah","address2":"","latitude":"30.6089","longitude":"77.3475","accuracy":"3"},{"address3":"Surla","state":"Himachal Pradesh","state_code":"11","district":"Sirmaur","district_code":"032","address1":"Nahan","address2":"","latitude":"30.7407","longitude":"77.1338","accuracy":"4"},{"address3":"Panjahal","state":"Himachal Pradesh","state_code":"11","district":"Sirmaur","district_code":"032","address1":"Nahan","address2":"","latitude":"30.6089","longitude":"77.3475","accuracy":"3"},{"address3":"Ramadhaun","state":"Himachal Pradesh","state_code":"11","district":"Sirmaur","district_code":"032","address1":"Nahan","address2":"","latitude":"30.6089","longitude":"77.3475","accuracy":"3"},{"address3":"Nahan H.O","state":"Himachal Pradesh","state_code":"11","district":"Sirmaur","district_code":"032","address1":"Nahan","address2":"","latitude":"30.6089","longitude":"77.3475","accuracy":"3"},{"address3":"Katcha Tank Nahan","state":"Himachal Pradesh","state_code":"11","district":"Sirmaur","district_code":"032","address1":"Nahan(T)","address2":"","latitude":"30.6089","longitude":"77.3475","accuracy":"3"},{"address3":"Court Road Nahan","state":"Himachal Pradesh","state_code":"11","district":"Sirmaur","district_code":"032","address1":"Nahan(T)","address2":"","latitude":"30.6089","longitude":"77.3475","accuracy":"3"}],"173021":[{"address3":"Majra (Sirmaur)","state":"Himachal Pradesh","state_code":"11","district":"Sirmaur","district_code":"032","address1":"Paonta","address2":"","latitude":"30.4913","longitude":"77.5302","accuracy":"4"},{"address3":"Kotribyas","state":"Himachal Pradesh","state_code":"11","district":"Sirmaur","district_code":"032","address1":"Paonta","address2":"","latitude":"30.4913","longitude":"77.5302","accuracy":"3"},{"address3":"Misserwala","state":"Himachal Pradesh","state_code":"11","district":"Sirmaur","district_code":"032","address1":"Paonta","address2":"","latitude":"30.4913","longitude":"77.5302","accuracy":"3"},{"address3":"Sainwala Mubarakpur","state":"Himachal Pradesh","state_code":"11","district":"Sirmaur","district_code":"032","address1":"Paonta","address2":"","latitude":"30.4913","longitude":"77.5302","accuracy":"3"}],"173022":[{"address3":"Kansar","state":"Himachal Pradesh","state_code":"11","district":"Sirmaur","district_code":"032","address1":"Sangrah","address2":"","latitude":"30.5607","longitude":"77.4828","accuracy":"4"},{"address3":"Jamu","state":"Himachal Pradesh","state_code":"11","district":"Sirmaur","district_code":"032","address1":"Sangrah","address2":"","latitude":"30.6192","longitude":"77.4769","accuracy":"4"},{"address3":"Jarag","state":"Himachal Pradesh","state_code":"11","district":"Sirmaur","district_code":"032","address1":"Sangrah","address2":"","latitude":"30.6429","longitude":"77.4779","accuracy":"4"},{"address3":"Bharog Baneri","state":"Himachal Pradesh","state_code":"11","district":"Sirmaur","district_code":"032","address1":"Paonta","address2":"","latitude":"30.6019","longitude":"77.4545","accuracy":"3"},{"address3":"Panar","state":"Himachal Pradesh","state_code":"11","district":"Sirmaur","district_code":"032","address1":"Sangrah","address2":"","latitude":"30.626","longitude":"77.4165","accuracy":"4"},{"address3":"Birla","state":"Himachal Pradesh","state_code":"11","district":"Sirmaur","district_code":"032","address1":"Sangrah","address2":"","latitude":"30.5631","longitude":"77.4359","accuracy":"4"},{"address3":"Dadahu","state":"Himachal Pradesh","state_code":"11","district":"Sirmaur","district_code":"032","address1":"Sangrah","address2":"","latitude":"30.5992","longitude":"77.4367","accuracy":"4"},{"address3":"Thana Kashoga","state":"Himachal Pradesh","state_code":"11","district":"Sirmaur","district_code":"032","address1":"NA","address2":"","latitude":"30.6019","longitude":"77.4545","accuracy":"3"},{"address3":"Udaina Kathwar","state":"Himachal Pradesh","state_code":"11","district":"Sirmaur","district_code":"032","address1":"NA","address2":"","latitude":"30.6019","longitude":"77.4545","accuracy":"3"},{"address3":"Kangta Failag","state":"Himachal Pradesh","state_code":"11","district":"Sirmaur","district_code":"032","address1":"Sangrah","address2":"","latitude":"30.6019","longitude":"77.4545","accuracy":"3"},{"address3":"Kotidhiman","state":"Himachal Pradesh","state_code":"11","district":"Sirmaur","district_code":"032","address1":"Sangrah","address2":"","latitude":"30.6019","longitude":"77.4545","accuracy":"3"},{"address3":"Bhatgarh","state":"Himachal Pradesh","state_code":"11","district":"Sirmaur","district_code":"032","address1":"Sangrah","address2":"","latitude":"30.6019","longitude":"77.4545","accuracy":"3"}],"173023":[{"address3":"Andheri","state":"Himachal Pradesh","state_code":"11","district":"Sirmaur","district_code":"032","address1":"Sangrah","address2":"","latitude":"30.7139","longitude":"77.4622","accuracy":"4"},{"address3":"Sainj","state":"Himachal Pradesh","state_code":"11","district":"Sirmaur","district_code":"032","address1":"Sangrah","address2":"","latitude":"30.6483","longitude":"77.353","accuracy":"4"},{"address3":"Sangrah","state":"Himachal Pradesh","state_code":"11","district":"Sirmaur","district_code":"032","address1":"Sangrah","address2":"","latitude":"30.6969","longitude":"77.4197","accuracy":"4"},{"address3":"Redali","state":"Himachal Pradesh","state_code":"11","district":"Sirmaur","district_code":"032","address1":"Sangrah","address2":"","latitude":"30.6808","longitude":"77.4204","accuracy":"3"},{"address3":"Rajana","state":"Himachal Pradesh","state_code":"11","district":"Sirmaur","district_code":"032","address1":"Sangarh","address2":"","latitude":"30.6642","longitude":"77.4466","accuracy":"4"},{"address3":"Bhajond","state":"Himachal Pradesh","state_code":"11","district":"Sirmaur","district_code":"032","address1":"Sangrah","address2":"","latitude":"30.6808","longitude":"77.4204","accuracy":"3"},{"address3":"Seon","state":"Himachal Pradesh","state_code":"11","district":"Sirmaur","district_code":"032","address1":"Sangrah","address2":"","latitude":"30.6808","longitude":"77.4204","accuracy":"3"},{"address3":"Lanapalar","state":"Himachal Pradesh","state_code":"11","district":"Sirmaur","district_code":"032","address1":"Sangrah","address2":"","latitude":"30.6808","longitude":"77.4204","accuracy":"3"},{"address3":"BaragB.O","state":"Himachal Pradesh","state_code":"11","district":"Sirmaur","district_code":"032","address1":"Sangrah","address2":"","latitude":"30.6808","longitude":"77.4204","accuracy":"3"}],"173024":[{"address3":"Thakurdwara","state":"Himachal Pradesh","state_code":"11","district":"Sirmaur","district_code":"032","address1":"Pachhad","address2":"","latitude":"30.6676","longitude":"77.431","accuracy":"4"},{"address3":"Malhoti","state":"Himachal Pradesh","state_code":"11","district":"Sirmaur","district_code":"032","address1":"Pachhad","address2":"","latitude":"30.7795","longitude":"77.1907","accuracy":"4"},{"address3":"Sharia","state":"Himachal Pradesh","state_code":"11","district":"Sirmaur","district_code":"032","address1":"Pachhad","address2":"","latitude":"30.6676","longitude":"77.431","accuracy":"4"},{"address3":"Banahki Ser","state":"Himachal Pradesh","state_code":"11","district":"Sirmaur","district_code":"032","address1":"Pachhad","address2":"","latitude":"31.0318","longitude":"77.1058","accuracy":"3"},{"address3":"Narag","state":"Himachal Pradesh","state_code":"11","district":"Sirmaur","district_code":"032","address1":"Pachhad","address2":"","latitude":"30.8182","longitude":"77.1895","accuracy":"4"},{"address3":"Sarahan","state":"Himachal Pradesh","state_code":"11","district":"Sirmaur","district_code":"032","address1":"Pachhad","address2":"","latitude":"30.7189","longitude":"77.1913","accuracy":"4"},{"address3":"Janot","state":"Himachal Pradesh","state_code":"11","district":"Sirmaur","district_code":"032","address1":"Pachhad","address2":"","latitude":"30.7139","longitude":"77.2956","accuracy":"4"},{"address3":"Bhellon","state":"Himachal Pradesh","state_code":"11","district":"Sirmaur","district_code":"032","address1":"Pachhad","address2":"","latitude":"31.0318","longitude":"77.1058","accuracy":"3"},{"address3":"Mangarh","state":"Himachal Pradesh","state_code":"11","district":"Sirmaur","district_code":"032","address1":"Pachhad","address2":"","latitude":"30.7505","longitude":"77.2516","accuracy":"4"},{"address3":"Mehandobag","state":"Himachal Pradesh","state_code":"11","district":"Sirmaur","district_code":"032","address1":"Pachhad","address2":"","latitude":"31.0318","longitude":"77.1058","accuracy":"3"},{"address3":"Dhangiar","state":"Himachal Pradesh","state_code":"11","district":"Sirmaur","district_code":"032","address1":"Pachhad","address2":"","latitude":"30.7602","longitude":"77.0977","accuracy":"4"},{"address3":"Jehar","state":"Himachal Pradesh","state_code":"11","district":"Sirmaur","district_code":"032","address1":"Pachhad","address2":"","latitude":"31.0318","longitude":"77.1058","accuracy":"3"},{"address3":"Wasni","state":"Himachal Pradesh","state_code":"11","district":"Sirmaur","district_code":"032","address1":"Pachhad","address2":"","latitude":"30.7994","longitude":"77.2279","accuracy":"4"},{"address3":"Daro Devria","state":"Himachal Pradesh","state_code":"11","district":"Sirmaur","district_code":"032","address1":"Pachhad","address2":"","latitude":"31.0318","longitude":"77.1058","accuracy":"3"},{"address3":"Sarsoo","state":"Himachal Pradesh","state_code":"11","district":"Sirmaur","district_code":"032","address1":"Pachhad","address2":"","latitude":"31.0318","longitude":"77.1058","accuracy":"3"},{"address3":"Tikkari Kuthar","state":"Himachal Pradesh","state_code":"11","district":"Sirmaur","district_code":"032","address1":"Pachhad","address2":"","latitude":"31.0318","longitude":"77.1058","accuracy":"3"},{"address3":"Upron","state":"Himachal Pradesh","state_code":"11","district":"Sirmaur","district_code":"032","address1":"Pachhad","address2":"","latitude":"31.0318","longitude":"77.1058","accuracy":"3"},{"address3":"Bagpashog","state":"Himachal Pradesh","state_code":"11","district":"Sirmaur","district_code":"032","address1":"Pachhad","address2":"","latitude":"31.0318","longitude":"77.1058","accuracy":"3"}],"173025":[{"address3":"SHIVA","state":"Himachal Pradesh","state_code":"11","district":"Sirmaur","district_code":"032","address1":"Paonta","address2":"","latitude":"30.6676","longitude":"77.431","accuracy":"4"},{"address3":"Paonta Sahib","state":"Himachal Pradesh","state_code":"11","district":"Sirmaur","district_code":"032","address1":"Paonta","address2":"","latitude":"30.4367","longitude":"77.6246","accuracy":"4"},{"address3":"Shivpur","state":"Himachal Pradesh","state_code":"11","district":"Sirmaur","district_code":"032","address1":"Paonta","address2":"","latitude":"30.4797","longitude":"77.6736","accuracy":"4"},{"address3":"Nagheta","state":"Himachal Pradesh","state_code":"11","district":"Sirmaur","district_code":"032","address1":"Paonta","address2":"","latitude":"30.5474","longitude":"77.7664","accuracy":"4"},{"address3":"Nihalgarh","state":"Himachal Pradesh","state_code":"11","district":"Sirmaur","district_code":"032","address1":"Paonta","address2":"","latitude":"30.472","longitude":"77.6331","accuracy":"4"},{"address3":"Khodri","state":"Himachal Pradesh","state_code":"11","district":"Sirmaur","district_code":"032","address1":"Paonta","address2":"","latitude":"30.7334","longitude":"77.577","accuracy":"3"},{"address3":"Gorkhuwala","state":"Himachal Pradesh","state_code":"11","district":"Sirmaur","district_code":"032","address1":"Paonta","address2":"","latitude":"30.5057","longitude":"77.6968","accuracy":"4"},{"address3":"Rajpur","state":"Himachal Pradesh","state_code":"11","district":"Sirmaur","district_code":"032","address1":"Paonta","address2":"","latitude":"30.5436","longitude":"77.7267","accuracy":"4"},{"address3":"Danda Anj","state":"Himachal Pradesh","state_code":"11","district":"Sirmaur","district_code":"032","address1":"Paonta","address2":"","latitude":"30.7334","longitude":"77.577","accuracy":"3"},{"address3":"Bata Mandi","state":"Himachal Pradesh","state_code":"11","district":"Sirmaur","district_code":"032","address1":"Paonta","address2":"","latitude":"30.6676","longitude":"77.431","accuracy":"4"},{"address3":"Manpur Devra","state":"Himachal Pradesh","state_code":"11","district":"Sirmaur","district_code":"032","address1":"Paonta","address2":"","latitude":"30.7334","longitude":"77.577","accuracy":"3"},{"address3":"Ganguwala Jamniwala","state":"Himachal Pradesh","state_code":"11","district":"Sirmaur","district_code":"032","address1":"Paonta","address2":"","latitude":"30.7334","longitude":"77.577","accuracy":"3"},{"address3":"Bhudhana","state":"Himachal Pradesh","state_code":"11","district":"Sirmaur","district_code":"032","address1":"Paonta","address2":"","latitude":"30.7334","longitude":"77.577","accuracy":"3"},{"address3":"Bhagani","state":"Himachal Pradesh","state_code":"11","district":"Sirmaur","district_code":"032","address1":"Paonta","address2":"","latitude":"30.7334","longitude":"77.577","accuracy":"3"},{"address3":"Banaur","state":"Himachal Pradesh","state_code":"11","district":"Sirmaur","district_code":"032","address1":"Paonta","address2":"","latitude":"30.7334","longitude":"77.577","accuracy":"3"}],"173026":[{"address3":"Kw Bhood","state":"Himachal Pradesh","state_code":"11","district":"Sirmaur","district_code":"032","address1":"Nahan","address2":"","latitude":"30.7399","longitude":"77.4603","accuracy":"1"}],"173027":[{"address3":"BaliKoti ","state":"Himachal Pradesh","state_code":"11","district":"Sirmaur","district_code":"032","address1":"Shillai","address2":"","latitude":"30.7039","longitude":"77.6559","accuracy":"3"},{"address3":"Jhakando","state":"Himachal Pradesh","state_code":"11","district":"Sirmaur","district_code":"032","address1":"Shillai","address2":"","latitude":"30.7039","longitude":"77.6559","accuracy":"3"},{"address3":"Manal","state":"Himachal Pradesh","state_code":"11","district":"Sirmaur","district_code":"032","address1":"Shillai","address2":"","latitude":"30.6731","longitude":"77.6693","accuracy":"4"},{"address3":"Kando Bhatnaul","state":"Himachal Pradesh","state_code":"11","district":"Sirmaur","district_code":"032","address1":"Shilla","address2":"","latitude":"30.7039","longitude":"77.6559","accuracy":"3"},{"address3":"Panog","state":"Himachal Pradesh","state_code":"11","district":"Sirmaur","district_code":"032","address1":"Shillai","address2":"","latitude":"30.7339","longitude":"77.6233","accuracy":"4"},{"address3":"Shillai","state":"Himachal Pradesh","state_code":"11","district":"Sirmaur","district_code":"032","address1":"Shillai","address2":"","latitude":"30.7039","longitude":"77.6559","accuracy":"3"},{"address3":"Kotibhunch","state":"Himachal Pradesh","state_code":"11","district":"Sirmaur","district_code":"032","address1":"Shillai","address2":"","latitude":"30.7039","longitude":"77.6559","accuracy":"3"},{"address3":"Jarwa","state":"Himachal Pradesh","state_code":"11","district":"Sirmaur","district_code":"032","address1":"Shillai","address2":"","latitude":"30.7494","longitude":"77.5983","accuracy":"4"},{"address3":"Gawali","state":"Himachal Pradesh","state_code":"11","district":"Sirmaur","district_code":"032","address1":"Shillai","address2":"","latitude":"30.6593","longitude":"77.7328","accuracy":"4"},{"address3":"Hallan","state":"Himachal Pradesh","state_code":"11","district":"Sirmaur","district_code":"032","address1":"Shillai","address2":"","latitude":"30.7039","longitude":"77.6559","accuracy":"3"},{"address3":"Bella","state":"Himachal Pradesh","state_code":"11","district":"Sirmaur","district_code":"032","address1":"Shilai","address2":"","latitude":"30.7039","longitude":"77.6559","accuracy":"3"},{"address3":"Shirikiari","state":"Himachal Pradesh","state_code":"11","district":"Sirmaur","district_code":"032","address1":"Shillai","address2":"","latitude":"30.7039","longitude":"77.6559","accuracy":"3"},{"address3":"Ronhat","state":"Himachal Pradesh","state_code":"11","district":"Sirmaur","district_code":"032","address1":"Shilai","address2":"","latitude":"30.7039","longitude":"77.6559","accuracy":"3"},{"address3":"Kharkah","state":"Himachal Pradesh","state_code":"11","district":"Sirmaur","district_code":"032","address1":"Paonta","address2":"","latitude":"30.7039","longitude":"77.6559","accuracy":"3"},{"address3":"Nainidhar","state":"Himachal Pradesh","state_code":"11","district":"Sirmaur","district_code":"032","address1":"Shillai","address2":"","latitude":"30.7039","longitude":"77.6559","accuracy":"3"},{"address3":"Loza","state":"Himachal Pradesh","state_code":"11","district":"Sirmaur","district_code":"032","address1":"Shillai","address2":"","latitude":"30.7039","longitude":"77.6559","accuracy":"3"}],"173029":[{"address3":"Dugana","state":"Himachal Pradesh","state_code":"11","district":"Sirmaur","district_code":"032","address1":"Paonta","address2":"","latitude":"30.6117","longitude":"77.6956","accuracy":"4"},{"address3":"Kantimashwa","state":"Himachal Pradesh","state_code":"11","district":"Sirmaur","district_code":"032","address1":"Paonta","address2":"","latitude":"30.6156","longitude":"77.6379","accuracy":"3"},{"address3":"Poka","state":"Himachal Pradesh","state_code":"11","district":"Sirmaur","district_code":"032","address1":"Paonta","address2":"","latitude":"30.5564","longitude":"77.6633","accuracy":"4"},{"address3":"Bakras","state":"Himachal Pradesh","state_code":"11","district":"Sirmaur","district_code":"032","address1":"Shillai","address2":"","latitude":"30.6679","longitude":"77.5855","accuracy":"4"},{"address3":"Sharlimanpur","state":"Himachal Pradesh","state_code":"11","district":"Sirmaur","district_code":"032","address1":"Paonta","address2":"","latitude":"30.6156","longitude":"77.6379","accuracy":"3"},{"address3":"Shilla","state":"Himachal Pradesh","state_code":"11","district":"Sirmaur","district_code":"032","address1":"Shillai","address2":"","latitude":"30.6301","longitude":"77.6858","accuracy":"4"},{"address3":"Korga","state":"Himachal Pradesh","state_code":"11","district":"Sirmaur","district_code":"032","address1":"Paonta","address2":"","latitude":"30.5917","longitude":"77.5859","accuracy":"4"},{"address3":"Harlog","state":"Himachal Pradesh","state_code":"11","district":"Sirmaur","district_code":"032","address1":"Sangrah","address2":"","latitude":"30.6156","longitude":"77.6379","accuracy":"3"},{"address3":"Rajban","state":"Himachal Pradesh","state_code":"11","district":"Sirmaur","district_code":"032","address1":"Paonta","address2":"","latitude":"30.5263","longitude":"77.6628","accuracy":"4"},{"address3":"Jamna","state":"Himachal Pradesh","state_code":"11","district":"Sirmaur","district_code":"032","address1":"Paonta","address2":"","latitude":"30.7433","longitude":"77.5695","accuracy":"4"},{"address3":"Kiari Gundah","state":"Himachal Pradesh","state_code":"11","district":"Sirmaur","district_code":"032","address1":"Shillai","address2":"","latitude":"30.6156","longitude":"77.6379","accuracy":"3"},{"address3":"Sataun","state":"Himachal Pradesh","state_code":"11","district":"Sirmaur","district_code":"032","address1":"Paonta","address2":"","latitude":"30.5579","longitude":"77.6392","accuracy":"4"},{"address3":"Timbi","state":"Himachal Pradesh","state_code":"11","district":"Sirmaur","district_code":"032","address1":"Shillai","address2":"","latitude":"30.6551","longitude":"77.6533","accuracy":"4"},{"address3":"Millah","state":"Himachal Pradesh","state_code":"11","district":"Sirmaur","district_code":"032","address1":"Shillai","address2":"","latitude":"30.6156","longitude":"77.6379","accuracy":"3"},{"address3":"Tatiana","state":"Himachal Pradesh","state_code":"11","district":"Sirmaur","district_code":"032","address1":"Paonta","address2":"","latitude":"30.6156","longitude":"77.6379","accuracy":"3"},{"address3":"Shawaga","state":"Himachal Pradesh","state_code":"11","district":"Sirmaur","district_code":"032","address1":"NA","address2":"","latitude":"30.6156","longitude":"77.6379","accuracy":"3"},{"address3":"Koti Utraon","state":"Himachal Pradesh","state_code":"11","district":"Sirmaur","district_code":"032","address1":"Shillai","address2":"","latitude":"30.6156","longitude":"77.6379","accuracy":"3"},{"address3":"Chhachheti","state":"Himachal Pradesh","state_code":"11","district":"Sirmaur","district_code":"032","address1":"Paonta","address2":"","latitude":"30.6156","longitude":"77.6379","accuracy":"3"},{"address3":"Kamrau","state":"Himachal Pradesh","state_code":"11","district":"Sirmaur","district_code":"032","address1":"Paonta","address2":"","latitude":"30.6156","longitude":"77.6379","accuracy":"3"}],"173030":[{"address3":"Sainwala","state":"Himachal Pradesh","state_code":"11","district":"Sirmaur","district_code":"032","address1":"Nahan","address2":"","latitude":"30.544","longitude":"77.2541","accuracy":"4"},{"address3":"Moginand","state":"Himachal Pradesh","state_code":"11","district":"Sirmaur","district_code":"032","address1":"Nahan","address2":"","latitude":"30.5163","longitude":"77.2488","accuracy":"4"},{"address3":"Bramapapri","state":"Himachal Pradesh","state_code":"11","district":"Sirmaur","district_code":"032","address1":"Nahan","address2":"","latitude":"30.532","longitude":"77.2221","accuracy":"3"},{"address3":"Kala Amb","state":"Himachal Pradesh","state_code":"11","district":"Sirmaur","district_code":"032","address1":"Nahan","address2":"","latitude":"30.4972","longitude":"77.2136","accuracy":"4"},{"address3":"Palion","state":"Himachal Pradesh","state_code":"11","district":"Sirmaur","district_code":"032","address1":"Nahan","address2":"","latitude":"30.5622","longitude":"77.185","accuracy":"4"},{"address3":"Trilokpur","state":"Himachal Pradesh","state_code":"11","district":"Sirmaur","district_code":"032","address1":"Nahan","address2":"","latitude":"30.5402","longitude":"77.2091","accuracy":"4"}],"173031":[{"address3":"Dhualakuan","state":"Himachal Pradesh","state_code":"11","district":"Sirmaur","district_code":"032","address1":"Poanta Sahib","address2":"","latitude":"30.5667","longitude":"77.3474","accuracy":"1"},{"address3":"Girinagar","state":"Himachal Pradesh","state_code":"11","district":"Sirmaur","district_code":"032","address1":"Poanta Sahib","address2":"","latitude":"30.5667","longitude":"77.3474","accuracy":"1"}],"173032":[{"address3":"Badol","state":"Himachal Pradesh","state_code":"11","district":"Sirmaur","district_code":"032","address1":"Sangarh","address2":"","latitude":"30.6246","longitude":"77.5561","accuracy":"3"},{"address3":"Bhawai","state":"Himachal Pradesh","state_code":"11","district":"Sirmaur","district_code":"032","address1":"Sangah","address2":"","latitude":"30.7616","longitude":"77.4822","accuracy":"4"},{"address3":"Sangana","state":"Himachal Pradesh","state_code":"11","district":"Sirmaur","district_code":"032","address1":"Sangrah","address2":"","latitude":"30.6246","longitude":"77.5561","accuracy":"3"},{"address3":"Charna","state":"Himachal Pradesh","state_code":"11","district":"Sirmaur","district_code":"032","address1":"Sangarha","address2":"","latitude":"30.6327","longitude":"77.5125","accuracy":"4"},{"address3":"Bhalona","state":"Himachal Pradesh","state_code":"11","district":"Sirmaur","district_code":"032","address1":"Sangrah","address2":"","latitude":"30.6246","longitude":"77.5561","accuracy":"3"},{"address3":"Shivpur","state":"Himachal Pradesh","state_code":"11","district":"Sirmaur","district_code":"032","address1":"Sangrah","address2":"","latitude":"30.4797","longitude":"77.6736","accuracy":"4"},{"address3":"Korag","state":"Himachal Pradesh","state_code":"11","district":"Sirmaur","district_code":"032","address1":"Sangrah","address2":"","latitude":"30.6246","longitude":"77.5561","accuracy":"3"},{"address3":"Haripurdhar","state":"Himachal Pradesh","state_code":"11","district":"Sirmaur","district_code":"032","address1":"Sangrah","address2":"","latitude":"30.6246","longitude":"77.5561","accuracy":"3"}],"173101":[{"address3":"Chhapang","state":"Himachal Pradesh","state_code":"11","district":"Sirmaur","district_code":"032","address1":"Pachhad","address2":"","latitude":"30.7385","longitude":"77.3152","accuracy":"4"},{"address3":"Kathali Bharan","state":"Himachal Pradesh","state_code":"11","district":"Sirmaur","district_code":"032","address1":"Rajgarh","address2":"","latitude":"30.7385","longitude":"77.3152","accuracy":"3"},{"address3":"Rajgarh (Siramur)","state":"Himachal Pradesh","state_code":"11","district":"Sirmaur","district_code":"032","address1":"Rajgarh","address2":"","latitude":"30.7385","longitude":"77.3152","accuracy":"3"},{"address3":"Pabiana","state":"Himachal Pradesh","state_code":"11","district":"Sirmaur","district_code":"032","address1":"Rajgarh","address2":"","latitude":"30.7385","longitude":"77.3152","accuracy":"3"},{"address3":"Ser Jegas","state":"Himachal Pradesh","state_code":"11","district":"Sirmaur","district_code":"032","address1":"Rajgarh","address2":"","latitude":"30.7385","longitude":"77.3152","accuracy":"3"},{"address3":"Rerughatti","state":"Himachal Pradesh","state_code":"11","district":"Sirmaur","district_code":"032","address1":"Rajgarh","address2":"","latitude":"30.7385","longitude":"77.3152","accuracy":"3"},{"address3":"Churwadhar","state":"Himachal Pradesh","state_code":"11","district":"Sirmaur","district_code":"032","address1":"Rajgarh","address2":"","latitude":"30.7385","longitude":"77.3152","accuracy":"3"},{"address3":"Sanio Didag","state":"Himachal Pradesh","state_code":"11","district":"Sirmaur","district_code":"032","address1":"Rajgarh","address2":"","latitude":"30.7385","longitude":"77.3152","accuracy":"3"},{"address3":"Chhogtali","state":"Himachal Pradesh","state_code":"11","district":"Sirmaur","district_code":"032","address1":"Rajgarah","address2":"","latitude":"30.7385","longitude":"77.3152","accuracy":"3"},{"address3":"Bhuira","state":"Himachal Pradesh","state_code":"11","district":"Sirmaur","district_code":"032","address1":"Rajgarh","address2":"","latitude":"30.7385","longitude":"77.3152","accuracy":"3"},{"address3":"Shaya Chabron","state":"Himachal Pradesh","state_code":"11","district":"Sirmaur","district_code":"032","address1":"Rajgarh","address2":"","latitude":"30.7385","longitude":"77.3152","accuracy":"3"},{"address3":"Thorniwar","state":"Himachal Pradesh","state_code":"11","district":"Sirmaur","district_code":"032","address1":"Rajgarh","address2":"","latitude":"30.7385","longitude":"77.3152","accuracy":"3"},{"address3":"Dimber","state":"Himachal Pradesh","state_code":"11","district":"Sirmaur","district_code":"032","address1":"Rajgarh","address2":"","latitude":"30.7385","longitude":"77.3152","accuracy":"3"},{"address3":"Dahan","state":"Himachal Pradesh","state_code":"11","district":"Sirmaur","district_code":"032","address1":"Rajgarh","address2":"","latitude":"30.7385","longitude":"77.3152","accuracy":"3"},{"address3":"Habban","state":"Himachal Pradesh","state_code":"11","district":"Sirmaur","district_code":"032","address1":"Rajgarh","address2":"","latitude":"30.7385","longitude":"77.3152","accuracy":"3"},{"address3":"Baru Sahib","state":"Himachal Pradesh","state_code":"11","district":"Sirmaur","district_code":"032","address1":"Pachhad","address2":"","latitude":"30.7385","longitude":"77.3152","accuracy":"3"}],"173104":[{"address3":"Chokar","state":"Himachal Pradesh","state_code":"11","district":"Sirmaur","district_code":"032","address1":"Sangrah","address2":"","latitude":"30.7728","longitude":"77.406","accuracy":"4"},{"address3":"Devna","state":"Himachal Pradesh","state_code":"11","district":"Sirmaur","district_code":"032","address1":"Sangrah","address2":"","latitude":"30.7728","longitude":"77.406","accuracy":"3"},{"address3":"Bogdhar","state":"Himachal Pradesh","state_code":"11","district":"Sirmaur","district_code":"032","address1":"Sangrah","address2":"","latitude":"30.7728","longitude":"77.406","accuracy":"3"},{"address3":"Punner","state":"Himachal Pradesh","state_code":"11","district":"Sirmaur","district_code":"032","address1":"Sangrah","address2":"","latitude":"30.7728","longitude":"77.406","accuracy":"3"},{"address3":"Gandhoori","state":"Himachal Pradesh","state_code":"11","district":"Sirmaur","district_code":"032","address1":"Sangrah","address2":"","latitude":"30.7728","longitude":"77.406","accuracy":"3"},{"address3":"Nohra","state":"Himachal Pradesh","state_code":"11","district":"Sirmaur","district_code":"032","address1":"Nohra","address2":"","latitude":"30.7728","longitude":"77.406","accuracy":"3"},{"address3":"Lanacheta","state":"Himachal Pradesh","state_code":"11","district":"Sirmaur","district_code":"032","address1":"Sangrah","address2":"","latitude":"30.7728","longitude":"77.406","accuracy":"3"},{"address3":"Kuffar Kiara","state":"Himachal Pradesh","state_code":"11","district":"Sirmaur","district_code":"032","address1":"Sangrah","address2":"","latitude":"30.7728","longitude":"77.406","accuracy":"3"},{"address3":"Devamanal","state":"Himachal Pradesh","state_code":"11","district":"Sirmaur","district_code":"032","address1":"Sangarah","address2":"","latitude":"30.7728","longitude":"77.406","accuracy":"3"},{"address3":"Sertandula","state":"Himachal Pradesh","state_code":"11","district":"Sirmaur","district_code":"032","address1":"Sangarh","address2":"","latitude":"30.7728","longitude":"77.406","accuracy":"3"}],"173201":[{"address3":"Garkhal","state":"Himachal Pradesh","state_code":"11","district":"Solan","district_code":"031","address1":"NA","address2":"","latitude":"30.9014","longitude":"76.9819","accuracy":"4"}],"173202":[{"address3":"Sanawar","state":"Himachal Pradesh","state_code":"11","district":"Solan","district_code":"031","address1":"NA","address2":"","latitude":"30.8997","longitude":"76.9945","accuracy":"4"}],"173204":[{"address3":"Kasauli","state":"Himachal Pradesh","state_code":"11","district":"Solan","district_code":"031","address1":"NA","address2":"","latitude":"30.8986","longitude":"76.9659","accuracy":"4"},{"address3":"KASAULI M T","state":"Himachal Pradesh","state_code":"11","district":"Solan","district_code":"031","address1":"Kasauli","address2":"","latitude":"30.8986","longitude":"76.9659","accuracy":"3"},{"address3":"Kasauli RI","state":"Himachal Pradesh","state_code":"11","district":"Solan","district_code":"031","address1":"Kasauli(T)","address2":"","latitude":"30.8986","longitude":"76.9659","accuracy":"3"}],"173205":[{"address3":"Baddi","state":"Himachal Pradesh","state_code":"11","district":"Solan","district_code":"031","address1":"Nalagarh","address2":"","latitude":"30.9578","longitude":"76.7914","accuracy":"4"},{"address3":"Karuana","state":"Himachal Pradesh","state_code":"11","district":"Solan","district_code":"031","address1":"Nalagarh","address2":"","latitude":"30.951","longitude":"76.8041","accuracy":"4"},{"address3":"Thana","state":"Himachal Pradesh","state_code":"11","district":"Solan","district_code":"031","address1":"Nalagarh","address2":"","latitude":"30.9755","longitude":"76.8067","accuracy":"4"},{"address3":"Sai","state":"Himachal Pradesh","state_code":"11","district":"Solan","district_code":"031","address1":"Nalagarh","address2":"","latitude":"31.0429","longitude":"76.9095","accuracy":"4"},{"address3":"Haripur Sandoli","state":"Himachal Pradesh","state_code":"11","district":"Solan","district_code":"031","address1":"Nalagarh","address2":"","latitude":"31.0394","longitude":"76.7941","accuracy":"3"},{"address3":"Bhatoli Kalan","state":"Himachal Pradesh","state_code":"11","district":"Solan","district_code":"031","address1":"NA","address2":"","latitude":"31.0394","longitude":"76.7941","accuracy":"3"},{"address3":"Bhood","state":"Himachal Pradesh","state_code":"11","district":"Solan","district_code":"031","address1":"Nalagarh","address2":"","latitude":"31.0394","longitude":"76.7941","accuracy":"3"}],"173206":[{"address3":"Subathu","state":"Himachal Pradesh","state_code":"11","district":"Solan","district_code":"031","address1":"NA","address2":"","latitude":"30.9749","longitude":"76.9914","accuracy":"4"},{"address3":"Kakkar Hatti","state":"Himachal Pradesh","state_code":"11","district":"Solan","district_code":"031","address1":"NA","address2":"","latitude":"30.9743","longitude":"76.9776","accuracy":"3"},{"address3":"Bharti","state":"Himachal Pradesh","state_code":"11","district":"Solan","district_code":"031","address1":"NA","address2":"","latitude":"31.0028","longitude":"77.0111","accuracy":"4"},{"address3":"Haripur","state":"Himachal Pradesh","state_code":"11","district":"Solan","district_code":"031","address1":"NA","address2":"","latitude":"30.9295","longitude":"76.8789","accuracy":"4"},{"address3":"Delgi","state":"Himachal Pradesh","state_code":"11","district":"Solan","district_code":"031","address1":"NA","address2":"","latitude":"30.9899","longitude":"77.0289","accuracy":"4"}],"173207":[{"address3":"Kahala","state":"Himachal Pradesh","state_code":"11","district":"Solan","district_code":"031","address1":"Kandaghat","address2":"","latitude":"31.0429","longitude":"76.9095","accuracy":"4"},{"address3":"Khararhatti","state":"Himachal Pradesh","state_code":"11","district":"Solan","district_code":"031","address1":"Arki","address2":"","latitude":"30.9272","longitude":"77.1624","accuracy":"3"},{"address3":"Koti","state":"Himachal Pradesh","state_code":"11","district":"Solan","district_code":"031","address1":"Solan","address2":"","latitude":"30.8912","longitude":"76.8833","accuracy":"4"},{"address3":"Kunihar","state":"Himachal Pradesh","state_code":"11","district":"Solan","district_code":"031","address1":"Arki","address2":"","latitude":"30.9272","longitude":"77.1624","accuracy":"3"},{"address3":"Sayri","state":"Himachal Pradesh","state_code":"11","district":"Solan","district_code":"031","address1":"Kandaghat","address2":"","latitude":"30.9272","longitude":"77.1624","accuracy":"3"},{"address3":"Jubla","state":"Himachal Pradesh","state_code":"11","district":"Solan","district_code":"031","address1":"Arki","address2":"","latitude":"30.9272","longitude":"77.1624","accuracy":"3"},{"address3":"Shardaghat","state":"Himachal Pradesh","state_code":"11","district":"Solan","district_code":"031","address1":"Solan","address2":"","latitude":"30.9272","longitude":"77.1624","accuracy":"3"},{"address3":"Bhainch Kuftoo","state":"Himachal Pradesh","state_code":"11","district":"Solan","district_code":"031","address1":"Kandaghat","address2":"","latitude":"30.9272","longitude":"77.1624","accuracy":"3"},{"address3":"Brauri","state":"Himachal Pradesh","state_code":"11","district":"Solan","district_code":"031","address1":"Solan","address2":"","latitude":"30.9272","longitude":"77.1624","accuracy":"3"},{"address3":"DheolaB.O","state":"Himachal Pradesh","state_code":"11","district":"Solan","district_code":"031","address1":"Arki","address2":"","latitude":"30.9272","longitude":"77.1624","accuracy":"3"}],"173208":[{"address3":"Arki","state":"Himachal Pradesh","state_code":"11","district":"Solan","district_code":"031","address1":"Kandaghat","address2":"","latitude":"31.152","longitude":"76.9668","accuracy":"4"},{"address3":"Palog","state":"Himachal Pradesh","state_code":"11","district":"Solan","district_code":"031","address1":"Arki","address2":"","latitude":"31.0429","longitude":"76.9095","accuracy":"4"},{"address3":"Manjhyat","state":"Himachal Pradesh","state_code":"11","district":"Solan","district_code":"031","address1":"NA","address2":"","latitude":"31.2071","longitude":"76.8999","accuracy":"3"},{"address3":"Shalaghat","state":"Himachal Pradesh","state_code":"11","district":"Solan","district_code":"031","address1":"Arki","address2":"","latitude":"31.2071","longitude":"76.8999","accuracy":"3"},{"address3":"Sujhaila","state":"Himachal Pradesh","state_code":"11","district":"Solan","district_code":"031","address1":"Arki","address2":"","latitude":"31.2071","longitude":"76.8999","accuracy":"3"},{"address3":"Palania","state":"Himachal Pradesh","state_code":"11","district":"Solan","district_code":"031","address1":"Arki","address2":"","latitude":"31.2071","longitude":"76.8999","accuracy":"3"},{"address3":"Manjoo","state":"Himachal Pradesh","state_code":"11","district":"Solan","district_code":"031","address1":"Arki","address2":"","latitude":"31.2071","longitude":"76.8999","accuracy":"3"},{"address3":"Bakhalag","state":"Himachal Pradesh","state_code":"11","district":"Solan","district_code":"031","address1":"Arki","address2":"","latitude":"31.2071","longitude":"76.8999","accuracy":"3"},{"address3":"Batal","state":"Himachal Pradesh","state_code":"11","district":"Solan","district_code":"031","address1":"Arki","address2":"","latitude":"31.2071","longitude":"76.8999","accuracy":"3"}],"173209":[{"address3":"Jabli","state":"Himachal Pradesh","state_code":"11","district":"Solan","district_code":"031","address1":"Kasauli","address2":"","latitude":"30.9002","longitude":"77.0472","accuracy":"4"},{"address3":"Kanda","state":"Himachal Pradesh","state_code":"11","district":"Solan","district_code":"031","address1":"Kasauli","address2":"","latitude":"30.9284","longitude":"77.0074","accuracy":"4"},{"address3":"Dharampur (Solan)","state":"Himachal Pradesh","state_code":"11","district":"Solan","district_code":"031","address1":"Kasauli","address2":"","latitude":"30.9143","longitude":"77.0273","accuracy":"3"},{"address3":"Dhar Ki Ber","state":"Himachal Pradesh","state_code":"11","district":"Solan","district_code":"031","address1":"Kasauli","address2":"","latitude":"30.9143","longitude":"77.0273","accuracy":"3"},{"address3":"Rouri","state":"Himachal Pradesh","state_code":"11","district":"Solan","district_code":"031","address1":"Kasauli","address2":"","latitude":"30.9143","longitude":"77.0273","accuracy":"3"},{"address3":"Mandodhar","state":"Himachal Pradesh","state_code":"11","district":"Solan","district_code":"031","address1":"Kasauli","address2":"","latitude":"30.9143","longitude":"77.0273","accuracy":"3"}],"173210":[{"address3":"Dagshai","state":"Himachal Pradesh","state_code":"11","district":"Solan","district_code":"031","address1":"Solan","address2":"","latitude":"30.8843","longitude":"77.0523","accuracy":"4"}],"173211":[{"address3":"Ghatti","state":"Himachal Pradesh","state_code":"11","district":"Solan","district_code":"031","address1":"Solan","address2":"","latitude":"30.7381","longitude":"77.089","accuracy":"3"},{"address3":"Deothi","state":"Himachal Pradesh","state_code":"11","district":"Solan","district_code":"031","address1":"Solan","address2":"","latitude":"31.0429","longitude":"76.9095","accuracy":"4"},{"address3":"Barog R.S.B.O","state":"Himachal Pradesh","state_code":"11","district":"Solan","district_code":"031","address1":"Solan","address2":"","latitude":"30.7381","longitude":"77.089","accuracy":"3"},{"address3":"Saproon","state":"Himachal Pradesh","state_code":"11","district":"Solan","district_code":"031","address1":"Solan","address2":"","latitude":"30.7381","longitude":"77.089","accuracy":"3"}],"173212":[{"address3":"Kotla","state":"Himachal Pradesh","state_code":"11","district":"Solan","district_code":"031","address1":"NA","address2":"","latitude":"30.9716","longitude":"77.1277","accuracy":"4"},{"address3":"RR Solan","state":"Himachal Pradesh","state_code":"11","district":"Solan","district_code":"031","address1":"Solan(T)","address2":"","latitude":"31.0916","longitude":"77.2657","accuracy":"3"},{"address3":"Gaura","state":"Himachal Pradesh","state_code":"11","district":"Solan","district_code":"031","address1":"NA","address2":"","latitude":"31.0429","longitude":"76.9095","accuracy":"4"},{"address3":"Solan H.O","state":"Himachal Pradesh","state_code":"11","district":"Solan","district_code":"031","address1":"Solan","address2":"","latitude":"31.0916","longitude":"77.2657","accuracy":"3"},{"address3":"Jaunaji","state":"Himachal Pradesh","state_code":"11","district":"Solan","district_code":"031","address1":"NA","address2":"","latitude":"30.8935","longitude":"77.1477","accuracy":"4"},{"address3":"Damkari","state":"Himachal Pradesh","state_code":"11","district":"Solan","district_code":"031","address1":"NA","address2":"","latitude":"31.0916","longitude":"77.2657","accuracy":"3"},{"address3":"Shamti","state":"Himachal Pradesh","state_code":"11","district":"Solan","district_code":"031","address1":"NA","address2":"","latitude":"31.0916","longitude":"77.2657","accuracy":"3"},{"address3":"Galanag","state":"Himachal Pradesh","state_code":"11","district":"Solan","district_code":"031","address1":"NA","address2":"","latitude":"31.0916","longitude":"77.2657","accuracy":"3"}],"173213":[{"address3":"Dharot","state":"Himachal Pradesh","state_code":"11","district":"Solan","district_code":"031","address1":"Solan","address2":"","latitude":"30.9554","longitude":"77.077","accuracy":"4"},{"address3":"Basal","state":"Himachal Pradesh","state_code":"11","district":"Solan","district_code":"031","address1":"Solan","address2":"","latitude":"30.9348","longitude":"77.0938","accuracy":"4"},{"address3":"Chambaghat","state":"Himachal Pradesh","state_code":"11","district":"Solan","district_code":"031","address1":"Solan","address2":"","latitude":"30.9451","longitude":"77.0854","accuracy":"3"}],"173214":[{"address3":"Solan Brewery","state":"Himachal Pradesh","state_code":"11","district":"Solan","district_code":"031","address1":"Solan","address2":"","latitude":"30.9635","longitude":"77.1628","accuracy":"1"},{"address3":"Salogra","state":"Himachal Pradesh","state_code":"11","district":"Solan","district_code":"031","address1":"Solan","address2":"","latitude":"30.9635","longitude":"77.1628","accuracy":"1"},{"address3":"Kasauli MT","state":"Himachal Pradesh","state_code":"11","district":"Solan","district_code":"031","address1":"Kasauli(T)","address2":"","latitude":"30.9635","longitude":"77.1628","accuracy":"1"}],"173215":[{"address3":"Kawarag","state":"Himachal Pradesh","state_code":"11","district":"Solan","district_code":"031","address1":"Kandaghat","address2":"","latitude":"30.9778","longitude":"77.1222","accuracy":"3"},{"address3":"Kandaghat","state":"Himachal Pradesh","state_code":"11","district":"Solan","district_code":"031","address1":"Kandaghat","address2":"","latitude":"30.9675","longitude":"77.1078","accuracy":"4"},{"address3":"Sadhupul","state":"Himachal Pradesh","state_code":"11","district":"Solan","district_code":"031","address1":"Kandaghat","address2":"","latitude":"30.9778","longitude":"77.1222","accuracy":"3"},{"address3":"Tundal","state":"Himachal Pradesh","state_code":"11","district":"Solan","district_code":"031","address1":"Kandaghat","address2":"","latitude":"30.9881","longitude":"77.1365","accuracy":"4"}],"173217":[{"address3":"Nagali","state":"Himachal Pradesh","state_code":"11","district":"Solan","district_code":"031","address1":"Kandaghat","address2":"","latitude":"30.9534","longitude":"77.2115","accuracy":"4"},{"address3":"Dangheel","state":"Himachal Pradesh","state_code":"11","district":"Solan","district_code":"031","address1":"Junga","address2":"","latitude":"30.9534","longitude":"77.2115","accuracy":"3"},{"address3":"Chail (Solan)","state":"Himachal Pradesh","state_code":"11","district":"Solan","district_code":"031","address1":"Kandaghat","address2":"","latitude":"30.9534","longitude":"77.2115","accuracy":"3"},{"address3":"Jhaja","state":"Himachal Pradesh","state_code":"11","district":"Solan","district_code":"031","address1":"Kandaghat","address2":"","latitude":"30.9534","longitude":"77.2115","accuracy":"3"},{"address3":"Hinner","state":"Himachal Pradesh","state_code":"11","district":"Solan","district_code":"031","address1":"Kandaghat","address2":"","latitude":"30.9534","longitude":"77.2115","accuracy":"3"},{"address3":"Tikker","state":"Himachal Pradesh","state_code":"11","district":"Solan","district_code":"031","address1":"Kandaghat","address2":"","latitude":"30.9534","longitude":"77.2115","accuracy":"3"},{"address3":"Dubloo","state":"Himachal Pradesh","state_code":"11","district":"Shimla","district_code":"033","address1":"Junga","address2":"","latitude":"30.9534","longitude":"77.2115","accuracy":"3"},{"address3":"Janedghat","state":"Himachal Pradesh","state_code":"11","district":"Shimla","district_code":"033","address1":"Junga","address2":"","latitude":"30.9534","longitude":"77.2115","accuracy":"3"},{"address3":"Peeran","state":"Himachal Pradesh","state_code":"11","district":"Shimla","district_code":"033","address1":"Kandaghat","address2":"","latitude":"30.9534","longitude":"77.2115","accuracy":"3"}],"173218":[{"address3":"Katal","state":"Himachal Pradesh","state_code":"11","district":"Solan","district_code":"031","address1":"Ramshahar","address2":"","latitude":"30.9022","longitude":"77.2256","accuracy":"4"},{"address3":"Diggal","state":"Himachal Pradesh","state_code":"11","district":"Solan","district_code":"031","address1":"Ramshahar","address2":"","latitude":"30.9022","longitude":"77.2256","accuracy":"3"},{"address3":"Maan","state":"Himachal Pradesh","state_code":"11","district":"Solan","district_code":"031","address1":"Arki","address2":"","latitude":"30.9022","longitude":"77.2256","accuracy":"3"},{"address3":"Badhokhari","state":"Himachal Pradesh","state_code":"11","district":"Solan","district_code":"031","address1":"Ramshahar","address2":"","latitude":"30.9022","longitude":"77.2256","accuracy":"3"},{"address3":"Badhalag","state":"Himachal Pradesh","state_code":"11","district":"Solan","district_code":"031","address1":"Ramshahar","address2":"","latitude":"30.9022","longitude":"77.2256","accuracy":"3"},{"address3":"Manlogkalan","state":"Himachal Pradesh","state_code":"11","district":"Solan","district_code":"031","address1":"Ramshahar","address2":"","latitude":"30.9022","longitude":"77.2256","accuracy":"3"}],"173220":[{"address3":"Parwanoo","state":"Himachal Pradesh","state_code":"11","district":"Solan","district_code":"031","address1":"NA","address2":"","latitude":"30.8372","longitude":"76.9614","accuracy":"4"},{"address3":"Masulkhana","state":"Himachal Pradesh","state_code":"11","district":"Solan","district_code":"031","address1":"NA","address2":"","latitude":"30.8372","longitude":"76.9759","accuracy":"3"},{"address3":"Sector-2 Parwanoo","state":"Himachal Pradesh","state_code":"11","district":"Solan","district_code":"031","address1":"Kasauli","address2":"","latitude":"30.8372","longitude":"76.9759","accuracy":"3"},{"address3":"Nayagram","state":"Himachal Pradesh","state_code":"11","district":"Solan","district_code":"031","address1":"NA","address2":"","latitude":"30.8254","longitude":"77.0052","accuracy":"4"},{"address3":"Pratha","state":"Himachal Pradesh","state_code":"11","district":"Solan","district_code":"031","address1":"NA","address2":"","latitude":"30.8372","longitude":"76.9759","accuracy":"3"},{"address3":"Taksal","state":"Himachal Pradesh","state_code":"11","district":"Solan","district_code":"031","address1":"NA","address2":"","latitude":"30.8489","longitude":"76.9612","accuracy":"4"}],"173221":[{"address3":"Bhumati","state":"Himachal Pradesh","state_code":"11","district":"Solan","district_code":"031","address1":"Arki","address2":"","latitude":"31.0387","longitude":"77.0186","accuracy":"1"},{"address3":"Domehar","state":"Himachal Pradesh","state_code":"11","district":"Solan","district_code":"031","address1":"Arki","address2":"","latitude":"31.0387","longitude":"77.0186","accuracy":"1"},{"address3":"Shehrol","state":"Himachal Pradesh","state_code":"11","district":"Solan","district_code":"031","address1":"Arki","address2":"","latitude":"31.0387","longitude":"77.0186","accuracy":"1"},{"address3":"Kunhar","state":"Himachal Pradesh","state_code":"11","district":"Solan","district_code":"031","address1":"Arki","address2":"","latitude":"31.0387","longitude":"77.0186","accuracy":"1"},{"address3":"Materani","state":"Himachal Pradesh","state_code":"11","district":"Solan","district_code":"031","address1":"Arki","address2":"","latitude":"31.0387","longitude":"77.0186","accuracy":"1"},{"address3":"Jobri","state":"Himachal Pradesh","state_code":"11","district":"Solan","district_code":"031","address1":"Arki","address2":"","latitude":"31.0387","longitude":"77.0186","accuracy":"1"},{"address3":"Jainagar","state":"Himachal Pradesh","state_code":"11","district":"Solan","district_code":"031","address1":"Arki","address2":"","latitude":"31.0387","longitude":"77.0186","accuracy":"1"},{"address3":"Balera","state":"Himachal Pradesh","state_code":"11","district":"Solan","district_code":"031","address1":"Arki","address2":"","latitude":"31.0387","longitude":"77.0186","accuracy":"1"}],"173222":[{"address3":"Mamlig","state":"Himachal Pradesh","state_code":"11","district":"Solan","district_code":"031","address1":"Kandaghat","address2":"","latitude":"31.0455","longitude":"77.034","accuracy":"4"}],"173223":[{"address3":"Oachghat","state":"Himachal Pradesh","state_code":"11","district":"Solan","district_code":"031","address1":"NA","address2":"","latitude":"31.7362","longitude":"76.7361","accuracy":"3"},{"address3":"Sanora","state":"Himachal Pradesh","state_code":"11","district":"Sirmaur","district_code":"032","address1":"Pajhota","address2":"","latitude":"30.9378","longitude":"77.3549","accuracy":"4"},{"address3":"Drabla","state":"Himachal Pradesh","state_code":"11","district":"Sirmaur","district_code":"032","address1":"Rajghar","address2":"","latitude":"30.6676","longitude":"77.431","accuracy":"4"},{"address3":"Karganoo Sanora","state":"Himachal Pradesh","state_code":"11","district":"Sirmaur","district_code":"032","address1":"NA","address2":"","latitude":"31.7362","longitude":"76.7361","accuracy":"3"},{"address3":"Kotla Bangi","state":"Himachal Pradesh","state_code":"11","district":"Sirmaur","district_code":"032","address1":"Rajghar","address2":"","latitude":"31.7362","longitude":"76.7361","accuracy":"3"},{"address3":"Kotla Panjola","state":"Himachal Pradesh","state_code":"11","district":"Sirmaur","district_code":"032","address1":"Pachhad","address2":"","latitude":"31.7362","longitude":"76.7361","accuracy":"3"},{"address3":"Shergaon","state":"Himachal Pradesh","state_code":"11","district":"Sirmaur","district_code":"032","address1":"NA","address2":"","latitude":"31.7362","longitude":"76.7361","accuracy":"3"},{"address3":"Leonana","state":"Himachal Pradesh","state_code":"11","district":"Sirmaur","district_code":"032","address1":"NA","address2":"","latitude":"31.7362","longitude":"76.7361","accuracy":"3"},{"address3":"Jadol Taproli","state":"Himachal Pradesh","state_code":"11","district":"Sirmaur","district_code":"032","address1":"Pajhota","address2":"","latitude":"31.7362","longitude":"76.7361","accuracy":"3"}],"173225":[{"address3":"Jagjit Nagar","state":"Himachal Pradesh","state_code":"11","district":"Solan","district_code":"031","address1":"NA","address2":"","latitude":"30.9934","longitude":"77.2054","accuracy":"3"},{"address3":"Kot","state":"Himachal Pradesh","state_code":"11","district":"Solan","district_code":"031","address1":"NA","address2":"","latitude":"30.9693","longitude":"77.0565","accuracy":"4"},{"address3":"Jubbar","state":"Himachal Pradesh","state_code":"11","district":"Solan","district_code":"031","address1":"NA","address2":"","latitude":"31.0429","longitude":"76.9095","accuracy":"4"}],"173229":[{"address3":"Bhojnagar","state":"Himachal Pradesh","state_code":"11","district":"Solan","district_code":"031","address1":"NA","address2":"","latitude":"30.8344","longitude":"77.0578","accuracy":"4"},{"address3":"Kabakalan","state":"Himachal Pradesh","state_code":"11","district":"Solan","district_code":"031","address1":"NA","address2":"","latitude":"30.9209","longitude":"77.0694","accuracy":"3"},{"address3":"Bohli","state":"Himachal Pradesh","state_code":"11","district":"Solan","district_code":"031","address1":"NA","address2":"","latitude":"31.0429","longitude":"76.9095","accuracy":"4"},{"address3":"Gaighat","state":"Himachal Pradesh","state_code":"11","district":"Solan","district_code":"031","address1":"NA","address2":"","latitude":"30.9209","longitude":"77.0694","accuracy":"3"},{"address3":"Kumarhatti","state":"Himachal Pradesh","state_code":"11","district":"Solan","district_code":"031","address1":"NA","address2":"","latitude":"30.889","longitude":"77.0593","accuracy":"4"},{"address3":"Sultanpur","state":"Himachal Pradesh","state_code":"11","district":"Solan","district_code":"031","address1":"NA","address2":"","latitude":"30.8618","longitude":"77.0972","accuracy":"4"},{"address3":"Panwa","state":"Himachal Pradesh","state_code":"11","district":"Sirmaur","district_code":"032","address1":"NA","address2":"","latitude":"30.6676","longitude":"77.431","accuracy":"4"},{"address3":"Naina Tikkar","state":"Himachal Pradesh","state_code":"11","district":"Sirmaur","district_code":"032","address1":"NA","address2":"","latitude":"30.9209","longitude":"77.0694","accuracy":"3"},{"address3":"Kujji","state":"Himachal Pradesh","state_code":"11","district":"Sirmaur","district_code":"032","address1":"NA","address2":"","latitude":"30.8244","longitude":"77.149","accuracy":"4"}],"173230":[{"address3":"Nauni","state":"Himachal Pradesh","state_code":"11","district":"Solan","district_code":"031","address1":"NA","address2":"","latitude":"31.0429","longitude":"76.9095","accuracy":"4"}],"173233":[{"address3":"Patta","state":"Himachal Pradesh","state_code":"11","district":"Solan","district_code":"031","address1":"NA","address2":"","latitude":"30.9585","longitude":"76.91","accuracy":"4"},{"address3":"Ekhoo","state":"Himachal Pradesh","state_code":"11","district":"Solan","district_code":"031","address1":"NA","address2":"","latitude":"30.9585","longitude":"76.91","accuracy":"3"},{"address3":"Bandh Bhaguri","state":"Himachal Pradesh","state_code":"11","district":"Solan","district_code":"031","address1":"NA","address2":"","latitude":"30.9585","longitude":"76.91","accuracy":"3"},{"address3":"Badhaunighat","state":"Himachal Pradesh","state_code":"11","district":"Solan","district_code":"031","address1":"NA","address2":"","latitude":"30.9585","longitude":"76.91","accuracy":"3"},{"address3":"Kot Beja","state":"Himachal Pradesh","state_code":"11","district":"Solan","district_code":"031","address1":"NA","address2":"","latitude":"30.9585","longitude":"76.91","accuracy":"3"}],"173234":[{"address3":"Kiarighat","state":"Himachal Pradesh","state_code":"11","district":"Solan","district_code":"031","address1":"Kandaghat","address2":"","latitude":"30.9981","longitude":"77.089","accuracy":"4"},{"address3":"Anji Brahamna","state":"Himachal Pradesh","state_code":"11","district":"Solan","district_code":"031","address1":"Kandaghat","address2":"","latitude":"31.0011","longitude":"77.0814","accuracy":"3"},{"address3":"Bisha","state":"Himachal Pradesh","state_code":"11","district":"Solan","district_code":"031","address1":"Kandaghat","address2":"","latitude":"31.0073","longitude":"77.1084","accuracy":"4"},{"address3":"Basha","state":"Himachal Pradesh","state_code":"11","district":"Solan","district_code":"031","address1":"Kandaghat","address2":"","latitude":"31.0011","longitude":"77.0814","accuracy":"3"},{"address3":"Chhausa","state":"Himachal Pradesh","state_code":"11","district":"Solan","district_code":"031","address1":"Kandaghat","address2":"","latitude":"30.998","longitude":"77.0468","accuracy":"4"},{"address3":"Domeharbani","state":"Himachal Pradesh","state_code":"11","district":"Solan","district_code":"031","address1":"Kandaghat","address2":"","latitude":"31.0011","longitude":"77.0814","accuracy":"3"},{"address3":"Waknaghat","state":"Himachal Pradesh","state_code":"11","district":"Solan","district_code":"031","address1":"Kandaghat","address2":"","latitude":"31.0011","longitude":"77.0814","accuracy":"3"},{"address3":"Kaithlighat","state":"Himachal Pradesh","state_code":"11","district":"Solan","district_code":"031","address1":"Kandaghat","address2":"","latitude":"31.0011","longitude":"77.0814","accuracy":"3"}],"173235":[{"address3":"Dhundan","state":"Himachal Pradesh","state_code":"11","district":"Solan","district_code":"031","address1":"Arki","address2":"","latitude":"31.0429","longitude":"76.9095","accuracy":"4"},{"address3":"Piplughat","state":"Himachal Pradesh","state_code":"11","district":"Solan","district_code":"031","address1":"Arki","address2":"","latitude":"31.2838","longitude":"77.1229","accuracy":"3"},{"address3":"Hanuman Barog","state":"Himachal Pradesh","state_code":"11","district":"Solan","district_code":"031","address1":"Arki","address2":"","latitude":"31.2838","longitude":"77.1229","accuracy":"3"},{"address3":"Saryanj","state":"Himachal Pradesh","state_code":"11","district":"Solan","district_code":"031","address1":"Arki","address2":"","latitude":"31.2838","longitude":"77.1229","accuracy":"3"},{"address3":"Bhararighat","state":"Himachal Pradesh","state_code":"11","district":"Solan","district_code":"031","address1":"Arki","address2":"","latitude":"31.2838","longitude":"77.1229","accuracy":"3"}],"173236":[{"address3":"Rampur","state":"Himachal Pradesh","state_code":"11","district":"Solan","district_code":"031","address1":"NA","address2":"","latitude":"30.974","longitude":"76.9621","accuracy":"4"},{"address3":"Chandi","state":"Himachal Pradesh","state_code":"11","district":"Solan","district_code":"031","address1":"NA","address2":"","latitude":"31.0064","longitude":"77.0346","accuracy":"3"},{"address3":"Baddal Goyla","state":"Himachal Pradesh","state_code":"11","district":"Solan","district_code":"031","address1":"NA","address2":"","latitude":"31.0064","longitude":"77.0346","accuracy":"3"},{"address3":"Kuthar","state":"Himachal Pradesh","state_code":"11","district":"Solan","district_code":"031","address1":"Solan","address2":"","latitude":"30.9305","longitude":"77.0037","accuracy":"4"},{"address3":"Gharsi","state":"Himachal Pradesh","state_code":"11","district":"Solan","district_code":"031","address1":"NA","address2":"","latitude":"30.8701","longitude":"77.1424","accuracy":"4"},{"address3":"Malera","state":"Himachal Pradesh","state_code":"11","district":"Solan","district_code":"031","address1":"NA","address2":"","latitude":"31.0064","longitude":"77.0346","accuracy":"3"},{"address3":"Darwa","state":"Himachal Pradesh","state_code":"11","district":"Solan","district_code":"031","address1":"NA","address2":"","latitude":"31.0429","longitude":"76.9095","accuracy":"4"},{"address3":"Dhakriana","state":"Himachal Pradesh","state_code":"11","district":"Solan","district_code":"031","address1":"NA","address2":"","latitude":"31.0064","longitude":"77.0346","accuracy":"3"}],"credits":[{"name":"geonames","url":"https://www.geonames.org"}],"last_update":"2019-03-01T09:01:30.606Z"}