{"184101":[{"address3":"Kathua H.O","state":"Jammu & Kashmir","state_code":"12","district":"Kathua","district_code":"007","address1":"Kathua","address2":"","latitude":"32.4925","longitude":"75.2689","accuracy":"1"}],"184102":[{"address3":"Krishnanagar","state":"Jammu & Kashmir","state_code":"12","district":"Kathua","district_code":"007","address1":"Kathua","address2":"","latitude":"32.5663","longitude":"75.5938","accuracy":"4"},{"address3":"Parliwand","state":"Jammu & Kashmir","state_code":"12","district":"Kathua","district_code":"007","address1":"Kathua","address2":"","latitude":"32.7278","longitude":"74.8583","accuracy":"3"},{"address3":"Govindasr","state":"Jammu & Kashmir","state_code":"12","district":"Kathua","district_code":"007","address1":"Kathua","address2":"","latitude":"32.7278","longitude":"74.8583","accuracy":"3"},{"address3":"Jarai","state":"Jammu & Kashmir","state_code":"12","district":"Kathua","district_code":"007","address1":"Kathua","address2":"","latitude":"32.7278","longitude":"74.8583","accuracy":"3"},{"address3":"Kharote","state":"Jammu & Kashmir","state_code":"12","district":"Kathua","district_code":"007","address1":"Kathua","address2":"","latitude":"32.7278","longitude":"74.8583","accuracy":"3"},{"address3":"I/e Kathua","state":"Jammu & Kashmir","state_code":"12","district":"Kathua","district_code":"007","address1":"Kathua","address2":"","latitude":"32.7278","longitude":"74.8583","accuracy":"3"},{"address3":"Dilwan","state":"Jammu & Kashmir","state_code":"12","district":"Kathua","district_code":"007","address1":"NA","address2":"","latitude":"32.7278","longitude":"74.8583","accuracy":"3"},{"address3":"Mehtabpur","state":"Jammu & Kashmir","state_code":"12","district":"Kathua","district_code":"007","address1":"Kathua","address2":"","latitude":"32.7278","longitude":"74.8583","accuracy":"3"}],"184104":[{"address3":"Changran","state":"Jammu & Kashmir","state_code":"12","district":"Kathua","district_code":"007","address1":"Kathua","address2":"","latitude":"32.3727","longitude":"75.495","accuracy":"4"},{"address3":"Logate","state":"Jammu & Kashmir","state_code":"12","district":"Kathua","district_code":"007","address1":"Kathua","address2":"","latitude":"32.3749","longitude":"75.4741","accuracy":"3"},{"address3":"Jakhbar","state":"Jammu & Kashmir","state_code":"12","district":"Kathua","district_code":"007","address1":"Kathua","address2":"","latitude":"32.3771","longitude":"75.4532","accuracy":"4"},{"address3":"Janglote","state":"Jammu & Kashmir","state_code":"12","district":"Kathua","district_code":"007","address1":"Kathua","address2":"","latitude":"32.3749","longitude":"75.4741","accuracy":"3"},{"address3":"Kothera","state":"Jammu & Kashmir","state_code":"12","district":"Kathua","district_code":"007","address1":"NA","address2":"","latitude":"32.3749","longitude":"75.4741","accuracy":"3"},{"address3":"Mini Sectt Kathua","state":"Jammu & Kashmir","state_code":"12","district":"Kathua","district_code":"007","address1":"Kathua","address2":"","latitude":"32.3749","longitude":"75.4741","accuracy":"3"},{"address3":"Rakh Lachhipura","state":"Jammu & Kashmir","state_code":"12","district":"Kathua","district_code":"007","address1":"Kathua","address2":"","latitude":"32.3749","longitude":"75.4741","accuracy":"3"}],"184120":[{"address3":"Raika","state":"Jammu & Kashmir","state_code":"12","district":"Jammu","district_code":"021","address1":"Samba","address2":"","latitude":"32.7263","longitude":"74.9039","accuracy":"4"},{"address3":"Jakh","state":"Jammu & Kashmir","state_code":"12","district":"Jammu","district_code":"021","address1":"Jammu","address2":"","latitude":"32.9995","longitude":"74.787","accuracy":"4"},{"address3":"Koulpur","state":"Jammu & Kashmir","state_code":"12","district":"Jammu","district_code":"021","address1":"NA","address2":"","latitude":"32.6707","longitude":"74.9983","accuracy":"3"},{"address3":"Swankha","state":"Jammu & Kashmir","state_code":"12","district":"Jammu","district_code":"021","address1":"Jammu","address2":"","latitude":"32.7625","longitude":"74.7884","accuracy":"4"},{"address3":"Vijaypur","state":"Jammu & Kashmir","state_code":"12","district":"Jammu","district_code":"021","address1":"Samba","address2":"","latitude":"32.6707","longitude":"74.9983","accuracy":"3"},{"address3":"Sanjwan","state":"Jammu & Kashmir","state_code":"12","district":"Jammu","district_code":"021","address1":"Jammu","address2":"","latitude":"32.7625","longitude":"74.7884","accuracy":"4"},{"address3":"Chak Salaria","state":"Jammu & Kashmir","state_code":"12","district":"Jammu","district_code":"021","address1":"Samba","address2":"","latitude":"32.6707","longitude":"74.9983","accuracy":"3"},{"address3":"Guo Brahmna","state":"Jammu & Kashmir","state_code":"12","district":"Jammu","district_code":"021","address1":"NA","address2":"","latitude":"32.6707","longitude":"74.9983","accuracy":"3"}],"184121":[{"address3":"Mandi Sangwali","state":"Jammu & Kashmir","state_code":"12","district":"Poonch","district_code":"005","address1":"Poonch","address2":"","latitude":"32.7072","longitude":"75.0127","accuracy":"3"},{"address3":"Mawa","state":"Jammu & Kashmir","state_code":"12","district":"Kathua","district_code":"007","address1":"Hiranagar","address2":"","latitude":"32.5663","longitude":"75.5938","accuracy":"4"},{"address3":"Kakrai","state":"Jammu & Kashmir","state_code":"12","district":"Udhampur","district_code":"019","address1":"Jammu","address2":"","latitude":"32.7072","longitude":"75.0127","accuracy":"3"},{"address3":"Nanak Chak","state":"Jammu & Kashmir","state_code":"12","district":"Jammu","district_code":"021","address1":"Jammu","address2":"","latitude":"32.5544","longitude":"74.7998","accuracy":"4"},{"address3":"Samba","state":"Jammu & Kashmir","state_code":"12","district":"Jammu","district_code":"021","address1":"Jammu","address2":"","latitude":"32.7625","longitude":"74.7884","accuracy":"4"},{"address3":"Rehiyan","state":"Jammu & Kashmir","state_code":"12","district":"Jammu","district_code":"021","address1":"Samba","address2":"","latitude":"32.7072","longitude":"75.0127","accuracy":"3"},{"address3":"Goran","state":"Jammu & Kashmir","state_code":"12","district":"Jammu","district_code":"021","address1":"Jammu","address2":"","latitude":"32.7625","longitude":"74.7884","accuracy":"4"},{"address3":"Sarna","state":"Jammu & Kashmir","state_code":"12","district":"Jammu","district_code":"021","address1":"Jammu","address2":"","latitude":"32.7625","longitude":"74.7884","accuracy":"4"},{"address3":"Taloor","state":"Jammu & Kashmir","state_code":"12","district":"Jammu","district_code":"021","address1":"Jammu","address2":"","latitude":"32.7072","longitude":"75.0127","accuracy":"3"},{"address3":"Mansar","state":"Jammu & Kashmir","state_code":"12","district":"Jammu","district_code":"021","address1":"Jammu","address2":"","latitude":"32.7625","longitude":"74.7884","accuracy":"4"},{"address3":"Samba Adda","state":"Jammu & Kashmir","state_code":"12","district":"Jammu","district_code":"021","address1":"Jammu","address2":"","latitude":"32.7072","longitude":"75.0127","accuracy":"3"},{"address3":"Barigarh","state":"Jammu & Kashmir","state_code":"12","district":"Jammu","district_code":"021","address1":"Jammu","address2":"","latitude":"32.7625","longitude":"74.7884","accuracy":"4"},{"address3":"J.N.V. Nud","state":"Jammu & Kashmir","state_code":"12","district":"Jammu","district_code":"021","address1":"Jammu","address2":"","latitude":"32.7072","longitude":"75.0127","accuracy":"3"},{"address3":"Kalibari","state":"Jammu & Kashmir","state_code":"12","district":"Jammu","district_code":"021","address1":"Jammu","address2":"","latitude":"32.7072","longitude":"75.0127","accuracy":"3"},{"address3":"Nai Kali","state":"Jammu & Kashmir","state_code":"12","district":"Jammu","district_code":"021","address1":"Samba","address2":"","latitude":"32.7072","longitude":"75.0127","accuracy":"3"},{"address3":"Pangdour","state":"Jammu & Kashmir","state_code":"12","district":"Jammu","district_code":"021","address1":"Jammu","address2":"","latitude":"32.7072","longitude":"75.0127","accuracy":"3"},{"address3":"Dhiani","state":"Jammu & Kashmir","state_code":"12","district":"Jammu","district_code":"021","address1":"Jammu","address2":"","latitude":"32.7072","longitude":"75.0127","accuracy":"3"},{"address3":"Sumb","state":"Jammu & Kashmir","state_code":"12","district":"Jammu","district_code":"021","address1":"Jammu","address2":"","latitude":"32.7072","longitude":"75.0127","accuracy":"3"}],"184141":[{"address3":"Said","state":"Jammu & Kashmir","state_code":"12","district":"Kathua","district_code":"007","address1":"Hiranagar","address2":"","latitude":"32.5663","longitude":"75.5938","accuracy":"4"},{"address3":"Surara","state":"Jammu & Kashmir","state_code":"12","district":"Kathua","district_code":"007","address1":"Hiranagar","address2":"","latitude":"32.5663","longitude":"75.5938","accuracy":"4"},{"address3":"Naran","state":"Jammu & Kashmir","state_code":"12","district":"Kathua","district_code":"007","address1":"Hiranagar","address2":"","latitude":"32.5663","longitude":"75.5938","accuracy":"4"},{"address3":"Sanoora","state":"Jammu & Kashmir","state_code":"12","district":"Kathua","district_code":"007","address1":"Hiranagar","address2":"","latitude":"33.6635","longitude":"74.3732","accuracy":"3"},{"address3":"Jatwal","state":"Jammu & Kashmir","state_code":"12","district":"Kathua","district_code":"007","address1":"Hiranagar","address2":"","latitude":"33.6635","longitude":"74.3732","accuracy":"3"},{"address3":"Ghagwal","state":"Jammu & Kashmir","state_code":"12","district":"Kathua","district_code":"007","address1":"Hiranagar","address2":"","latitude":"33.6635","longitude":"74.3732","accuracy":"3"},{"address3":"Raikoota","state":"Jammu & Kashmir","state_code":"12","district":"Kathua","district_code":"007","address1":"Hiranagar","address2":"","latitude":"33.6635","longitude":"74.3732","accuracy":"3"}],"184142":[{"address3":"Sherpur","state":"Jammu & Kashmir","state_code":"12","district":"Kathua","district_code":"007","address1":"Hiranagar","address2":"","latitude":"32.3768","longitude":"75.4675","accuracy":"4"},{"address3":"Gurah Mundian","state":"Jammu & Kashmir","state_code":"12","district":"Kathua","district_code":"007","address1":"Hiranagar","address2":"","latitude":"32.4158","longitude":"75.3697","accuracy":"3"},{"address3":"Hiranagar","state":"Jammu & Kashmir","state_code":"12","district":"Kathua","district_code":"007","address1":"Hiranagar","address2":"","latitude":"32.4549","longitude":"75.2719","accuracy":"4"},{"address3":"Jandi","state":"Jammu & Kashmir","state_code":"12","district":"Kathua","district_code":"007","address1":"Hiranagar","address2":"","latitude":"32.4158","longitude":"75.3697","accuracy":"3"},{"address3":"Garha Satura","state":"Jammu & Kashmir","state_code":"12","district":"Kathua","district_code":"007","address1":"Hiranagar","address2":"","latitude":"32.4158","longitude":"75.3697","accuracy":"3"}],"184143":[{"address3":"Beradhani","state":"Jammu & Kashmir","state_code":"12","district":"Kathua","district_code":"007","address1":"Kathua","address2":"","latitude":"32.798","longitude":"75.3244","accuracy":"3"},{"address3":"Budhi","state":"Jammu & Kashmir","state_code":"12","district":"Kathua","district_code":"007","address1":"Kathua","address2":"","latitude":"32.4555","longitude":"75.456","accuracy":"4"},{"address3":"Rajbagh","state":"Jammu & Kashmir","state_code":"12","district":"Kathua","district_code":"007","address1":"Kathua","address2":"","latitude":"32.5663","longitude":"75.5938","accuracy":"4"},{"address3":"Barnote","state":"Jammu & Kashmir","state_code":"12","district":"Kathua","district_code":"007","address1":"Kathua","address2":"","latitude":"32.798","longitude":"75.3244","accuracy":"3"},{"address3":"Barwal","state":"Jammu & Kashmir","state_code":"12","district":"Kathua","district_code":"007","address1":"Kathua","address2":"","latitude":"32.5767","longitude":"75.4741","accuracy":"4"},{"address3":"Flote","state":"Jammu & Kashmir","state_code":"12","district":"Kathua","district_code":"007","address1":"Kathua","address2":"","latitude":"32.798","longitude":"75.3244","accuracy":"3"},{"address3":"Palli","state":"Jammu & Kashmir","state_code":"12","district":"Kathua","district_code":"007","address1":"Kathua","address2":"","latitude":"32.4299","longitude":"75.4581","accuracy":"4"},{"address3":"Ghatti","state":"Jammu & Kashmir","state_code":"12","district":"Kathua","district_code":"007","address1":"Kathua","address2":"","latitude":"32.798","longitude":"75.3244","accuracy":"3"},{"address3":"Jasrota","state":"Jammu & Kashmir","state_code":"12","district":"Kathua","district_code":"007","address1":"Kathua","address2":"","latitude":"32.4605","longitude":"75.4079","accuracy":"4"}],"184144":[{"address3":"Chann Rorian","state":"Jammu & Kashmir","state_code":"12","district":"Kathua","district_code":"007","address1":"Hiranagar","address2":"","latitude":"32.4913","longitude":"75.3387","accuracy":"3"},{"address3":"Dinga Amb","state":"Jammu & Kashmir","state_code":"12","district":"Kathua","district_code":"007","address1":"Hiranagar","address2":"","latitude":"32.4913","longitude":"75.3387","accuracy":"3"},{"address3":"Katli","state":"Jammu & Kashmir","state_code":"12","district":"Kathua","district_code":"007","address1":"Hiranagar","address2":"","latitude":"32.5484","longitude":"75.3378","accuracy":"4"},{"address3":"Chhapaki Kalan","state":"Jammu & Kashmir","state_code":"12","district":"Kathua","district_code":"007","address1":"Hiranagar","address2":"","latitude":"32.4913","longitude":"75.3387","accuracy":"3"},{"address3":"Chandwan","state":"Jammu & Kashmir","state_code":"12","district":"Kathua","district_code":"007","address1":"Hiranagar","address2":"","latitude":"32.4696","longitude":"75.3343","accuracy":"4"},{"address3":"Amla","state":"Jammu & Kashmir","state_code":"12","district":"Kathua","district_code":"007","address1":"Hiranagar","address2":"","latitude":"32.4913","longitude":"75.3387","accuracy":"3"},{"address3":"Hamirpur","state":"Jammu & Kashmir","state_code":"12","district":"Kathua","district_code":"007","address1":"Hiranagar","address2":"","latitude":"32.4468","longitude":"75.3783","accuracy":"4"},{"address3":"Dialachak","state":"Jammu & Kashmir","state_code":"12","district":"Kathua","district_code":"007","address1":"Hiranagar","address2":"","latitude":"32.4913","longitude":"75.3387","accuracy":"3"},{"address3":"Mela","state":"Jammu & Kashmir","state_code":"12","district":"Kathua","district_code":"007","address1":"Hiranagar","address2":"","latitude":"32.5006","longitude":"75.3046","accuracy":"4"},{"address3":"Chadwal","state":"Jammu & Kashmir","state_code":"12","district":"Kathua","district_code":"007","address1":"Hiranagar","address2":"","latitude":"32.4913","longitude":"75.3387","accuracy":"3"},{"address3":"Seswan","state":"Jammu & Kashmir","state_code":"12","district":"Kathua","district_code":"007","address1":"Hiranagar","address2":"","latitude":"32.4913","longitude":"75.3387","accuracy":"3"},{"address3":"Prangoli","state":"Jammu & Kashmir","state_code":"12","district":"Kathua","district_code":"007","address1":"Hiranagar","address2":"","latitude":"32.4913","longitude":"75.3387","accuracy":"3"},{"address3":"Maghloor","state":"Jammu & Kashmir","state_code":"12","district":"Kathua","district_code":"007","address1":"Hiranagar","address2":"","latitude":"32.4913","longitude":"75.3387","accuracy":"3"},{"address3":"Dhamal","state":"Jammu & Kashmir","state_code":"12","district":"Kathua","district_code":"007","address1":"Hiranagar","address2":"","latitude":"32.4913","longitude":"75.3387","accuracy":"3"}],"184145":[{"address3":"Chiliari","state":"Jammu & Kashmir","state_code":"12","district":"Kathua","district_code":"007","address1":"Hiranagar","address2":"","latitude":"32.8113","longitude":"75.1242","accuracy":"1"},{"address3":"Rajpura (Kathua)","state":"Jammu & Kashmir","state_code":"12","district":"Kathua","district_code":"007","address1":"Hiranagar","address2":"","latitude":"32.8113","longitude":"75.1242","accuracy":"1"}],"184148":[{"address3":"Sanjimore","state":"Jammu & Kashmir","state_code":"12","district":"Kathua","district_code":"007","address1":"Hiranagar","address2":"","latitude":"32.6021","longitude":"75.0753","accuracy":"3"},{"address3":"Khanpur","state":"Jammu & Kashmir","state_code":"12","district":"Kathua","district_code":"007","address1":"Hiranagar","address2":"","latitude":"32.5663","longitude":"75.5938","accuracy":"4"},{"address3":"Babia","state":"Jammu & Kashmir","state_code":"12","district":"Kathua","district_code":"007","address1":"Hiranagar","address2":"","latitude":"32.6021","longitude":"75.0753","accuracy":"3"},{"address3":"Haripur Patil","state":"Jammu & Kashmir","state_code":"12","district":"Kathua","district_code":"007","address1":"Hiranagar","address2":"","latitude":"32.6021","longitude":"75.0753","accuracy":"3"},{"address3":"Kahna Chack","state":"Jammu & Kashmir","state_code":"12","district":"Kathua","district_code":"007","address1":"Hiranagar","address2":"","latitude":"32.6021","longitude":"75.0753","accuracy":"3"},{"address3":"Marheen","state":"Jammu & Kashmir","state_code":"12","district":"Kathua","district_code":"007","address1":"Hiranagar","address2":"","latitude":"32.6021","longitude":"75.0753","accuracy":"3"},{"address3":"Chakra","state":"Jammu & Kashmir","state_code":"12","district":"Kathua","district_code":"007","address1":"Hiranagar","address2":"","latitude":"32.4188","longitude":"75.2602","accuracy":"4"}],"184151":[{"address3":"Saidpur","state":"Jammu & Kashmir","state_code":"12","district":"Kathua","district_code":"007","address1":"Kathua","address2":"","latitude":"32.3262","longitude":"75.4239","accuracy":"4"},{"address3":"Khokhial","state":"Jammu & Kashmir","state_code":"12","district":"Kathua","district_code":"007","address1":"Kathua","address2":"","latitude":"32.344","longitude":"75.4231","accuracy":"3"},{"address3":"Parole","state":"Jammu & Kashmir","state_code":"12","district":"Kathua","district_code":"007","address1":"Kathua","address2":"","latitude":"32.346","longitude":"75.4344","accuracy":"4"},{"address3":"Kotpunnu","state":"Jammu & Kashmir","state_code":"12","district":"Kathua","district_code":"007","address1":"Hiranagar","address2":"","latitude":"32.344","longitude":"75.4231","accuracy":"3"},{"address3":"Airwan","state":"Jammu & Kashmir","state_code":"12","district":"Kathua","district_code":"007","address1":"Kathua","address2":"","latitude":"32.3598","longitude":"75.4111","accuracy":"4"}],"184152":[{"address3":"Tridwan","state":"Jammu & Kashmir","state_code":"12","district":"Kathua","district_code":"007","address1":"Kathua","address2":"","latitude":"32.4369","longitude":"75.5265","accuracy":"3"},{"address3":"Mah","state":"Jammu & Kashmir","state_code":"12","district":"Kathua","district_code":"007","address1":"Kathua","address2":"","latitude":"32.3948","longitude":"75.5919","accuracy":"4"},{"address3":"Karroh","state":"Jammu & Kashmir","state_code":"12","district":"Kathua","district_code":"007","address1":"Kathua","address2":"","latitude":"32.4369","longitude":"75.5265","accuracy":"3"},{"address3":"Basantpur","state":"Jammu & Kashmir","state_code":"12","district":"Kathua","district_code":"007","address1":"Kathua","address2":"","latitude":"32.5148","longitude":"75.2971","accuracy":"4"},{"address3":"Kirian Gandial","state":"Jammu & Kashmir","state_code":"12","district":"Kathua","district_code":"007","address1":"Kathua","address2":"","latitude":"32.4369","longitude":"75.5265","accuracy":"3"},{"address3":"Lakhanpur (Kathua)","state":"Jammu & Kashmir","state_code":"12","district":"Kathua","district_code":"007","address1":"Kathua","address2":"","latitude":"32.3852","longitude":"75.5975","accuracy":"4"},{"address3":"Thein","state":"Jammu & Kashmir","state_code":"12","district":"Kathua","district_code":"007","address1":"Kathua","address2":"","latitude":"32.4369","longitude":"75.5265","accuracy":"3"},{"address3":"Hatli","state":"Jammu & Kashmir","state_code":"12","district":"Kathua","district_code":"007","address1":"Kathua","address2":"","latitude":"32.4528","longitude":"75.6194","accuracy":"4"}],"184201":[{"address3":"Draman","state":"Jammu & Kashmir","state_code":"12","district":"Kathua","district_code":"007","address1":"Bashohli","address2":"","latitude":"32.5663","longitude":"75.5938","accuracy":"4"},{"address3":"Plassy","state":"Jammu & Kashmir","state_code":"12","district":"Kathua","district_code":"007","address1":"Bashohli","address2":"","latitude":"32.9338","longitude":"75.2018","accuracy":"3"},{"address3":"Basoli","state":"Jammu & Kashmir","state_code":"12","district":"Kathua","district_code":"007","address1":"Basoli","address2":"","latitude":"32.5012","longitude":"75.8142","accuracy":"4"},{"address3":"Plahi","state":"Jammu & Kashmir","state_code":"12","district":"Kathua","district_code":"007","address1":"Bashohli","address2":"","latitude":"32.9338","longitude":"75.2018","accuracy":"3"},{"address3":"Marta Nagrota","state":"Jammu & Kashmir","state_code":"12","district":"Kathua","district_code":"007","address1":"Basoli","address2":"","latitude":"32.9338","longitude":"75.2018","accuracy":"3"},{"address3":"Sananghat","state":"Jammu & Kashmir","state_code":"12","district":"Kathua","district_code":"007","address1":"Basoli","address2":"","latitude":"32.9338","longitude":"75.2018","accuracy":"3"},{"address3":"Poonda","state":"Jammu & Kashmir","state_code":"12","district":"Kathua","district_code":"007","address1":"Bashohli","address2":"","latitude":"32.9338","longitude":"75.2018","accuracy":"3"},{"address3":"Banjal","state":"Jammu & Kashmir","state_code":"12","district":"Kathua","district_code":"007","address1":"Bashohli","address2":"","latitude":"32.9338","longitude":"75.2018","accuracy":"3"},{"address3":"Rehan","state":"Jammu & Kashmir","state_code":"12","district":"Kathua","district_code":"007","address1":"Bashohli","address2":"","latitude":"32.9338","longitude":"75.2018","accuracy":"3"},{"address3":"Jandrota","state":"Jammu & Kashmir","state_code":"12","district":"Kathua","district_code":"007","address1":"Basoli","address2":"","latitude":"32.9338","longitude":"75.2018","accuracy":"3"},{"address3":"Hutt","state":"Jammu & Kashmir","state_code":"12","district":"Kathua","district_code":"007","address1":"Bashohli","address2":"","latitude":"32.9338","longitude":"75.2018","accuracy":"3"},{"address3":"Farnot","state":"Jammu & Kashmir","state_code":"12","district":"Kathua","district_code":"007","address1":"Basoli","address2":"","latitude":"32.9338","longitude":"75.2018","accuracy":"3"},{"address3":"Sandhar","state":"Jammu & Kashmir","state_code":"12","district":"Kathua","district_code":"007","address1":"Bashohli","address2":"","latitude":"32.9338","longitude":"75.2018","accuracy":"3"},{"address3":"Bhoond","state":"Jammu & Kashmir","state_code":"12","district":"Kathua","district_code":"007","address1":"Bashohli","address2":"","latitude":"32.9338","longitude":"75.2018","accuracy":"3"}],"184202":[{"address3":"Raipur","state":"Jammu & Kashmir","state_code":"12","district":"Kathua","district_code":"007","address1":"Basoli","address2":"","latitude":"32.5663","longitude":"75.5938","accuracy":"4"},{"address3":"Sabar","state":"Jammu & Kashmir","state_code":"12","district":"Kathua","district_code":"007","address1":"Basoli","address2":"","latitude":"32.5151","longitude":"75.0823","accuracy":"3"},{"address3":"Mahanpur","state":"Jammu & Kashmir","state_code":"12","district":"Kathua","district_code":"007","address1":"Basoli","address2":"","latitude":"32.5151","longitude":"75.0823","accuracy":"3"},{"address3":"Banhore","state":"Jammu & Kashmir","state_code":"12","district":"Kathua","district_code":"007","address1":"Basoli","address2":"","latitude":"32.5151","longitude":"75.0823","accuracy":"3"},{"address3":"Dhar Mahanpur","state":"Jammu & Kashmir","state_code":"12","district":"Kathua","district_code":"007","address1":"Bashohli","address2":"","latitude":"32.5151","longitude":"75.0823","accuracy":"3"},{"address3":"Karanwara","state":"Jammu & Kashmir","state_code":"12","district":"Kathua","district_code":"007","address1":"Basoli","address2":"","latitude":"32.5151","longitude":"75.0823","accuracy":"3"},{"address3":"Marapatti","state":"Jammu & Kashmir","state_code":"12","district":"Kathua","district_code":"007","address1":"Basoli","address2":"","latitude":"32.5151","longitude":"75.0823","accuracy":"3"},{"address3":"Muni","state":"Jammu & Kashmir","state_code":"12","district":"Kathua","district_code":"007","address1":"Basoli","address2":"","latitude":"32.5151","longitude":"75.0823","accuracy":"3"}],"184203":[{"address3":"Bhaddu","state":"Jammu & Kashmir","state_code":"12","district":"Kathua","district_code":"007","address1":"Billawar","address2":"","latitude":"32.5797","longitude":"75.5271","accuracy":"4"},{"address3":"Phinter","state":"Jammu & Kashmir","state_code":"12","district":"Kathua","district_code":"007","address1":"Billwar","address2":"","latitude":"32.5732","longitude":"75.5683","accuracy":"3"},{"address3":"Parnala","state":"Jammu & Kashmir","state_code":"12","district":"Kathua","district_code":"007","address1":"Billwar","address2":"","latitude":"32.5667","longitude":"75.6096","accuracy":"4"},{"address3":"Bathodi Duggan","state":"Jammu & Kashmir","state_code":"12","district":"Kathua","district_code":"007","address1":"Billawar","address2":"","latitude":"32.5732","longitude":"75.5683","accuracy":"3"},{"address3":"Kishanpur-II","state":"Jammu & Kashmir","state_code":"12","district":"Kathua","district_code":"007","address1":"Billawar","address2":"","latitude":"32.5732","longitude":"75.5683","accuracy":"3"},{"address3":"Mandli","state":"Jammu & Kashmir","state_code":"12","district":"Kathua","district_code":"007","address1":"Billawar","address2":"","latitude":"32.5732","longitude":"75.5683","accuracy":"3"},{"address3":"Barotta","state":"Jammu & Kashmir","state_code":"12","district":"Kathua","district_code":"007","address1":"Billawar","address2":"","latitude":"32.5732","longitude":"75.5683","accuracy":"3"},{"address3":"Lahari","state":"Jammu & Kashmir","state_code":"12","district":"Kathua","district_code":"007","address1":"Billawar","address2":"","latitude":"32.5732","longitude":"75.5683","accuracy":"3"},{"address3":"Kohag","state":"Jammu & Kashmir","state_code":"12","district":"Kathua","district_code":"007","address1":"Billawar","address2":"","latitude":"32.5732","longitude":"75.5683","accuracy":"3"},{"address3":"Durang","state":"Jammu & Kashmir","state_code":"12","district":"Kathua","district_code":"007","address1":"Billawar","address2":"","latitude":"32.5732","longitude":"75.5683","accuracy":"3"},{"address3":"Dharalta","state":"Jammu & Kashmir","state_code":"12","district":"Kathua","district_code":"007","address1":"Billawar","address2":"","latitude":"32.5732","longitude":"75.5683","accuracy":"3"}],"184204":[{"address3":"Badnote","state":"Jammu & Kashmir","state_code":"12","district":"Kathua","district_code":"007","address1":"Billawar","address2":"","latitude":"32.6449","longitude":"75.5197","accuracy":"3"},{"address3":"Baggan","state":"Jammu & Kashmir","state_code":"12","district":"Kathua","district_code":"007","address1":"Billwar","address2":"","latitude":"32.6813","longitude":"75.5685","accuracy":"4"},{"address3":"Dhar Dugnoo","state":"Jammu & Kashmir","state_code":"12","district":"Kathua","district_code":"007","address1":"Billwar","address2":"","latitude":"32.6449","longitude":"75.5197","accuracy":"3"},{"address3":"Billawar","state":"Jammu & Kashmir","state_code":"12","district":"Kathua","district_code":"007","address1":"Billawar","address2":"","latitude":"32.6449","longitude":"75.5197","accuracy":"3"},{"address3":"Malti","state":"Jammu & Kashmir","state_code":"12","district":"Kathua","district_code":"007","address1":"Billwar","address2":"","latitude":"32.618","longitude":"75.5656","accuracy":"4"},{"address3":"Huttar","state":"Jammu & Kashmir","state_code":"12","district":"Kathua","district_code":"007","address1":"Billwar","address2":"","latitude":"32.6449","longitude":"75.5197","accuracy":"3"},{"address3":"Malhar","state":"Jammu & Kashmir","state_code":"12","district":"Kathua","district_code":"007","address1":"Billwar","address2":"","latitude":"32.6354","longitude":"75.4251","accuracy":"4"},{"address3":"Kishanpur-I","state":"Jammu & Kashmir","state_code":"12","district":"Kathua","district_code":"007","address1":"Billawar","address2":"","latitude":"32.6449","longitude":"75.5197","accuracy":"3"},{"address3":"Machhedi","state":"Jammu & Kashmir","state_code":"12","district":"Kathua","district_code":"007","address1":"Billwar","address2":"","latitude":"32.6449","longitude":"75.5197","accuracy":"3"},{"address3":"Marhoon","state":"Jammu & Kashmir","state_code":"12","district":"Kathua","district_code":"007","address1":"Billawar","address2":"","latitude":"32.6449","longitude":"75.5197","accuracy":"3"},{"address3":"Sukrala","state":"Jammu & Kashmir","state_code":"12","district":"Kathua","district_code":"007","address1":"Billwar","address2":"","latitude":"32.6449","longitude":"75.5197","accuracy":"3"},{"address3":"Thall","state":"Jammu & Kashmir","state_code":"12","district":"Kathua","district_code":"007","address1":"Billwar","address2":"","latitude":"32.6449","longitude":"75.5197","accuracy":"3"}],"184205":[{"address3":"Sundla","state":"Jammu & Kashmir","state_code":"12","district":"Kathua","district_code":"007","address1":"Billwar","address2":"","latitude":"32.5663","longitude":"75.5938","accuracy":"4"},{"address3":"Thial","state":"Jammu & Kashmir","state_code":"12","district":"Kathua","district_code":"007","address1":"Billawar","address2":"","latitude":"32.6901","longitude":"75.2776","accuracy":"3"},{"address3":"Babey","state":"Jammu & Kashmir","state_code":"12","district":"Kathua","district_code":"007","address1":"Billawar","address2":"","latitude":"32.6901","longitude":"75.2776","accuracy":"3"},{"address3":"Galak","state":"Jammu & Kashmir","state_code":"12","district":"Kathua","district_code":"007","address1":"Billawar","address2":"","latitude":"32.6901","longitude":"75.2776","accuracy":"3"},{"address3":"Mukwal Chinji","state":"Jammu & Kashmir","state_code":"12","district":"Kathua","district_code":"007","address1":"Billawar","address2":"","latitude":"32.6901","longitude":"75.2776","accuracy":"3"},{"address3":"Ramkot (Kathua)","state":"Jammu & Kashmir","state_code":"12","district":"Kathua","district_code":"007","address1":"Billawar","address2":"","latitude":"32.6901","longitude":"75.2776","accuracy":"3"},{"address3":"Nagrota Gujroo","state":"Jammu & Kashmir","state_code":"12","district":"Kathua","district_code":"007","address1":"Billwar","address2":"","latitude":"32.6901","longitude":"75.2776","accuracy":"3"},{"address3":"Dhamma","state":"Jammu & Kashmir","state_code":"12","district":"Udhampur","district_code":"019","address1":"NA","address2":"","latitude":"32.7087","longitude":"75.2113","accuracy":"4"}],"184206":[{"address3":"Bani (Kathua)","state":"Jammu & Kashmir","state_code":"12","district":"Kathua","district_code":"007","address1":"Bani","address2":"","latitude":"32.5189","longitude":"75.7307","accuracy":"4"},{"address3":"Fatehpur","state":"Jammu & Kashmir","state_code":"12","district":"Kathua","district_code":"007","address1":"Bashohli","address2":"","latitude":"32.5663","longitude":"75.5938","accuracy":"4"},{"address3":"Sitti","state":"Jammu & Kashmir","state_code":"12","district":"Kathua","district_code":"007","address1":"Bashohli","address2":"","latitude":"32.9706","longitude":"75.0191","accuracy":"3"},{"address3":"Roulka","state":"Jammu & Kashmir","state_code":"12","district":"Kathua","district_code":"007","address1":"Bashohli","address2":"","latitude":"32.9706","longitude":"75.0191","accuracy":"3"},{"address3":"Daggar","state":"Jammu & Kashmir","state_code":"12","district":"Kathua","district_code":"007","address1":"Bashohli","address2":"","latitude":"32.9706","longitude":"75.0191","accuracy":"3"},{"address3":"Duggan","state":"Jammu & Kashmir","state_code":"12","district":"Kathua","district_code":"007","address1":"Bani","address2":"","latitude":"32.9706","longitude":"75.0191","accuracy":"3"},{"address3":"Dulangal","state":"Jammu & Kashmir","state_code":"12","district":"Kathua","district_code":"007","address1":"Bashohli","address2":"","latitude":"32.9706","longitude":"75.0191","accuracy":"3"},{"address3":"Chalog","state":"Jammu & Kashmir","state_code":"12","district":"Kathua","district_code":"007","address1":"Bashohli","address2":"","latitude":"32.9706","longitude":"75.0191","accuracy":"3"},{"address3":"Bandhar","state":"Jammu & Kashmir","state_code":"12","district":"Kathua","district_code":"007","address1":"Bani","address2":"","latitude":"32.9706","longitude":"75.0191","accuracy":"3"},{"address3":"Gitti","state":"Jammu & Kashmir","state_code":"12","district":"Kathua","district_code":"007","address1":"Bani","address2":"","latitude":"32.9706","longitude":"75.0191","accuracy":"3"},{"address3":"Kanthal","state":"Jammu & Kashmir","state_code":"12","district":"Kathua","district_code":"007","address1":"Bashohli","address2":"","latitude":"32.9706","longitude":"75.0191","accuracy":"3"},{"address3":"Lowang","state":"Jammu & Kashmir","state_code":"12","district":"Kathua","district_code":"007","address1":"Bashohli","address2":"","latitude":"32.9706","longitude":"75.0191","accuracy":"3"}],"184210":[{"address3":"Uchapind","state":"Jammu & Kashmir","state_code":"12","district":"Kathua","district_code":"007","address1":"Billwar","address2":"","latitude":"32.6516","longitude":"75.4472","accuracy":"4"},{"address3":"Gurah Kalyal","state":"Jammu & Kashmir","state_code":"12","district":"Kathua","district_code":"007","address1":"Billawar","address2":"","latitude":"32.6516","longitude":"75.4472","accuracy":"3"},{"address3":"Sailna","state":"Jammu & Kashmir","state_code":"12","district":"Kathua","district_code":"007","address1":"Billawar","address2":"","latitude":"32.6516","longitude":"75.4472","accuracy":"3"},{"address3":"Lakhri","state":"Jammu & Kashmir","state_code":"12","district":"Kathua","district_code":"007","address1":"Billawar","address2":"","latitude":"32.6516","longitude":"75.4472","accuracy":"3"},{"address3":"Garh Samna Banj","state":"Jammu & Kashmir","state_code":"12","district":"Udhampur","district_code":"019","address1":"Billawer","address2":"","latitude":"32.6516","longitude":"75.4472","accuracy":"3"},{"address3":"Nagrota Gujroo","state":"Jammu & Kashmir","state_code":"12","district":"Jammu","district_code":"021","address1":"Billawer","address2":"","latitude":"32.6516","longitude":"75.4472","accuracy":"3"}],"credits":[{"name":"geonames","url":"https://www.geonames.org"}],"last_update":"2019-03-01T09:01:30.714Z"}