{"207001":[{"address3":"Patiali Gate","state":"Uttar Pradesh","state_code":"36","district":"Etah","district_code":"201","address1":"Aliganj","address2":"","latitude":"27.485","longitude":"78.8736","accuracy":"1"},{"address3":"Gandhi Market (Etah)","state":"Uttar Pradesh","state_code":"36","district":"Etah","district_code":"201","address1":"Etah","address2":"","latitude":"27.485","longitude":"78.8736","accuracy":"1"},{"address3":"Etah H.O","state":"Uttar Pradesh","state_code":"36","district":"Etah","district_code":"201","address1":"Etah","address2":"","latitude":"27.485","longitude":"78.8736","accuracy":"1"},{"address3":"Collectorate Compound","state":"Uttar Pradesh","state_code":"36","district":"Etah","district_code":"201","address1":"Etah","address2":"","latitude":"27.485","longitude":"78.8736","accuracy":"1"}],"207002":[{"address3":"Milawali","state":"Uttar Pradesh","state_code":"36","district":"Etah","district_code":"201","address1":"Etah","address2":"","latitude":"27.6095","longitude":"78.7466","accuracy":"4"},{"address3":"Lalgarhi","state":"Uttar Pradesh","state_code":"36","district":"Etah","district_code":"201","address1":"Etah","address2":"","latitude":"27.6142","longitude":"79.0037","accuracy":"4"},{"address3":"Bijauri","state":"Uttar Pradesh","state_code":"36","district":"Etah","district_code":"201","address1":"Etah","address2":"","latitude":"27.5383","longitude":"79.0423","accuracy":"4"},{"address3":"Chhoti Nidhaoli","state":"Uttar Pradesh","state_code":"36","district":"Etah","district_code":"201","address1":"Etah","address2":"","latitude":"27.5752","longitude":"78.7319","accuracy":"3"},{"address3":"Rajpur","state":"Uttar Pradesh","state_code":"36","district":"Etah","district_code":"201","address1":"Etah","address2":"","latitude":"27.5255","longitude":"78.9123","accuracy":"4"},{"address3":"Nagla Khilli","state":"Uttar Pradesh","state_code":"36","district":"Etah","district_code":"201","address1":"Etah","address2":"","latitude":"27.5184","longitude":"78.5499","accuracy":"4"},{"address3":"Rijor","state":"Uttar Pradesh","state_code":"36","district":"Etah","district_code":"201","address1":"Etah","address2":"","latitude":"27.5752","longitude":"78.7319","accuracy":"3"},{"address3":"Nagla Pawal","state":"Uttar Pradesh","state_code":"36","district":"Etah","district_code":"201","address1":"Etah","address2":"","latitude":"27.6026","longitude":"78.732","accuracy":"4"},{"address3":"Loya Badshapur","state":"Uttar Pradesh","state_code":"36","district":"Etah","district_code":"201","address1":"Etah","address2":"","latitude":"27.5752","longitude":"78.7319","accuracy":"3"},{"address3":"Sarnau","state":"Uttar Pradesh","state_code":"36","district":"Etah","district_code":"201","address1":"Etah","address2":"","latitude":"27.6415","longitude":"78.6707","accuracy":"4"},{"address3":"Sarvodaya Ashram","state":"Uttar Pradesh","state_code":"36","district":"Etah","district_code":"201","address1":"Etah","address2":"","latitude":"27.5752","longitude":"78.7319","accuracy":"3"},{"address3":"Neorai","state":"Uttar Pradesh","state_code":"36","district":"Etah","district_code":"201","address1":"Etah","address2":"","latitude":"27.6173","longitude":"78.6907","accuracy":"4"},{"address3":"Girora","state":"Uttar Pradesh","state_code":"36","district":"Etah","district_code":"201","address1":"Etah","address2":"","latitude":"27.5752","longitude":"78.7319","accuracy":"3"},{"address3":"Rustamgarh","state":"Uttar Pradesh","state_code":"36","district":"Etah","district_code":"201","address1":"Etah","address2":"","latitude":"27.5444","longitude":"78.5472","accuracy":"4"},{"address3":"Ahemadpur Nagla Dhanu","state":"Uttar Pradesh","state_code":"36","district":"Etah","district_code":"201","address1":"Etah","address2":"","latitude":"27.5752","longitude":"78.7319","accuracy":"3"},{"address3":"Rarpatti","state":"Uttar Pradesh","state_code":"36","district":"Etah","district_code":"201","address1":"Etah","address2":"","latitude":"27.597","longitude":"78.6698","accuracy":"4"},{"address3":"Babsa","state":"Uttar Pradesh","state_code":"36","district":"Etah","district_code":"201","address1":"Etah","address2":"","latitude":"27.5752","longitude":"78.7319","accuracy":"3"},{"address3":"Nagla Galu","state":"Uttar Pradesh","state_code":"36","district":"Etah","district_code":"201","address1":"Etah","address2":"","latitude":"27.5146","longitude":"78.6096","accuracy":"4"},{"address3":"Jirsimi","state":"Uttar Pradesh","state_code":"36","district":"Etah","district_code":"201","address1":"Etah","address2":"","latitude":"27.5752","longitude":"78.7319","accuracy":"3"},{"address3":"Datai","state":"Uttar Pradesh","state_code":"36","district":"Etah","district_code":"201","address1":"Etah","address2":"","latitude":"27.5752","longitude":"78.7319","accuracy":"3"},{"address3":"Ahamdabad","state":"Uttar Pradesh","state_code":"36","district":"Etah","district_code":"201","address1":"Etah","address2":"","latitude":"27.5752","longitude":"78.7319","accuracy":"3"},{"address3":"Phaphoto","state":"Uttar Pradesh","state_code":"36","district":"Etah","district_code":"201","address1":"Etah","address2":"","latitude":"27.5752","longitude":"78.7319","accuracy":"3"},{"address3":"Begaur","state":"Uttar Pradesh","state_code":"36","district":"Etah","district_code":"201","address1":"Etah","address2":"","latitude":"27.5752","longitude":"78.7319","accuracy":"3"},{"address3":"Kakrawali","state":"Uttar Pradesh","state_code":"36","district":"Etah","district_code":"201","address1":"Etah","address2":"","latitude":"27.5789","longitude":"78.6083","accuracy":"4"},{"address3":"Aruna Nagar","state":"Uttar Pradesh","state_code":"36","district":"Etah","district_code":"201","address1":"Etah","address2":"","latitude":"27.5752","longitude":"78.7319","accuracy":"3"},{"address3":"Marthara Bhagwandas","state":"Uttar Pradesh","state_code":"36","district":"Etah","district_code":"201","address1":"Etah","address2":"","latitude":"27.5752","longitude":"78.7319","accuracy":"3"}],"207003":[{"address3":"Malwan","state":"Uttar Pradesh","state_code":"36","district":"Etah","district_code":"201","address1":"Etah","address2":"","latitude":"27.5121","longitude":"78.7132","accuracy":"4"},{"address3":"Barauli","state":"Uttar Pradesh","state_code":"36","district":"Etah","district_code":"201","address1":"Etah","address2":"","latitude":"27.5843","longitude":"78.8026","accuracy":"4"},{"address3":"Kansuri","state":"Uttar Pradesh","state_code":"36","district":"Etah","district_code":"201","address1":"Etah","address2":"","latitude":"27.5359","longitude":"78.8481","accuracy":"4"},{"address3":"Garia Sheelam","state":"Uttar Pradesh","state_code":"36","district":"Etah","district_code":"201","address1":"Etah","address2":"","latitude":"27.3866","longitude":"79.0282","accuracy":"3"},{"address3":"Parson","state":"Uttar Pradesh","state_code":"36","district":"Etah","district_code":"201","address1":"Etah","address2":"","latitude":"27.5479","longitude":"78.8792","accuracy":"4"},{"address3":"Hirondi","state":"Uttar Pradesh","state_code":"36","district":"Etah","district_code":"201","address1":"Etah","address2":"","latitude":"27.3866","longitude":"79.0282","accuracy":"3"},{"address3":"Manikpur","state":"Uttar Pradesh","state_code":"36","district":"Etah","district_code":"201","address1":"Etah","address2":"","latitude":"27.4457","longitude":"78.9458","accuracy":"4"},{"address3":"Kashon","state":"Uttar Pradesh","state_code":"36","district":"Etah","district_code":"201","address1":"Etah","address2":"","latitude":"27.3866","longitude":"79.0282","accuracy":"3"},{"address3":"Garhi","state":"Uttar Pradesh","state_code":"36","district":"Etah","district_code":"201","address1":"Etah","address2":"","latitude":"27.602","longitude":"78.8201","accuracy":"4"},{"address3":"Kagrool","state":"Uttar Pradesh","state_code":"36","district":"Etah","district_code":"201","address1":"Etah","address2":"","latitude":"27.3866","longitude":"79.0282","accuracy":"3"},{"address3":"Jamlapur","state":"Uttar Pradesh","state_code":"36","district":"Etah","district_code":"201","address1":"Etah","address2":"","latitude":"27.4457","longitude":"79.022","accuracy":"4"},{"address3":"Mahua Khaira","state":"Uttar Pradesh","state_code":"36","district":"Etah","district_code":"201","address1":"Etah","address2":"","latitude":"27.3866","longitude":"79.0282","accuracy":"3"},{"address3":"Puraon","state":"Uttar Pradesh","state_code":"36","district":"Etah","district_code":"201","address1":"Etah","address2":"","latitude":"27.4833","longitude":"78.7846","accuracy":"4"},{"address3":"Pamas","state":"Uttar Pradesh","state_code":"36","district":"Etah","district_code":"201","address1":"Etah","address2":"","latitude":"27.3866","longitude":"79.0282","accuracy":"3"},{"address3":"Sonhar","state":"Uttar Pradesh","state_code":"36","district":"Etah","district_code":"201","address1":"Etah","address2":"","latitude":"27.5049","longitude":"78.8708","accuracy":"4"},{"address3":"Sheetal Pur","state":"Uttar Pradesh","state_code":"36","district":"Etah","district_code":"201","address1":"Etah","address2":"","latitude":"27.3866","longitude":"79.0282","accuracy":"3"},{"address3":"Nigoh Hasanpur","state":"Uttar Pradesh","state_code":"36","district":"Etah","district_code":"201","address1":"Etah","address2":"","latitude":"27.5031","longitude":"78.8017","accuracy":"4"},{"address3":"Khaddua","state":"Uttar Pradesh","state_code":"36","district":"Etah","district_code":"201","address1":"Etah","address2":"","latitude":"27.3866","longitude":"79.0282","accuracy":"3"},{"address3":"Brahm Sajiwan","state":"Uttar Pradesh","state_code":"36","district":"Etah","district_code":"201","address1":"Etah","address2":"","latitude":"27.3866","longitude":"79.0282","accuracy":"3"},{"address3":"Kartala","state":"Uttar Pradesh","state_code":"36","district":"Etah","district_code":"201","address1":"Etah","address2":"","latitude":"27.5666","longitude":"78.8283","accuracy":"4"},{"address3":"Jeskhpur","state":"Uttar Pradesh","state_code":"36","district":"Etah","district_code":"201","address1":"Etah","address2":"","latitude":"27.3866","longitude":"79.0282","accuracy":"3"},{"address3":"Chhachena","state":"Uttar Pradesh","state_code":"36","district":"Etah","district_code":"201","address1":"Etah","address2":"","latitude":"27.3866","longitude":"79.0282","accuracy":"3"},{"address3":"Bhagwala","state":"Uttar Pradesh","state_code":"36","district":"Etah","district_code":"201","address1":"Etah","address2":"","latitude":"27.3866","longitude":"79.0282","accuracy":"3"}],"207120":[{"address3":"Pilua","state":"Uttar Pradesh","state_code":"36","district":"Etah","district_code":"201","address1":"NA","address2":"","latitude":"27.5121","longitude":"78.7132","accuracy":"4"},{"address3":"Bhadwas","state":"Uttar Pradesh","state_code":"36","district":"Etah","district_code":"201","address1":"Etah","address2":"","latitude":"27.6368","longitude":"78.5088","accuracy":"4"},{"address3":"Jitauli","state":"Uttar Pradesh","state_code":"36","district":"Etah","district_code":"201","address1":"Etah","address2":"","latitude":"27.5649","longitude":"78.5672","accuracy":"4"},{"address3":"Songra","state":"Uttar Pradesh","state_code":"36","district":"Etah","district_code":"201","address1":"Etah","address2":"","latitude":"27.6024","longitude":"78.5356","accuracy":"4"},{"address3":"Barigawan","state":"Uttar Pradesh","state_code":"36","district":"Etah","district_code":"201","address1":"Etah","address2":"","latitude":"27.4832","longitude":"78.5414","accuracy":"3"},{"address3":"Jogamai Kalan","state":"Uttar Pradesh","state_code":"36","district":"Etah","district_code":"201","address1":"Etah","address2":"","latitude":"27.4832","longitude":"78.5414","accuracy":"3"},{"address3":"Muiddinpur","state":"Uttar Pradesh","state_code":"36","district":"Etah","district_code":"201","address1":"Etah","address2":"","latitude":"27.4832","longitude":"78.5414","accuracy":"3"},{"address3":"Barai","state":"Uttar Pradesh","state_code":"36","district":"Etah","district_code":"201","address1":"Etah","address2":"","latitude":"27.6487","longitude":"78.5459","accuracy":"4"}],"207121":[{"address3":"Bhartoli","state":"Uttar Pradesh","state_code":"36","district":"Etah","district_code":"201","address1":"Etah","address2":"","latitude":"27.5121","longitude":"78.7132","accuracy":"3"},{"address3":"Lothra","state":"Uttar Pradesh","state_code":"36","district":"Etah","district_code":"201","address1":"Etah","address2":"","latitude":"27.3716","longitude":"78.7773","accuracy":"4"},{"address3":"Nandpur Bailamay","state":"Uttar Pradesh","state_code":"36","district":"Etah","district_code":"201","address1":"Etah","address2":"","latitude":"27.4388","longitude":"78.7447","accuracy":"3"},{"address3":"Chaprai Sikandarpur","state":"Uttar Pradesh","state_code":"36","district":"Etah","district_code":"201","address1":"Etah","address2":"","latitude":"27.4703","longitude":"78.7012","accuracy":"4"},{"address3":"Sakeet","state":"Uttar Pradesh","state_code":"36","district":"Etah","district_code":"201","address1":"NA","address2":"","latitude":"27.4388","longitude":"78.7447","accuracy":"3"},{"address3":"Angadpur","state":"Uttar Pradesh","state_code":"36","district":"Etah","district_code":"201","address1":"Etah","address2":"","latitude":"27.4746","longitude":"78.7556","accuracy":"4"},{"address3":"Ishara Purbi","state":"Uttar Pradesh","state_code":"36","district":"Etah","district_code":"201","address1":"Etah","address2":"","latitude":"27.4388","longitude":"78.7447","accuracy":"3"},{"address3":"Saina Kalan","state":"Uttar Pradesh","state_code":"36","district":"Etah","district_code":"201","address1":"Etah","address2":"","latitude":"27.4388","longitude":"78.7447","accuracy":"3"},{"address3":"Peepal Khairia","state":"Uttar Pradesh","state_code":"36","district":"Etah","district_code":"201","address1":"Etah","address2":"","latitude":"27.4388","longitude":"78.7447","accuracy":"3"},{"address3":"Ambarpur Rejor","state":"Uttar Pradesh","state_code":"36","district":"Etah","district_code":"201","address1":"NA","address2":"","latitude":"27.4388","longitude":"78.7447","accuracy":"3"},{"address3":"Kawar","state":"Uttar Pradesh","state_code":"36","district":"Etah","district_code":"201","address1":"Etah","address2":"","latitude":"27.4388","longitude":"78.7447","accuracy":"3"}],"207122":[{"address3":"Dalshahpur","state":"Uttar Pradesh","state_code":"36","district":"Etah","district_code":"201","address1":"Jalesar","address2":"","latitude":"27.5121","longitude":"78.7132","accuracy":"3"},{"address3":"Manora","state":"Uttar Pradesh","state_code":"36","district":"Etah","district_code":"201","address1":"Jalesar","address2":"","latitude":"27.598","longitude":"78.461","accuracy":"4"},{"address3":"Margayan","state":"Uttar Pradesh","state_code":"36","district":"Etah","district_code":"201","address1":"Jalesar","address2":"","latitude":"27.5731","longitude":"78.4668","accuracy":"4"},{"address3":"Dholeswar","state":"Uttar Pradesh","state_code":"36","district":"Etah","district_code":"201","address1":"Jalesar","address2":"","latitude":"27.5665","longitude":"78.4655","accuracy":"3"},{"address3":"Mitraul","state":"Uttar Pradesh","state_code":"36","district":"Etah","district_code":"201","address1":"Jalesar","address2":"","latitude":"27.5667","longitude":"78.4225","accuracy":"4"},{"address3":"Magrauli","state":"Uttar Pradesh","state_code":"36","district":"Etah","district_code":"201","address1":"Jalessar","address2":"","latitude":"27.5665","longitude":"78.4655","accuracy":"3"},{"address3":"Jhinwar","state":"Uttar Pradesh","state_code":"36","district":"Etah","district_code":"201","address1":"Jalesar","address2":"","latitude":"27.5281","longitude":"78.5118","accuracy":"4"},{"address3":"Nidholi Kalan","state":"Uttar Pradesh","state_code":"36","district":"Etah","district_code":"201","address1":"Etah","address2":"","latitude":"27.5665","longitude":"78.4655","accuracy":"3"},{"address3":"Gahaitoo","state":"Uttar Pradesh","state_code":"36","district":"Etah","district_code":"201","address1":"Jalesar","address2":"","latitude":"27.5665","longitude":"78.4655","accuracy":"3"}],"207123":[{"address3":"Wazirpur","state":"Uttar Pradesh","state_code":"36","district":"Etah","district_code":"201","address1":"Kasganj","address2":"","latitude":"27.5121","longitude":"78.7132","accuracy":"4"},{"address3":"Rekhpur","state":"Uttar Pradesh","state_code":"36","district":"Etah","district_code":"201","address1":"Kasganj","address2":"","latitude":"27.5121","longitude":"78.7132","accuracy":"4"},{"address3":"Gorha","state":"Uttar Pradesh","state_code":"36","district":"Etah","district_code":"201","address1":"Kasganj","address2":"","latitude":"27.5121","longitude":"78.7132","accuracy":"4"},{"address3":"Nadrai","state":"Uttar Pradesh","state_code":"36","district":"Etah","district_code":"201","address1":"Kasganj","address2":"","latitude":"27.5121","longitude":"78.7132","accuracy":"4"},{"address3":"Kasganj RS","state":"Uttar Pradesh","state_code":"36","district":"Etah","district_code":"201","address1":"Kasganj","address2":"","latitude":"27.9092","longitude":"78.639","accuracy":"3"},{"address3":"Kasganj","state":"Uttar Pradesh","state_code":"36","district":"Etah","district_code":"201","address1":"Kasganj","address2":"","latitude":"27.5121","longitude":"78.7132","accuracy":"4"},{"address3":"Mahdva","state":"Uttar Pradesh","state_code":"36","district":"Etah","district_code":"201","address1":"Kasganj","address2":"","latitude":"27.9092","longitude":"78.639","accuracy":"3"},{"address3":"Behta","state":"Uttar Pradesh","state_code":"36","district":"Etah","district_code":"201","address1":"Kasganj","address2":"","latitude":"27.5121","longitude":"78.7132","accuracy":"4"},{"address3":"Nawab Ganj","state":"Uttar Pradesh","state_code":"36","district":"Etah","district_code":"201","address1":"Kasganj","address2":"","latitude":"27.9092","longitude":"78.639","accuracy":"3"},{"address3":"Mihari","state":"Uttar Pradesh","state_code":"36","district":"Etah","district_code":"201","address1":"Kasganj","address2":"","latitude":"27.5121","longitude":"78.7132","accuracy":"4"},{"address3":"Tilsai","state":"Uttar Pradesh","state_code":"36","district":"Etah","district_code":"201","address1":"Kasganj","address2":"","latitude":"27.9092","longitude":"78.639","accuracy":"3"},{"address3":"Nagla Katila","state":"Uttar Pradesh","state_code":"36","district":"Etah","district_code":"201","address1":"Kasganj","address2":"","latitude":"27.5121","longitude":"78.7132","accuracy":"4"},{"address3":"Kayampur Baheria","state":"Uttar Pradesh","state_code":"36","district":"Etah","district_code":"201","address1":"Kasganj","address2":"","latitude":"27.9092","longitude":"78.639","accuracy":"3"},{"address3":"Salai","state":"Uttar Pradesh","state_code":"36","district":"Etah","district_code":"201","address1":"Kasganj","address2":"","latitude":"27.5121","longitude":"78.7132","accuracy":"4"},{"address3":"Pathreki","state":"Uttar Pradesh","state_code":"36","district":"Etah","district_code":"201","address1":"Kasganj","address2":"","latitude":"27.9092","longitude":"78.639","accuracy":"3"},{"address3":"Barahdwari","state":"Uttar Pradesh","state_code":"36","district":"Etah","district_code":"201","address1":"Kasganj","address2":"","latitude":"27.9092","longitude":"78.639","accuracy":"3"}],"207124":[{"address3":"Pachgain","state":"Uttar Pradesh","state_code":"36","district":"Etah","district_code":"201","address1":"Kasganj","address2":"","latitude":"27.5121","longitude":"78.7132","accuracy":"4"},{"address3":"Dholna","state":"Uttar Pradesh","state_code":"36","district":"Etah","district_code":"201","address1":"Kasganj","address2":"","latitude":"27.5121","longitude":"78.7132","accuracy":"4"},{"address3":"Bilram","state":"Uttar Pradesh","state_code":"36","district":"Etah","district_code":"201","address1":"Kasganj","address2":"","latitude":"27.5121","longitude":"78.7132","accuracy":"4"},{"address3":"Kumraua","state":"Uttar Pradesh","state_code":"36","district":"Etah","district_code":"201","address1":"Kasganj","address2":"","latitude":"27.8501","longitude":"78.5224","accuracy":"3"},{"address3":"Mahawar","state":"Uttar Pradesh","state_code":"36","district":"Etah","district_code":"201","address1":"Kasganj","address2":"","latitude":"27.5121","longitude":"78.7132","accuracy":"4"},{"address3":"Kinawa","state":"Uttar Pradesh","state_code":"36","district":"Etah","district_code":"201","address1":"Kasganj","address2":"","latitude":"27.8501","longitude":"78.5224","accuracy":"3"},{"address3":"Nameni","state":"Uttar Pradesh","state_code":"36","district":"Etah","district_code":"201","address1":"Kasganj","address2":"","latitude":"27.5121","longitude":"78.7132","accuracy":"4"},{"address3":"Kudhar","state":"Uttar Pradesh","state_code":"36","district":"Etah","district_code":"201","address1":"Kasganj","address2":"","latitude":"27.5121","longitude":"78.7132","accuracy":"4"},{"address3":"Harsena","state":"Uttar Pradesh","state_code":"36","district":"Etah","district_code":"201","address1":"Kasganj","address2":"","latitude":"27.5121","longitude":"78.7132","accuracy":"4"},{"address3":"Mubarik Pur Mafi","state":"Uttar Pradesh","state_code":"36","district":"Etah","district_code":"201","address1":"Kasganj","address2":"","latitude":"27.8501","longitude":"78.5224","accuracy":"3"},{"address3":"Jakhera","state":"Uttar Pradesh","state_code":"36","district":"Etah","district_code":"201","address1":"Kasganj","address2":"","latitude":"27.5121","longitude":"78.7132","accuracy":"4"},{"address3":"Kisarauli","state":"Uttar Pradesh","state_code":"36","district":"Etah","district_code":"201","address1":"Kasganj","address2":"","latitude":"27.8501","longitude":"78.5224","accuracy":"3"}],"207125":[{"address3":"Achalpur","state":"Uttar Pradesh","state_code":"36","district":"Etah","district_code":"201","address1":"Kasganj","address2":"","latitude":"27.6824","longitude":"78.691","accuracy":"4"},{"address3":"Naya  Bans","state":"Uttar Pradesh","state_code":"36","district":"Etah","district_code":"201","address1":"Etah","address2":"","latitude":"27.6578","longitude":"78.6122","accuracy":"4"},{"address3":"Mirehachi","state":"Uttar Pradesh","state_code":"36","district":"Etah","district_code":"201","address1":"Etah","address2":"","latitude":"27.6836","longitude":"78.6593","accuracy":"3"},{"address3":"Sheorai","state":"Uttar Pradesh","state_code":"36","district":"Etah","district_code":"201","address1":"Etah","address2":"","latitude":"27.6598","longitude":"78.6912","accuracy":"4"},{"address3":"Banthal Kutukpur","state":"Uttar Pradesh","state_code":"36","district":"Etah","district_code":"201","address1":"Etah","address2":"","latitude":"27.6836","longitude":"78.6593","accuracy":"3"},{"address3":"Sirsa Tippu","state":"Uttar Pradesh","state_code":"36","district":"Etah","district_code":"201","address1":"Etah","address2":"","latitude":"27.6717","longitude":"78.6377","accuracy":"4"},{"address3":"Burhenabad","state":"Uttar Pradesh","state_code":"36","district":"Etah","district_code":"201","address1":"Etah","address2":"","latitude":"27.6836","longitude":"78.6593","accuracy":"3"},{"address3":"Gobra","state":"Uttar Pradesh","state_code":"36","district":"Etah","district_code":"201","address1":"Etah","address2":"","latitude":"27.7274","longitude":"78.665","accuracy":"4"},{"address3":"Dhiramai","state":"Uttar Pradesh","state_code":"36","district":"Etah","district_code":"201","address1":"Etah","address2":"","latitude":"27.6836","longitude":"78.6593","accuracy":"3"},{"address3":"Lodhamai","state":"Uttar Pradesh","state_code":"36","district":"Etah","district_code":"201","address1":"Etah","address2":"","latitude":"27.7024","longitude":"78.6585","accuracy":"4"}],"207241":[{"address3":"Nadarmai","state":"Uttar Pradesh","state_code":"36","district":"Etah","district_code":"201","address1":"Kasganj","address2":"","latitude":"27.5121","longitude":"78.7132","accuracy":"4"},{"address3":"Samaspur Dengri","state":"Uttar Pradesh","state_code":"36","district":"Etah","district_code":"201","address1":"Kasganj","address2":"","latitude":"27.6602","longitude":"78.77","accuracy":"3"},{"address3":"Arjunpur Nauabad","state":"Uttar Pradesh","state_code":"36","district":"Etah","district_code":"201","address1":"Kasganj","address2":"","latitude":"27.5121","longitude":"78.7132","accuracy":"4"},{"address3":"Partappur","state":"Uttar Pradesh","state_code":"36","district":"Etah","district_code":"201","address1":"Kasganj","address2":"","latitude":"27.5014","longitude":"78.9","accuracy":"4"},{"address3":"Sujrai","state":"Uttar Pradesh","state_code":"36","district":"Etah","district_code":"201","address1":"Kasganj","address2":"","latitude":"27.5121","longitude":"78.7132","accuracy":"4"},{"address3":"Sarsai Narau","state":"Uttar Pradesh","state_code":"36","district":"Etah","district_code":"201","address1":"Kasganj","address2":"","latitude":"27.6602","longitude":"78.77","accuracy":"3"},{"address3":"Amanpur","state":"Uttar Pradesh","state_code":"36","district":"Etah","district_code":"201","address1":"Kasganj","address2":"","latitude":"27.5121","longitude":"78.7132","accuracy":"4"},{"address3":"Tharachithara","state":"Uttar Pradesh","state_code":"36","district":"Etah","district_code":"201","address1":"Kasganj","address2":"","latitude":"27.6602","longitude":"78.77","accuracy":"3"},{"address3":"Karsana","state":"Uttar Pradesh","state_code":"36","district":"Etah","district_code":"201","address1":"Kasganj","address2":"","latitude":"27.5121","longitude":"78.7132","accuracy":"4"},{"address3":"Abhaipura","state":"Uttar Pradesh","state_code":"36","district":"Etah","district_code":"201","address1":"Kasganj","address2":"","latitude":"27.5121","longitude":"78.7132","accuracy":"4"}],"207242":[{"address3":"Mohanpur","state":"Uttar Pradesh","state_code":"36","district":"Etah","district_code":"201","address1":"Patiali","address2":"","latitude":"27.582","longitude":"78.554","accuracy":"4"},{"address3":"Garka","state":"Uttar Pradesh","state_code":"36","district":"Etah","district_code":"201","address1":"Patiali","address2":"","latitude":"28.1485","longitude":"78.4236","accuracy":"3"},{"address3":"Midhola Bujurg","state":"Uttar Pradesh","state_code":"36","district":"Etah","district_code":"201","address1":"Patiali","address2":"","latitude":"28.1485","longitude":"78.4236","accuracy":"3"},{"address3":"Bastarmau","state":"Uttar Pradesh","state_code":"36","district":"Etah","district_code":"201","address1":"Patiali","address2":"","latitude":"27.5121","longitude":"78.7132","accuracy":"4"},{"address3":"Bahrojpur","state":"Uttar Pradesh","state_code":"36","district":"Etah","district_code":"201","address1":"Patiali","address2":"","latitude":"28.1485","longitude":"78.4236","accuracy":"3"},{"address3":"Samaspur","state":"Uttar Pradesh","state_code":"36","district":"Etah","district_code":"201","address1":"Patiali","address2":"","latitude":"27.5121","longitude":"78.7132","accuracy":"4"},{"address3":"Sunngarhi","state":"Uttar Pradesh","state_code":"36","district":"Etah","district_code":"201","address1":"Patiali","address2":"","latitude":"28.1485","longitude":"78.4236","accuracy":"3"},{"address3":"Nagla Bhimsen","state":"Uttar Pradesh","state_code":"36","district":"Etah","district_code":"201","address1":"Patiali","address2":"","latitude":"27.5121","longitude":"78.7132","accuracy":"4"},{"address3":"Kadarganj","state":"Uttar Pradesh","state_code":"36","district":"Etah","district_code":"201","address1":"Patiali","address2":"","latitude":"28.1485","longitude":"78.4236","accuracy":"3"},{"address3":"Chirola","state":"Uttar Pradesh","state_code":"36","district":"Etah","district_code":"201","address1":"Patiali","address2":"","latitude":"27.5121","longitude":"78.7132","accuracy":"3"},{"address3":"Sikehara","state":"Uttar Pradesh","state_code":"36","district":"Etah","district_code":"201","address1":"Patiali","address2":"","latitude":"28.1485","longitude":"78.4236","accuracy":"3"},{"address3":"Karampur","state":"Uttar Pradesh","state_code":"36","district":"Etah","district_code":"201","address1":"Patiali","address2":"","latitude":"27.5121","longitude":"78.7132","accuracy":"4"},{"address3":"Gunjdundwara","state":"Uttar Pradesh","state_code":"36","district":"Etah","district_code":"201","address1":"Patiali","address2":"","latitude":"28.1485","longitude":"78.4236","accuracy":"3"},{"address3":"Singpur","state":"Uttar Pradesh","state_code":"36","district":"Etah","district_code":"201","address1":"Patiali","address2":"","latitude":"27.5121","longitude":"78.7132","accuracy":"4"}],"207243":[{"address3":"Jagpura","state":"Uttar Pradesh","state_code":"36","district":"Etah","district_code":"201","address1":"Patiali","address2":"","latitude":"27.675","longitude":"78.9858","accuracy":"3"},{"address3":"Sanauri Khas","state":"Uttar Pradesh","state_code":"36","district":"Etah","district_code":"201","address1":"Patiali","address2":"","latitude":"27.675","longitude":"78.9858","accuracy":"3"},{"address3":"Hathodaban","state":"Uttar Pradesh","state_code":"36","district":"Etah","district_code":"201","address1":"Patiali","address2":"","latitude":"27.675","longitude":"78.9858","accuracy":"3"},{"address3":"Aurangabad","state":"Uttar Pradesh","state_code":"36","district":"Etah","district_code":"201","address1":"Patiali","address2":"","latitude":"27.5121","longitude":"78.7132","accuracy":"4"},{"address3":"Bahdola","state":"Uttar Pradesh","state_code":"36","district":"Etah","district_code":"201","address1":"Patiali","address2":"","latitude":"27.675","longitude":"78.9858","accuracy":"3"},{"address3":"Bahora","state":"Uttar Pradesh","state_code":"36","district":"Etah","district_code":"201","address1":"Patiali","address2":"","latitude":"27.5121","longitude":"78.7132","accuracy":"4"},{"address3":"Myau","state":"Uttar Pradesh","state_code":"36","district":"Etah","district_code":"201","address1":"Patiali","address2":"","latitude":"27.675","longitude":"78.9858","accuracy":"3"},{"address3":"Ballia","state":"Uttar Pradesh","state_code":"36","district":"Etah","district_code":"201","address1":"Patiali","address2":"","latitude":"27.5121","longitude":"78.7132","accuracy":"4"},{"address3":"Rajepur Kurra","state":"Uttar Pradesh","state_code":"36","district":"Etah","district_code":"201","address1":"Patiali","address2":"","latitude":"27.675","longitude":"78.9858","accuracy":"3"},{"address3":"Patiali","state":"Uttar Pradesh","state_code":"36","district":"Etah","district_code":"201","address1":"Patiali","address2":"","latitude":"27.5121","longitude":"78.7132","accuracy":"4"},{"address3":"Thana Darioganj","state":"Uttar Pradesh","state_code":"36","district":"Etah","district_code":"201","address1":"Patiali","address2":"","latitude":"27.675","longitude":"78.9858","accuracy":"3"},{"address3":"Ashokpur","state":"Uttar Pradesh","state_code":"36","district":"Etah","district_code":"201","address1":"Patiali","address2":"","latitude":"27.5121","longitude":"78.7132","accuracy":"4"},{"address3":"Raja Rijola","state":"Uttar Pradesh","state_code":"36","district":"Etah","district_code":"201","address1":"Patiali","address2":"","latitude":"27.675","longitude":"78.9858","accuracy":"3"},{"address3":"Khaduya","state":"Uttar Pradesh","state_code":"36","district":"Etah","district_code":"201","address1":"Patiali","address2":"","latitude":"27.675","longitude":"78.9858","accuracy":"3"},{"address3":"Nardoli","state":"Uttar Pradesh","state_code":"36","district":"Etah","district_code":"201","address1":"Patiali","address2":"","latitude":"27.675","longitude":"78.9858","accuracy":"3"},{"address3":"Narthar","state":"Uttar Pradesh","state_code":"36","district":"Etah","district_code":"201","address1":"Patiali","address2":"","latitude":"27.6406","longitude":"79.0088","accuracy":"4"},{"address3":"Sahori","state":"Uttar Pradesh","state_code":"36","district":"Etah","district_code":"201","address1":"Patiali","address2":"","latitude":"27.592","longitude":"79.0065","accuracy":"4"}],"207244":[{"address3":"Bijora","state":"Uttar Pradesh","state_code":"36","district":"Etah","district_code":"201","address1":"Aliganj","address2":"","latitude":"27.5121","longitude":"78.7132","accuracy":"4"},{"address3":"Shahpur Tehla","state":"Uttar Pradesh","state_code":"36","district":"Etah","district_code":"201","address1":"Patiyali","address2":"","latitude":"27.0839","longitude":"79.1286","accuracy":"3"},{"address3":"Bilsad","state":"Uttar Pradesh","state_code":"36","district":"Etah","district_code":"201","address1":"Aliganj","address2":"","latitude":"27.5121","longitude":"78.7132","accuracy":"3"},{"address3":"Alliyapur","state":"Uttar Pradesh","state_code":"36","district":"Etah","district_code":"201","address1":"Aliganj","address2":"","latitude":"27.0839","longitude":"79.1286","accuracy":"3"},{"address3":"Nagla Pohpi","state":"Uttar Pradesh","state_code":"36","district":"Etah","district_code":"201","address1":"Patiali","address2":"","latitude":"27.5121","longitude":"78.7132","accuracy":"4"},{"address3":"Luhari Kherra","state":"Uttar Pradesh","state_code":"36","district":"Etah","district_code":"201","address1":"Aliganj","address2":"","latitude":"27.0839","longitude":"79.1286","accuracy":"3"},{"address3":"Gariya Jagannath","state":"Uttar Pradesh","state_code":"36","district":"Etah","district_code":"201","address1":"Aliganj","address2":"","latitude":"27.0839","longitude":"79.1286","accuracy":"3"},{"address3":"Mokampur","state":"Uttar Pradesh","state_code":"36","district":"Etah","district_code":"201","address1":"Aliganj","address2":"","latitude":"27.5735","longitude":"79.0428","accuracy":"4"},{"address3":"Majhola","state":"Uttar Pradesh","state_code":"36","district":"Etah","district_code":"201","address1":"Aliganj","address2":"","latitude":"27.4218","longitude":"79.1845","accuracy":"4"},{"address3":"Raja Ka Rampur","state":"Uttar Pradesh","state_code":"36","district":"Etah","district_code":"201","address1":"Aliganj","address2":"","latitude":"27.0839","longitude":"79.1286","accuracy":"3"},{"address3":"Bhargain","state":"Uttar Pradesh","state_code":"36","district":"Etah","district_code":"201","address1":"Aliganj","address2":"","latitude":"27.5121","longitude":"78.7132","accuracy":"4"}],"207245":[{"address3":"Khojpur","state":"Uttar Pradesh","state_code":"36","district":"Etah","district_code":"201","address1":"NA","address2":"","latitude":"27.5121","longitude":"78.7132","accuracy":"4"},{"address3":"Myasur","state":"Uttar Pradesh","state_code":"36","district":"Etah","district_code":"201","address1":"Kasganj","address2":"","latitude":"27.6527","longitude":"78.9592","accuracy":"3"},{"address3":"Sahawar","state":"Uttar Pradesh","state_code":"36","district":"Etah","district_code":"201","address1":"Patiali","address2":"","latitude":"27.5121","longitude":"78.7132","accuracy":"4"},{"address3":"Amirasa","state":"Uttar Pradesh","state_code":"36","district":"Etah","district_code":"201","address1":"Kasganj","address2":"","latitude":"27.6527","longitude":"78.9592","accuracy":"3"},{"address3":"Jahangirpur","state":"Uttar Pradesh","state_code":"36","district":"Etah","district_code":"201","address1":"Kasganj","address2":"","latitude":"27.4181","longitude":"79.1999","accuracy":"4"},{"address3":"Yakootganj","state":"Uttar Pradesh","state_code":"36","district":"Etah","district_code":"201","address1":"Kasganj","address2":"","latitude":"27.6527","longitude":"78.9592","accuracy":"3"},{"address3":"Faroli","state":"Uttar Pradesh","state_code":"36","district":"Etah","district_code":"201","address1":"Kasganj","address2":"","latitude":"27.6527","longitude":"78.9592","accuracy":"3"},{"address3":"Kachhela","state":"Uttar Pradesh","state_code":"36","district":"Etah","district_code":"201","address1":"Kasganj","address2":"","latitude":"27.6527","longitude":"78.9592","accuracy":"3"}],"207246":[{"address3":"Pithanpur","state":"Uttar Pradesh","state_code":"36","district":"Etah","district_code":"201","address1":"Patiali","address2":"","latitude":"27.5121","longitude":"78.7132","accuracy":"4"},{"address3":"Fatehpur","state":"Uttar Pradesh","state_code":"36","district":"Etah","district_code":"201","address1":"Patiali","address2":"","latitude":"27.6232","longitude":"78.7283","accuracy":"4"},{"address3":"Pilkhuni","state":"Uttar Pradesh","state_code":"36","district":"Etah","district_code":"201","address1":"Patiali","address2":"","latitude":"27.5121","longitude":"78.7132","accuracy":"4"},{"address3":"Dhondhara","state":"Uttar Pradesh","state_code":"36","district":"Etah","district_code":"201","address1":"Patiali","address2":"","latitude":"27.5683","longitude":"78.8759","accuracy":"3"},{"address3":"Naugaon","state":"Uttar Pradesh","state_code":"36","district":"Etah","district_code":"201","address1":"Patiali","address2":"","latitude":"27.5121","longitude":"78.7132","accuracy":"4"},{"address3":"Kamalpur","state":"Uttar Pradesh","state_code":"36","district":"Etah","district_code":"201","address1":"Patiali","address2":"","latitude":"27.5819","longitude":"78.8169","accuracy":"4"},{"address3":"Magthara","state":"Uttar Pradesh","state_code":"36","district":"Etah","district_code":"201","address1":"Patiali","address2":"","latitude":"27.5121","longitude":"78.7132","accuracy":"4"},{"address3":"Bhensrasi","state":"Uttar Pradesh","state_code":"36","district":"Etah","district_code":"201","address1":"Patiali","address2":"","latitude":"27.5683","longitude":"78.8759","accuracy":"3"},{"address3":"Dhansinghpur","state":"Uttar Pradesh","state_code":"36","district":"Etah","district_code":"201","address1":"Patiali","address2":"","latitude":"27.5121","longitude":"78.7132","accuracy":"4"},{"address3":"Khiriya Patti","state":"Uttar Pradesh","state_code":"36","district":"Etah","district_code":"201","address1":"Patiali","address2":"","latitude":"27.5683","longitude":"78.8759","accuracy":"3"},{"address3":"Sultanpur","state":"Uttar Pradesh","state_code":"36","district":"Etah","district_code":"201","address1":"Patiali","address2":"","latitude":"27.3864","longitude":"79.1954","accuracy":"4"},{"address3":"Sirhpura","state":"Uttar Pradesh","state_code":"36","district":"Etah","district_code":"201","address1":"Patiali","address2":"","latitude":"27.5121","longitude":"78.7132","accuracy":"4"},{"address3":"Aun","state":"Uttar Pradesh","state_code":"36","district":"Etah","district_code":"201","address1":"NA","address2":"","latitude":"27.6131","longitude":"78.7933","accuracy":"4"},{"address3":"Bhujpura","state":"Uttar Pradesh","state_code":"36","district":"Etah","district_code":"201","address1":"Patiali","address2":"","latitude":"27.5121","longitude":"78.7132","accuracy":"4"}],"207247":[{"address3":"Kaila","state":"Uttar Pradesh","state_code":"36","district":"Etah","district_code":"201","address1":"Aliganj","address2":"","latitude":"27.537","longitude":"79.145","accuracy":"4"},{"address3":"Ubhai Asadnagar","state":"Uttar Pradesh","state_code":"36","district":"Etah","district_code":"201","address1":"Aliganj","address2":"","latitude":"27.4199","longitude":"79.2143","accuracy":"4"},{"address3":"Angriya","state":"Uttar Pradesh","state_code":"36","district":"Etah","district_code":"201","address1":"Aliganj","address2":"","latitude":"27.4771","longitude":"79.2381","accuracy":"3"},{"address3":"Akbarpurkot","state":"Uttar Pradesh","state_code":"36","district":"Etah","district_code":"201","address1":"Aliganj","address2":"","latitude":"27.4622","longitude":"79.1421","accuracy":"4"},{"address3":"Jasrathpur","state":"Uttar Pradesh","state_code":"36","district":"Etah","district_code":"201","address1":"Aliganj","address2":"","latitude":"27.5121","longitude":"78.7132","accuracy":"4"},{"address3":"Aliganj (Etah)","state":"Uttar Pradesh","state_code":"36","district":"Etah","district_code":"201","address1":"Aliganj","address2":"","latitude":"27.4936","longitude":"79.1713","accuracy":"4"},{"address3":"Amraulirattanpur","state":"Uttar Pradesh","state_code":"36","district":"Etah","district_code":"201","address1":"Aliganj","address2":"","latitude":"27.4771","longitude":"79.2381","accuracy":"3"},{"address3":"Sarauth","state":"Uttar Pradesh","state_code":"36","district":"Etah","district_code":"201","address1":"Aliganj","address2":"","latitude":"27.459","longitude":"79.089","accuracy":"4"},{"address3":"Junedpur","state":"Uttar Pradesh","state_code":"36","district":"Etah","district_code":"201","address1":"Aliganj","address2":"","latitude":"27.4706","longitude":"79.1967","accuracy":"4"},{"address3":"Daheliyapooth","state":"Uttar Pradesh","state_code":"36","district":"Etah","district_code":"201","address1":"Aliganj","address2":"","latitude":"27.4771","longitude":"79.2381","accuracy":"3"},{"address3":"Gahi","state":"Uttar Pradesh","state_code":"36","district":"Etah","district_code":"201","address1":"Aliganj","address2":"","latitude":"27.4403","longitude":"79.2322","accuracy":"4"},{"address3":"Datingara","state":"Uttar Pradesh","state_code":"36","district":"Etah","district_code":"201","address1":"Etah","address2":"","latitude":"27.4771","longitude":"79.2381","accuracy":"3"},{"address3":"Kakora","state":"Uttar Pradesh","state_code":"36","district":"Etah","district_code":"201","address1":"Aliganj","address2":"","latitude":"27.5432","longitude":"79.0986","accuracy":"4"},{"address3":"Nagla Gajpat","state":"Uttar Pradesh","state_code":"36","district":"Etah","district_code":"201","address1":"Aliganj","address2":"","latitude":"27.4771","longitude":"79.2381","accuracy":"3"},{"address3":"Sarutiya","state":"Uttar Pradesh","state_code":"36","district":"Etah","district_code":"201","address1":"Aliganj","address2":"","latitude":"27.4771","longitude":"79.2381","accuracy":"3"},{"address3":"Pardanapur","state":"Uttar Pradesh","state_code":"36","district":"Etah","district_code":"201","address1":"Aliganj","address2":"","latitude":"27.4771","longitude":"79.2381","accuracy":"3"},{"address3":"Nadrala","state":"Uttar Pradesh","state_code":"36","district":"Etah","district_code":"201","address1":"Aliganj","address2":"","latitude":"27.4179","longitude":"79.152","accuracy":"4"},{"address3":"Mohammadnagar Bajhera","state":"Uttar Pradesh","state_code":"36","district":"Etah","district_code":"201","address1":"Aliganj","address2":"","latitude":"27.4771","longitude":"79.2381","accuracy":"3"}],"207248":[{"address3":"Sarawal","state":"Uttar Pradesh","state_code":"36","district":"Etah","district_code":"201","address1":"Patiali","address2":"","latitude":"27.5121","longitude":"78.7132","accuracy":"4"},{"address3":"Shikhpura","state":"Uttar Pradesh","state_code":"36","district":"Etah","district_code":"201","address1":"Aliganj","address2":"","latitude":"27.5174","longitude":"78.9343","accuracy":"3"},{"address3":"Jasmai","state":"Uttar Pradesh","state_code":"36","district":"Etah","district_code":"201","address1":"Aliganj","address2":"","latitude":"27.5121","longitude":"78.7132","accuracy":"4"},{"address3":"Datauli","state":"Uttar Pradesh","state_code":"36","district":"Etah","district_code":"201","address1":"Aliganj","address2":"","latitude":"27.5724","longitude":"78.9772","accuracy":"4"},{"address3":"Udaipura","state":"Uttar Pradesh","state_code":"36","district":"Etah","district_code":"201","address1":"Aliganj","address2":"","latitude":"27.5121","longitude":"78.7132","accuracy":"4"},{"address3":"Rupdhani","state":"Uttar Pradesh","state_code":"36","district":"Etah","district_code":"201","address1":"Aliganj","address2":"","latitude":"27.4796","longitude":"78.9329","accuracy":"4"},{"address3":"Baroliya","state":"Uttar Pradesh","state_code":"36","district":"Etah","district_code":"201","address1":"Aliganj","address2":"","latitude":"27.5174","longitude":"78.9343","accuracy":"3"},{"address3":"Jalalpur Santhal","state":"Uttar Pradesh","state_code":"36","district":"Etah","district_code":"201","address1":"Etah","address2":"","latitude":"27.504","longitude":"78.8941","accuracy":"4"},{"address3":"Fagnaul","state":"Uttar Pradesh","state_code":"36","district":"Etah","district_code":"201","address1":"Aliganj","address2":"","latitude":"27.5174","longitude":"78.9343","accuracy":"3"},{"address3":"Kasela","state":"Uttar Pradesh","state_code":"36","district":"Etah","district_code":"201","address1":"Aliganj","address2":"","latitude":"27.4966","longitude":"78.945","accuracy":"4"},{"address3":"Dhumri","state":"Uttar Pradesh","state_code":"36","district":"Etah","district_code":"201","address1":"Aliganj","address2":"","latitude":"27.5371","longitude":"78.9311","accuracy":"4"}],"207249":[{"address3":"Pinjari","state":"Uttar Pradesh","state_code":"36","district":"Etah","district_code":"201","address1":"Aliganj","address2":"","latitude":"27.5121","longitude":"78.7132","accuracy":"3"},{"address3":"Khirya Nagar Shah","state":"Uttar Pradesh","state_code":"36","district":"Etah","district_code":"201","address1":"Aliganj","address2":"","latitude":"27.5508","longitude":"78.7367","accuracy":"3"},{"address3":"Suhagpur","state":"Uttar Pradesh","state_code":"36","district":"Etah","district_code":"201","address1":"Aliganj","address2":"","latitude":"27.5121","longitude":"78.7132","accuracy":"4"},{"address3":"Meidupura","state":"Uttar Pradesh","state_code":"36","district":"Etah","district_code":"201","address1":"Aliganj","address2":"","latitude":"27.5508","longitude":"78.7367","accuracy":"3"},{"address3":"Barahpur","state":"Uttar Pradesh","state_code":"36","district":"Etah","district_code":"201","address1":"Aliganj","address2":"","latitude":"27.5121","longitude":"78.7132","accuracy":"3"},{"address3":"Dharoli","state":"Uttar Pradesh","state_code":"36","district":"Etah","district_code":"201","address1":"Aliganj","address2":"","latitude":"27.5508","longitude":"78.7367","accuracy":"3"},{"address3":"Barna","state":"Uttar Pradesh","state_code":"36","district":"Etah","district_code":"201","address1":"Aliganj","address2":"","latitude":"27.4463","longitude":"78.9729","accuracy":"4"},{"address3":"Bhalol","state":"Uttar Pradesh","state_code":"36","district":"Etah","district_code":"201","address1":"Aliganj","address2":"","latitude":"27.5508","longitude":"78.7367","accuracy":"3"},{"address3":"Nagla Leeladhar","state":"Uttar Pradesh","state_code":"36","district":"Etah","district_code":"201","address1":"Aliganj","address2":"","latitude":"27.5508","longitude":"78.7367","accuracy":"3"},{"address3":"Jaithra","state":"Uttar Pradesh","state_code":"36","district":"Etah","district_code":"201","address1":"Aliganj","address2":"","latitude":"27.5105","longitude":"79.0194","accuracy":"4"},{"address3":"Sahadat Nagar","state":"Uttar Pradesh","state_code":"36","district":"Etah","district_code":"201","address1":"Aliganj","address2":"","latitude":"27.5508","longitude":"78.7367","accuracy":"3"},{"address3":"Targawan","state":"Uttar Pradesh","state_code":"36","district":"Etah","district_code":"201","address1":"Aliganj","address2":"","latitude":"27.4799","longitude":"78.9728","accuracy":"4"},{"address3":"Daheliya","state":"Uttar Pradesh","state_code":"36","district":"Etah","district_code":"201","address1":"Aliganj","address2":"","latitude":"27.5508","longitude":"78.7367","accuracy":"3"},{"address3":"Bhaupura","state":"Uttar Pradesh","state_code":"36","district":"Etah","district_code":"201","address1":"Aliganj","address2":"","latitude":"27.4535","longitude":"79.0095","accuracy":"4"},{"address3":"Jiroliya","state":"Uttar Pradesh","state_code":"36","district":"Etah","district_code":"201","address1":"Aliganj","address2":"","latitude":"27.5508","longitude":"78.7367","accuracy":"3"}],"207250":[{"address3":"Alipur","state":"Uttar Pradesh","state_code":"36","district":"Etah","district_code":"201","address1":"Aliganj","address2":"","latitude":"27.3946","longitude":"79.1842","accuracy":"4"},{"address3":"Sarai Aghat","state":"Uttar Pradesh","state_code":"36","district":"Etah","district_code":"201","address1":"Aliganj","address2":"","latitude":"27.3512","longitude":"79.2703","accuracy":"4"},{"address3":"Kalua Teel Pur","state":"Uttar Pradesh","state_code":"36","district":"Etah","district_code":"201","address1":"Aliganj","address2":"","latitude":"27.3753","longitude":"79.2296","accuracy":"3"},{"address3":"Kharsulia","state":"Uttar Pradesh","state_code":"36","district":"Etah","district_code":"201","address1":"Aliganj","address2":"","latitude":"27.3801","longitude":"79.2342","accuracy":"4"}],"207301":[{"address3":"Barabhodela","state":"Uttar Pradesh","state_code":"36","district":"Etah","district_code":"201","address1":"Jaleshar","address2":"","latitude":"27.4223","longitude":"78.4351","accuracy":"3"},{"address3":"Awagarh","state":"Uttar Pradesh","state_code":"36","district":"Etah","district_code":"201","address1":"Etah","address2":"","latitude":"27.4223","longitude":"78.4351","accuracy":"3"},{"address3":"Basundhara","state":"Uttar Pradesh","state_code":"36","district":"Etah","district_code":"201","address1":"Etah","address2":"","latitude":"27.4223","longitude":"78.4351","accuracy":"3"},{"address3":"Jalukhera","state":"Uttar Pradesh","state_code":"36","district":"Etah","district_code":"201","address1":"Jalesher","address2":"","latitude":"27.431","longitude":"78.394","accuracy":"4"},{"address3":"Baraikalyanpur","state":"Uttar Pradesh","state_code":"36","district":"Etah","district_code":"201","address1":"Jaleshar","address2":"","latitude":"27.4223","longitude":"78.4351","accuracy":"3"},{"address3":"Tikathar","state":"Uttar Pradesh","state_code":"36","district":"Etah","district_code":"201","address1":"Jalesar","address2":"","latitude":"27.378","longitude":"78.43","accuracy":"4"},{"address3":"Rohina Mirjapur","state":"Uttar Pradesh","state_code":"36","district":"Etah","district_code":"201","address1":"Jalesher","address2":"","latitude":"27.4223","longitude":"78.4351","accuracy":"3"},{"address3":"Pondari","state":"Uttar Pradesh","state_code":"36","district":"Etah","district_code":"201","address1":"Jalesher","address2":"","latitude":"27.4223","longitude":"78.4351","accuracy":"3"},{"address3":"Narura","state":"Uttar Pradesh","state_code":"36","district":"Etah","district_code":"201","address1":"Jalesher","address2":"","latitude":"27.4223","longitude":"78.4351","accuracy":"3"},{"address3":"Khatout","state":"Uttar Pradesh","state_code":"36","district":"Etah","district_code":"201","address1":"Jalesher","address2":"","latitude":"27.4223","longitude":"78.4351","accuracy":"3"},{"address3":"Gahrana","state":"Uttar Pradesh","state_code":"36","district":"Etah","district_code":"201","address1":"Jalesher","address2":"","latitude":"27.4223","longitude":"78.4351","accuracy":"3"},{"address3":"Pipehra","state":"Uttar Pradesh","state_code":"36","district":"Etah","district_code":"201","address1":"Jalesher","address2":"","latitude":"27.5036","longitude":"78.5075","accuracy":"4"},{"address3":"Borakalan","state":"Uttar Pradesh","state_code":"36","district":"Etah","district_code":"201","address1":"Jalesher","address2":"","latitude":"27.4223","longitude":"78.4351","accuracy":"3"},{"address3":"Jarani Kalan","state":"Uttar Pradesh","state_code":"36","district":"Etah","district_code":"201","address1":"Jalesher","address2":"","latitude":"27.3766","longitude":"78.4088","accuracy":"4"}],"207302":[{"address3":"Simrau","state":"Uttar Pradesh","state_code":"36","district":"Etah","district_code":"201","address1":"Jaleasr","address2":"","latitude":"27.5121","longitude":"78.7132","accuracy":"4"},{"address3":"Ganehspur","state":"Uttar Pradesh","state_code":"36","district":"Etah","district_code":"201","address1":"Jalesar","address2":"","latitude":"27.524","longitude":"78.3662","accuracy":"3"},{"address3":"Maksud Pur","state":"Uttar Pradesh","state_code":"36","district":"Etah","district_code":"201","address1":"Jalesasr","address2":"","latitude":"27.524","longitude":"78.3662","accuracy":"3"},{"address3":"Takhawan","state":"Uttar Pradesh","state_code":"36","district":"Etah","district_code":"201","address1":"Jalesar","address2":"","latitude":"27.3977","longitude":"78.2838","accuracy":"4"},{"address3":"Shakrauli","state":"Uttar Pradesh","state_code":"36","district":"Etah","district_code":"201","address1":"Jalesar","address2":"","latitude":"27.5121","longitude":"78.7132","accuracy":"4"},{"address3":"Isauli","state":"Uttar Pradesh","state_code":"36","district":"Etah","district_code":"201","address1":"Jaleasr","address2":"","latitude":"27.3751","longitude":"78.3819","accuracy":"4"},{"address3":"Jamon","state":"Uttar Pradesh","state_code":"36","district":"Etah","district_code":"201","address1":"Jalesar","address2":"","latitude":"27.524","longitude":"78.3662","accuracy":"3"},{"address3":"Badhawali","state":"Uttar Pradesh","state_code":"36","district":"Etah","district_code":"201","address1":"Jalesar","address2":"","latitude":"27.524","longitude":"78.3662","accuracy":"3"},{"address3":"Rajwali","state":"Uttar Pradesh","state_code":"36","district":"Etah","district_code":"201","address1":"Jalesar","address2":"","latitude":"27.524","longitude":"78.3662","accuracy":"3"},{"address3":"Narau","state":"Uttar Pradesh","state_code":"36","district":"Etah","district_code":"201","address1":"NA","address2":"","latitude":"27.445","longitude":"78.3725","accuracy":"4"},{"address3":"Pilkhatra","state":"Uttar Pradesh","state_code":"36","district":"Etah","district_code":"201","address1":"Jalesar","address2":"","latitude":"27.5561","longitude":"78.3766","accuracy":"4"},{"address3":"Jainpura","state":"Uttar Pradesh","state_code":"36","district":"Etah","district_code":"201","address1":"Jalesar","address2":"","latitude":"27.5128","longitude":"78.2902","accuracy":"4"},{"address3":"Berni","state":"Uttar Pradesh","state_code":"36","district":"Etah","district_code":"201","address1":"Jalesar","address2":"","latitude":"27.4586","longitude":"78.2135","accuracy":"4"},{"address3":"Gudaun","state":"Uttar Pradesh","state_code":"36","district":"Etah","district_code":"201","address1":"Jalesar","address2":"","latitude":"27.524","longitude":"78.3662","accuracy":"3"},{"address3":"Punhera","state":"Uttar Pradesh","state_code":"36","district":"Etah","district_code":"201","address1":"Jalesar","address2":"","latitude":"27.4729","longitude":"78.3781","accuracy":"4"},{"address3":"Misauli","state":"Uttar Pradesh","state_code":"36","district":"Etah","district_code":"201","address1":"Jalesar","address2":"","latitude":"27.4922","longitude":"78.2178","accuracy":"4"},{"address3":"Rejua","state":"Uttar Pradesh","state_code":"36","district":"Etah","district_code":"201","address1":"Jalesar","address2":"","latitude":"27.5061","longitude":"78.3723","accuracy":"4"},{"address3":"Chirgawan","state":"Uttar Pradesh","state_code":"36","district":"Etah","district_code":"201","address1":"Jalesar","address2":"","latitude":"27.5046","longitude":"78.2741","accuracy":"4"},{"address3":"Nagla Anni","state":"Uttar Pradesh","state_code":"36","district":"Etah","district_code":"201","address1":"Jalesar","address2":"","latitude":"27.538","longitude":"78.5948","accuracy":"4"},{"address3":"Neem Khera","state":"Uttar Pradesh","state_code":"36","district":"Etah","district_code":"201","address1":"Jalesar","address2":"","latitude":"27.524","longitude":"78.3662","accuracy":"3"},{"address3":"Jalesar","state":"Uttar Pradesh","state_code":"36","district":"Etah","district_code":"201","address1":"Jalesar","address2":"","latitude":"27.4732","longitude":"78.3031","accuracy":"4"},{"address3":"Sarai Neem","state":"Uttar Pradesh","state_code":"36","district":"Etah","district_code":"201","address1":"Jaleasr","address2":"","latitude":"27.524","longitude":"78.3662","accuracy":"3"},{"address3":"Shahnagar Timarua","state":"Uttar Pradesh","state_code":"36","district":"Etah","district_code":"201","address1":"Jalesar","address2":"","latitude":"27.4292","longitude":"78.2496","accuracy":"4"},{"address3":"Naukhera","state":"Uttar Pradesh","state_code":"36","district":"Etah","district_code":"201","address1":"Jalesar","address2":"","latitude":"27.5121","longitude":"78.7132","accuracy":"3"}],"207401":[{"address3":"Tirlokpur","state":"Uttar Pradesh","state_code":"36","district":"Etah","district_code":"201","address1":"Kasganj","address2":"","latitude":"27.5121","longitude":"78.7132","accuracy":"4"},{"address3":"Bahadurpur","state":"Uttar Pradesh","state_code":"36","district":"Etah","district_code":"201","address1":"Kasganj","address2":"","latitude":"27.6537","longitude":"78.6268","accuracy":"4"},{"address3":"Kantore","state":"Uttar Pradesh","state_code":"36","district":"Etah","district_code":"201","address1":"Etah","address2":"","latitude":"27.7127","longitude":"78.6246","accuracy":"3"},{"address3":"Kanar Kheraa","state":"Uttar Pradesh","state_code":"36","district":"Etah","district_code":"201","address1":"Kasganj","address2":"","latitude":"27.7127","longitude":"78.6246","accuracy":"3"},{"address3":"Salempur Pironda","state":"Uttar Pradesh","state_code":"36","district":"Etah","district_code":"201","address1":"Kasganj","address2":"","latitude":"27.5121","longitude":"78.7132","accuracy":"4"},{"address3":"Mohanpura","state":"Uttar Pradesh","state_code":"36","district":"Etah","district_code":"201","address1":"Etah","address2":"","latitude":"27.5121","longitude":"78.7132","accuracy":"4"},{"address3":"Mehni Sora","state":"Uttar Pradesh","state_code":"36","district":"Etah","district_code":"201","address1":"Kasganj","address2":"","latitude":"27.7127","longitude":"78.6246","accuracy":"3"},{"address3":"Beri","state":"Uttar Pradesh","state_code":"36","district":"Etah","district_code":"201","address1":"Kasganj","address2":"","latitude":"27.528","longitude":"78.9584","accuracy":"4"},{"address3":"Marehara","state":"Uttar Pradesh","state_code":"36","district":"Etah","district_code":"201","address1":"Etah","address2":"","latitude":"27.7127","longitude":"78.6246","accuracy":"3"},{"address3":"Piwari","state":"Uttar Pradesh","state_code":"36","district":"Etah","district_code":"201","address1":"Kasganj","address2":"","latitude":"27.7712","longitude":"78.5515","accuracy":"4"},{"address3":"Kutukpur Kaseri","state":"Uttar Pradesh","state_code":"36","district":"Etah","district_code":"201","address1":"Kasganj","address2":"","latitude":"27.7127","longitude":"78.6246","accuracy":"3"},{"address3":"Mohani Mamoorganj","state":"Uttar Pradesh","state_code":"36","district":"Etah","district_code":"201","address1":"Kasganj","address2":"","latitude":"27.7127","longitude":"78.6246","accuracy":"3"},{"address3":"Pidora","state":"Uttar Pradesh","state_code":"36","district":"Etah","district_code":"201","address1":"Kasganj","address2":"","latitude":"27.7127","longitude":"78.6246","accuracy":"3"}],"207402":[{"address3":"Neoli","state":"Uttar Pradesh","state_code":"36","district":"Etah","district_code":"201","address1":"Kasganj","address2":"","latitude":"27.5121","longitude":"78.7132","accuracy":"4"},{"address3":"Gaupura","state":"Uttar Pradesh","state_code":"36","district":"Etah","district_code":"201","address1":"Kasganj","address2":"","latitude":"27.0917","longitude":"80.0793","accuracy":"3"},{"address3":"Roshan Nagar","state":"Uttar Pradesh","state_code":"36","district":"Etah","district_code":"201","address1":"Kasganj","address2":"","latitude":"27.5121","longitude":"78.7132","accuracy":"3"},{"address3":"Baznagar","state":"Uttar Pradesh","state_code":"36","district":"Etah","district_code":"201","address1":"Kasganj","address2":"","latitude":"27.0917","longitude":"80.0793","accuracy":"3"}],"207403":[{"address3":"Kadarwadi","state":"Uttar Pradesh","state_code":"36","district":"Etah","district_code":"201","address1":"Kasganj","address2":"","latitude":"27.7893","longitude":"78.7824","accuracy":"3"},{"address3":"Badria","state":"Uttar Pradesh","state_code":"36","district":"Etah","district_code":"201","address1":"Sahawar","address2":"","latitude":"27.6083","longitude":"78.6598","accuracy":"4"},{"address3":"Sirawali","state":"Uttar Pradesh","state_code":"36","district":"Etah","district_code":"201","address1":"Kasganj","address2":"","latitude":"27.5121","longitude":"78.7132","accuracy":"4"},{"address3":"Virahampuri","state":"Uttar Pradesh","state_code":"36","district":"Etah","district_code":"201","address1":"Kasganj","address2":"","latitude":"27.7893","longitude":"78.7824","accuracy":"3"},{"address3":"Devri Prahlad Pur","state":"Uttar Pradesh","state_code":"36","district":"Etah","district_code":"201","address1":"Sahawar","address2":"","latitude":"27.7893","longitude":"78.7824","accuracy":"3"},{"address3":"Khairpur","state":"Uttar Pradesh","state_code":"36","district":"Etah","district_code":"201","address1":"Kasganj","address2":"","latitude":"27.5335","longitude":"79.1575","accuracy":"4"},{"address3":"Malikpur","state":"Uttar Pradesh","state_code":"36","district":"Etah","district_code":"201","address1":"Kasganj","address2":"","latitude":"27.5121","longitude":"78.7132","accuracy":"4"},{"address3":"Mehmood Pur Pukhata","state":"Uttar Pradesh","state_code":"36","district":"Etah","district_code":"201","address1":"Kasganj","address2":"","latitude":"27.7893","longitude":"78.7824","accuracy":"3"},{"address3":"Soron","state":"Uttar Pradesh","state_code":"36","district":"Etah","district_code":"201","address1":"Kasganj","address2":"","latitude":"27.5121","longitude":"78.7132","accuracy":"4"},{"address3":"Salempur Bebe","state":"Uttar Pradesh","state_code":"36","district":"Etah","district_code":"201","address1":"Kasganj","address2":"","latitude":"27.7893","longitude":"78.7824","accuracy":"3"},{"address3":"Goyati","state":"Uttar Pradesh","state_code":"36","district":"Etah","district_code":"201","address1":"Kasganj","address2":"","latitude":"27.7893","longitude":"78.7824","accuracy":"3"},{"address3":"Ganga Garh","state":"Uttar Pradesh","state_code":"36","district":"Etah","district_code":"201","address1":"Sahawar","address2":"","latitude":"27.7893","longitude":"78.7824","accuracy":"3"}],"credits":[{"name":"geonames","url":"https://www.geonames.org"}],"last_update":"2019-03-01T09:01:39.915Z"}