{"212104":[{"address3":"Trisentulapur","state":"Uttar Pradesh","state_code":"36","district":"Allahabad","district_code":"175","address1":"Allahabad","address2":"","latitude":"25.1447","longitude":"82.4043","accuracy":"3"},{"address3":"Bhanjanpur","state":"Uttar Pradesh","state_code":"36","district":"Allahabad","district_code":"175","address1":"Koraon **","address2":"","latitude":"25.2989","longitude":"81.9717","accuracy":"4"},{"address3":"Hata","state":"Uttar Pradesh","state_code":"36","district":"Allahabad","district_code":"175","address1":"Allahabad","address2":"","latitude":"25.0007","longitude":"82.2544","accuracy":"4"},{"address3":"Madar","state":"Uttar Pradesh","state_code":"36","district":"Allahabad","district_code":"175","address1":"Meja","address2":"","latitude":"25.2989","longitude":"81.9717","accuracy":"4"},{"address3":"Dohatha","state":"Uttar Pradesh","state_code":"36","district":"Allahabad","district_code":"175","address1":"Meja","address2":"","latitude":"25.1447","longitude":"82.4043","accuracy":"3"},{"address3":"Shukulpur","state":"Uttar Pradesh","state_code":"36","district":"Allahabad","district_code":"175","address1":"Meja","address2":"","latitude":"25.2989","longitude":"81.9717","accuracy":"4"},{"address3":"Bharatganj","state":"Uttar Pradesh","state_code":"36","district":"Allahabad","district_code":"175","address1":"Meja","address2":"","latitude":"25.1154","longitude":"82.2753","accuracy":"4"},{"address3":"Bedauli","state":"Uttar Pradesh","state_code":"36","district":"Allahabad","district_code":"175","address1":"Meja","address2":"","latitude":"25.2989","longitude":"81.9717","accuracy":"4"},{"address3":"Kosda Kalan","state":"Uttar Pradesh","state_code":"36","district":"Allahabad","district_code":"175","address1":"Allahabad","address2":"","latitude":"25.1447","longitude":"82.4043","accuracy":"3"},{"address3":"Daswar","state":"Uttar Pradesh","state_code":"36","district":"Allahabad","district_code":"175","address1":"Allahabad","address2":"","latitude":"25.0254","longitude":"82.2642","accuracy":"4"},{"address3":"Majhigaown","state":"Uttar Pradesh","state_code":"36","district":"Allahabad","district_code":"175","address1":"Phulpur","address2":"","latitude":"25.1447","longitude":"82.4043","accuracy":"3"},{"address3":"Manda","state":"Uttar Pradesh","state_code":"36","district":"Allahabad","district_code":"175","address1":"Meja","address2":"","latitude":"25.098","longitude":"82.2628","accuracy":"4"},{"address3":"Sonversa","state":"Uttar Pradesh","state_code":"36","district":"Allahabad","district_code":"175","address1":"Allahabad","address2":"","latitude":"25.1447","longitude":"82.4043","accuracy":"3"},{"address3":"Bampur","state":"Uttar Pradesh","state_code":"36","district":"Allahabad","district_code":"175","address1":"Allahabad","address2":"","latitude":"25.1689","longitude":"82.265","accuracy":"4"},{"address3":"Nahwai ED","state":"Uttar Pradesh","state_code":"36","district":"Allahabad","district_code":"175","address1":"Meja","address2":"","latitude":"25.1447","longitude":"82.4043","accuracy":"3"}],"212105":[{"address3":"Chheoki","state":"Uttar Pradesh","state_code":"36","district":"Allahabad","district_code":"175","address1":"Allahabad","address2":"","latitude":"25.3828","longitude":"81.861","accuracy":"4"}],"212106":[{"address3":"Khiri","state":"Uttar Pradesh","state_code":"36","district":"Allahabad","district_code":"175","address1":"Bara","address2":"","latitude":"25.1806","longitude":"81.8272","accuracy":"4"},{"address3":"Chhapar","state":"Uttar Pradesh","state_code":"36","district":"Allahabad","district_code":"175","address1":"Allahabad","address2":"","latitude":"25.0269","longitude":"81.7708","accuracy":"4"},{"address3":"Bahraicha","state":"Uttar Pradesh","state_code":"36","district":"Allahabad","district_code":"175","address1":"Koraon **","address2":"","latitude":"25.2989","longitude":"81.9717","accuracy":"4"},{"address3":"Kheraht Khurd","state":"Uttar Pradesh","state_code":"36","district":"Allahabad","district_code":"175","address1":"Bara","address2":"","latitude":"25.1543","longitude":"81.9128","accuracy":"3"},{"address3":"Kapraura","state":"Uttar Pradesh","state_code":"36","district":"Allahabad","district_code":"175","address1":"Bara","address2":"","latitude":"25.1543","longitude":"81.9128","accuracy":"3"},{"address3":"Maida","state":"Uttar Pradesh","state_code":"36","district":"Allahabad","district_code":"175","address1":"Bara","address2":"","latitude":"25.1605","longitude":"81.7843","accuracy":"4"},{"address3":"Bharat Nagar","state":"Uttar Pradesh","state_code":"36","district":"Allahabad","district_code":"175","address1":"Bara","address2":"","latitude":"25.2989","longitude":"81.9717","accuracy":"3"},{"address3":"Barha","state":"Uttar Pradesh","state_code":"36","district":"Allahabad","district_code":"175","address1":"Bara","address2":"","latitude":"25.0022","longitude":"82.0079","accuracy":"4"},{"address3":"Lendiyari","state":"Uttar Pradesh","state_code":"36","district":"Allahabad","district_code":"175","address1":"Allahabad","address2":"","latitude":"25.1543","longitude":"81.9128","accuracy":"3"},{"address3":"Jari Bazar","state":"Uttar Pradesh","state_code":"36","district":"Allahabad","district_code":"175","address1":"Allahabad","address2":"","latitude":"25.1863","longitude":"81.7735","accuracy":"4"},{"address3":"Chamu","state":"Uttar Pradesh","state_code":"36","district":"Allahabad","district_code":"175","address1":"Allahabad","address2":"","latitude":"25.2229","longitude":"81.7415","accuracy":"4"},{"address3":"Khoonta","state":"Uttar Pradesh","state_code":"36","district":"Allahabad","district_code":"175","address1":"Bara","address2":"","latitude":"25.1543","longitude":"81.9128","accuracy":"3"},{"address3":"Panwari","state":"Uttar Pradesh","state_code":"36","district":"Allahabad","district_code":"175","address1":"Karchhana","address2":"","latitude":"25.0373","longitude":"81.9572","accuracy":"4"},{"address3":"Nari Bari ED","state":"Uttar Pradesh","state_code":"36","district":"Allahabad","district_code":"175","address1":"Bara","address2":"","latitude":"25.1543","longitude":"81.9128","accuracy":"3"},{"address3":"Khandesara","state":"Uttar Pradesh","state_code":"36","district":"Allahabad","district_code":"175","address1":"Allahabad","address2":"","latitude":"25.3298","longitude":"81.9399","accuracy":"4"},{"address3":"Kaundhiyra","state":"Uttar Pradesh","state_code":"36","district":"Allahabad","district_code":"175","address1":"Bara","address2":"","latitude":"25.1543","longitude":"81.9128","accuracy":"3"},{"address3":"Belsara","state":"Uttar Pradesh","state_code":"36","district":"Allahabad","district_code":"175","address1":"Bara","address2":"","latitude":"25.2406","longitude":"81.8372","accuracy":"4"},{"address3":"Sujani","state":"Uttar Pradesh","state_code":"36","district":"Allahabad","district_code":"175","address1":"Bara","address2":"","latitude":"25.1543","longitude":"81.9128","accuracy":"3"},{"address3":"Palpatti","state":"Uttar Pradesh","state_code":"36","district":"Allahabad","district_code":"175","address1":"Meja","address2":"","latitude":"25.1225","longitude":"81.7984","accuracy":"4"}],"212107":[{"address3":"Lohgara","state":"Uttar Pradesh","state_code":"36","district":"Allahabad","district_code":"175","address1":"Bara","address2":"","latitude":"25.2131","longitude":"81.696","accuracy":"4"},{"address3":"Othgi Tarhar","state":"Uttar Pradesh","state_code":"36","district":"Allahabad","district_code":"175","address1":"Bara","address2":"","latitude":"25.3096","longitude":"81.7834","accuracy":"3"},{"address3":"Belamundi","state":"Uttar Pradesh","state_code":"36","district":"Allahabad","district_code":"175","address1":"Allahabad","address2":"","latitude":"25.3096","longitude":"81.7834","accuracy":"3"},{"address3":"Dubaha","state":"Uttar Pradesh","state_code":"36","district":"Allahabad","district_code":"175","address1":"Allahabad","address2":"","latitude":"25.3803","longitude":"82.2922","accuracy":"4"},{"address3":"Leondi","state":"Uttar Pradesh","state_code":"36","district":"Allahabad","district_code":"175","address1":"Bara","address2":"","latitude":"25.2989","longitude":"81.9717","accuracy":"3"},{"address3":"Chhiri","state":"Uttar Pradesh","state_code":"36","district":"Allahabad","district_code":"175","address1":"Allahabad","address2":"","latitude":"25.3096","longitude":"81.7834","accuracy":"3"},{"address3":"Kanti","state":"Uttar Pradesh","state_code":"36","district":"Allahabad","district_code":"175","address1":"Bara","address2":"","latitude":"25.2482","longitude":"81.7935","accuracy":"4"},{"address3":"Lalapur Bhatpura","state":"Uttar Pradesh","state_code":"36","district":"Allahabad","district_code":"175","address1":"Allahabad","address2":"","latitude":"25.3096","longitude":"81.7834","accuracy":"3"},{"address3":"Naganpur","state":"Uttar Pradesh","state_code":"36","district":"Allahabad","district_code":"175","address1":"Bara","address2":"","latitude":"25.3333","longitude":"81.6524","accuracy":"4"},{"address3":"Nayanwar","state":"Uttar Pradesh","state_code":"36","district":"Allahabad","district_code":"175","address1":"Bara","address2":"","latitude":"25.3096","longitude":"81.7834","accuracy":"3"},{"address3":"Tatarganj","state":"Uttar Pradesh","state_code":"36","district":"Allahabad","district_code":"175","address1":"Bara","address2":"","latitude":"25.2974","longitude":"81.7401","accuracy":"4"},{"address3":"Panduwa","state":"Uttar Pradesh","state_code":"36","district":"Allahabad","district_code":"175","address1":"Bara","address2":"","latitude":"25.3096","longitude":"81.7834","accuracy":"3"},{"address3":"Bhita","state":"Uttar Pradesh","state_code":"36","district":"Allahabad","district_code":"175","address1":"Allahabad","address2":"","latitude":"25.309","longitude":"81.791","accuracy":"4"},{"address3":"Naudhiya Tarhar","state":"Uttar Pradesh","state_code":"36","district":"Allahabad","district_code":"175","address1":"Allahabad","address2":"","latitude":"25.3096","longitude":"81.7834","accuracy":"3"},{"address3":"Chilla","state":"Uttar Pradesh","state_code":"36","district":"Allahabad","district_code":"175","address1":"Bara","address2":"","latitude":"25.4941","longitude":"81.8735","accuracy":"4"},{"address3":"Panwar","state":"Uttar Pradesh","state_code":"36","district":"Allahabad","district_code":"175","address1":"Bara","address2":"","latitude":"25.2812","longitude":"81.81","accuracy":"4"},{"address3":"Chhatahra","state":"Uttar Pradesh","state_code":"36","district":"Allahabad","district_code":"175","address1":"Allahabad","address2":"","latitude":"25.311","longitude":"81.6768","accuracy":"4"},{"address3":"Jasra","state":"Uttar Pradesh","state_code":"36","district":"Allahabad","district_code":"175","address1":"Jasra","address2":"","latitude":"25.2831","longitude":"81.776","accuracy":"4"},{"address3":"Bara","state":"Uttar Pradesh","state_code":"36","district":"Allahabad","district_code":"175","address1":"Allahabad","address2":"","latitude":"25.2531","longitude":"81.7168","accuracy":"4"},{"address3":"Manpur","state":"Uttar Pradesh","state_code":"36","district":"Allahabad","district_code":"175","address1":"Bara","address2":"","latitude":"25.35","longitude":"81.6975","accuracy":"4"},{"address3":"Dhara","state":"Uttar Pradesh","state_code":"36","district":"Allahabad","district_code":"175","address1":"Bara","address2":"","latitude":"25.2704","longitude":"81.6684","accuracy":"4"}],"212108":[{"address3":"Bemra","state":"Uttar Pradesh","state_code":"36","district":"Allahabad","district_code":"175","address1":"Bara","address2":"","latitude":"25.1482","longitude":"81.6322","accuracy":"3"},{"address3":"Newadhiya Uparhar","state":"Uttar Pradesh","state_code":"36","district":"Allahabad","district_code":"175","address1":"Meja","address2":"","latitude":"25.1482","longitude":"81.6322","accuracy":"3"},{"address3":"Shankargarh","state":"Uttar Pradesh","state_code":"36","district":"Allahabad","district_code":"175","address1":"Bara","address2":"","latitude":"25.182","longitude":"81.6177","accuracy":"4"},{"address3":"Bihariya","state":"Uttar Pradesh","state_code":"36","district":"Allahabad","district_code":"175","address1":"Soraon","address2":"","latitude":"25.1482","longitude":"81.6322","accuracy":"3"},{"address3":"Basahra Uparhar","state":"Uttar Pradesh","state_code":"36","district":"Allahabad","district_code":"175","address1":"Bara","address2":"","latitude":"25.1407","longitude":"81.6634","accuracy":"4"},{"address3":"Bhandiwar","state":"Uttar Pradesh","state_code":"36","district":"Allahabad","district_code":"175","address1":"Bara","address2":"","latitude":"25.1218","longitude":"81.6157","accuracy":"4"}],"212109":[{"address3":"Baharia Bazar","state":"Uttar Pradesh","state_code":"36","district":"Allahabad","district_code":"175","address1":"Sikandra","address2":"","latitude":"25.6282","longitude":"81.9859","accuracy":"3"},{"address3":"Karnaipur","state":"Uttar Pradesh","state_code":"36","district":"Allahabad","district_code":"175","address1":"Phulpur","address2":"","latitude":"25.6788","longitude":"82.0167","accuracy":"4"},{"address3":"Kumhawa","state":"Uttar Pradesh","state_code":"36","district":"Allahabad","district_code":"175","address1":"Phulpur","address2":"","latitude":"25.6282","longitude":"81.9859","accuracy":"3"},{"address3":"Bomapur","state":"Uttar Pradesh","state_code":"36","district":"Allahabad","district_code":"175","address1":"Phulpur","address2":"","latitude":"25.632","longitude":"82.0015","accuracy":"4"},{"address3":"Sikandra (Allahabad)","state":"Uttar Pradesh","state_code":"36","district":"Allahabad","district_code":"175","address1":"Sikandra","address2":"","latitude":"25.5905","longitude":"81.9774","accuracy":"4"},{"address3":"Kahli","state":"Uttar Pradesh","state_code":"36","district":"Allahabad","district_code":"175","address1":"Phulpur","address2":"","latitude":"25.653","longitude":"81.996","accuracy":"4"},{"address3":"Kamlanagar","state":"Uttar Pradesh","state_code":"36","district":"Allahabad","district_code":"175","address1":"Phulpur","address2":"","latitude":"25.5868","longitude":"81.938","accuracy":"4"}],"212111":[{"address3":"Balapur","state":"Uttar Pradesh","state_code":"36","district":"Allahabad","district_code":"175","address1":"Bara","address2":"","latitude":"25.3117","longitude":"81.8644","accuracy":"4"},{"address3":"Dandupur","state":"Uttar Pradesh","state_code":"36","district":"Allahabad","district_code":"175","address1":"Allahabad","address2":"","latitude":"25.5865","longitude":"81.816","accuracy":"4"},{"address3":"Bagbana","state":"Uttar Pradesh","state_code":"36","district":"Allahabad","district_code":"175","address1":"Bara","address2":"","latitude":"25.3986","longitude":"81.8418","accuracy":"3"},{"address3":"Ghoorpur","state":"Uttar Pradesh","state_code":"36","district":"Allahabad","district_code":"175","address1":"Bara","address2":"","latitude":"25.3986","longitude":"81.8418","accuracy":"3"},{"address3":"Karma","state":"Uttar Pradesh","state_code":"36","district":"Allahabad","district_code":"175","address1":"Bara","address2":"","latitude":"25.2976","longitude":"81.845","accuracy":"4"},{"address3":"Purwa Khas","state":"Uttar Pradesh","state_code":"36","district":"Allahabad","district_code":"175","address1":"Bara","address2":"","latitude":"25.3986","longitude":"81.8418","accuracy":"3"}],"212201":[{"address3":"Kakorha","state":"Uttar Pradesh","state_code":"36","district":"Kaushambi","district_code":"174","address1":"Sirathu","address2":"","latitude":"25.5938","longitude":"81.4467","accuracy":"4"},{"address3":"Kasia Purab","state":"Uttar Pradesh","state_code":"36","district":"Kaushambi","district_code":"174","address1":"Sirathu","address2":"","latitude":"25.575","longitude":"81.4629","accuracy":"3"},{"address3":"Bharwari (Kaushambi)","state":"Uttar Pradesh","state_code":"36","district":"Kaushambi","district_code":"174","address1":"Manjhanpur","address2":"","latitude":"25.5608","longitude":"81.4916","accuracy":"4"},{"address3":"Balak Mau","state":"Uttar Pradesh","state_code":"36","district":"Kaushambi","district_code":"174","address1":"Sirathu","address2":"","latitude":"25.5689","longitude":"81.4238","accuracy":"4"},{"address3":"Kasia Pashchim","state":"Uttar Pradesh","state_code":"36","district":"Kaushambi","district_code":"174","address1":"Chail","address2":"","latitude":"25.575","longitude":"81.4629","accuracy":"3"},{"address3":"Kokhraj","state":"Uttar Pradesh","state_code":"36","district":"Kaushambi","district_code":"174","address1":"Chail","address2":"","latitude":"25.5965","longitude":"81.5053","accuracy":"4"},{"address3":"Bisara","state":"Uttar Pradesh","state_code":"36","district":"Kaushambi","district_code":"174","address1":"Sirathu","address2":"","latitude":"25.5551","longitude":"81.4468","accuracy":"4"},{"address3":"Guwara Gayyabpur","state":"Uttar Pradesh","state_code":"36","district":"Kaushambi","district_code":"174","address1":"Manjhanpur","address2":"","latitude":"25.575","longitude":"81.4629","accuracy":"3"},{"address3":"Dariyapur Majhiyawan","state":"Uttar Pradesh","state_code":"36","district":"Kaushambi","district_code":"174","address1":"Manjhanpur","address2":"","latitude":"25.575","longitude":"81.4629","accuracy":"3"},{"address3":"Bamrauli","state":"Uttar Pradesh","state_code":"36","district":"Allahabad","district_code":"175","address1":"Allahabad **","address2":"","latitude":"25.2989","longitude":"81.9717","accuracy":"3"},{"address3":"Muratganj ED","state":"Uttar Pradesh","state_code":"36","district":"Allahabad","district_code":"175","address1":"Phulpur","address2":"","latitude":"25.575","longitude":"81.4629","accuracy":"3"}],"212202":[{"address3":"Jayantipur","state":"Uttar Pradesh","state_code":"36","district":"Kaushambi","district_code":"174","address1":"Chail","address2":"","latitude":"25.3969","longitude":"81.5753","accuracy":"4"},{"address3":"Amirsa","state":"Uttar Pradesh","state_code":"36","district":"Kaushambi","district_code":"174","address1":"Chail","address2":"","latitude":"25.3998","longitude":"81.5894","accuracy":"4"},{"address3":"Kasenda","state":"Uttar Pradesh","state_code":"36","district":"Kaushambi","district_code":"174","address1":"Chail","address2":"","latitude":"25.4077","longitude":"81.5989","accuracy":"3"},{"address3":"Chail (Kaushambi)","state":"Uttar Pradesh","state_code":"36","district":"Kaushambi","district_code":"174","address1":"Chail","address2":"","latitude":"25.4265","longitude":"81.632","accuracy":"4"},{"address3":"Jalalpur Sana","state":"Uttar Pradesh","state_code":"36","district":"Kaushambi","district_code":"174","address1":"Chail","address2":"","latitude":"25.4077","longitude":"81.5989","accuracy":"3"},{"address3":"Tilgodi","state":"Uttar Pradesh","state_code":"36","district":"Kaushambi","district_code":"174","address1":"Chail","address2":"","latitude":"25.4077","longitude":"81.5989","accuracy":"3"},{"address3":"Bhikhpur Mendwara","state":"Uttar Pradesh","state_code":"36","district":"Kaushambi","district_code":"174","address1":"Chail","address2":"","latitude":"25.4077","longitude":"81.5989","accuracy":"3"},{"address3":"Inguwa (Kathgaon)","state":"Uttar Pradesh","state_code":"36","district":"Kaushambi","district_code":"174","address1":"Chail","address2":"","latitude":"25.4077","longitude":"81.5989","accuracy":"3"},{"address3":"Faridpur Salem","state":"Uttar Pradesh","state_code":"36","district":"Kaushambi","district_code":"174","address1":"Chail","address2":"","latitude":"25.4077","longitude":"81.5989","accuracy":"3"},{"address3":"Chalauli","state":"Uttar Pradesh","state_code":"36","district":"Kaushambi","district_code":"174","address1":"Chail","address2":"","latitude":"25.4077","longitude":"81.5989","accuracy":"3"},{"address3":"Boonda","state":"Uttar Pradesh","state_code":"36","district":"Kaushambi","district_code":"174","address1":"Chail","address2":"","latitude":"25.4077","longitude":"81.5989","accuracy":"3"}],"212203":[{"address3":"Lokipur","state":"Uttar Pradesh","state_code":"36","district":"Kaushambi","district_code":"174","address1":"Chail","address2":"","latitude":"25.4887","longitude":"81.4536","accuracy":"4"},{"address3":"Balipur Tata","state":"Uttar Pradesh","state_code":"36","district":"Kaushambi","district_code":"174","address1":"Chail","address2":"","latitude":"25.4612","longitude":"81.5879","accuracy":"4"},{"address3":"Badagaon","state":"Uttar Pradesh","state_code":"36","district":"Kaushambi","district_code":"174","address1":"Charwa","address2":"","latitude":"25.7478","longitude":"81.8826","accuracy":"3"},{"address3":"Kaju","state":"Uttar Pradesh","state_code":"36","district":"Kaushambi","district_code":"174","address1":"Charwa","address2":"","latitude":"25.4855","longitude":"81.5399","accuracy":"4"},{"address3":"Gauhani Badi","state":"Uttar Pradesh","state_code":"36","district":"Kaushambi","district_code":"174","address1":"Charwa","address2":"","latitude":"25.7478","longitude":"81.8826","accuracy":"3"},{"address3":"Khandeora","state":"Uttar Pradesh","state_code":"36","district":"Kaushambi","district_code":"174","address1":"Chail","address2":"","latitude":"25.4246","longitude":"81.3977","accuracy":"4"},{"address3":"Beruwa","state":"Uttar Pradesh","state_code":"36","district":"Kaushambi","district_code":"174","address1":"Chail","address2":"","latitude":"25.7478","longitude":"81.8826","accuracy":"3"},{"address3":"Charwa","state":"Uttar Pradesh","state_code":"36","district":"Allahabad","district_code":"175","address1":"Karchhana","address2":"","latitude":"25.2989","longitude":"81.9717","accuracy":"4"}],"212204":[{"address3":"Nawawan","state":"Uttar Pradesh","state_code":"36","district":"Kaushambi","district_code":"174","address1":"Sirathu","address2":"","latitude":"25.6956","longitude":"81.3235","accuracy":"4"},{"address3":"Jahangirabad","state":"Uttar Pradesh","state_code":"36","district":"Kaushambi","district_code":"174","address1":"Sirathu","address2":"","latitude":"25.4887","longitude":"81.4536","accuracy":"4"},{"address3":"Shahjadpur ED","state":"Uttar Pradesh","state_code":"36","district":"Kaushambi","district_code":"174","address1":"Sirathu","address2":"","latitude":"25.8922","longitude":"81.1611","accuracy":"3"},{"address3":"Daranagar (Allahabad)","state":"Uttar Pradesh","state_code":"36","district":"Allahabad","district_code":"175","address1":"Allahabad","address2":"","latitude":"25.8922","longitude":"81.1611","accuracy":"3"},{"address3":"Sawrai Buzurg","state":"Uttar Pradesh","state_code":"36","district":"Allahabad","district_code":"175","address1":"Phulpur","address2":"","latitude":"25.8922","longitude":"81.1611","accuracy":"3"}],"212205":[{"address3":"Kara","state":"Uttar Pradesh","state_code":"36","district":"Kaushambi","district_code":"174","address1":"Sirathu","address2":"","latitude":"25.6968","longitude":"81.3648","accuracy":"4"},{"address3":"Alipur Jeeta","state":"Uttar Pradesh","state_code":"36","district":"Kaushambi","district_code":"174","address1":"Sirathu","address2":"","latitude":"25.7375","longitude":"81.3288","accuracy":"3"},{"address3":"Paras","state":"Uttar Pradesh","state_code":"36","district":"Kaushambi","district_code":"174","address1":"Sirathu","address2":"","latitude":"25.7188","longitude":"81.2854","accuracy":"4"},{"address3":"Korion","state":"Uttar Pradesh","state_code":"36","district":"Kaushambi","district_code":"174","address1":"Sirathu","address2":"","latitude":"25.744","longitude":"81.2994","accuracy":"4"},{"address3":"Aureni","state":"Uttar Pradesh","state_code":"36","district":"Kaushambi","district_code":"174","address1":"Sirathu","address2":"","latitude":"25.75","longitude":"81.3551","accuracy":"4"},{"address3":"Afzalpur Saton","state":"Uttar Pradesh","state_code":"36","district":"Kaushambi","district_code":"174","address1":"Sirathu","address2":"","latitude":"25.7782","longitude":"81.339","accuracy":"4"}],"212206":[{"address3":"Karari","state":"Uttar Pradesh","state_code":"36","district":"Kaushambi","district_code":"174","address1":"Karari","address2":"","latitude":"25.4524","longitude":"81.4268","accuracy":"4"},{"address3":"Bidaom","state":"Uttar Pradesh","state_code":"36","district":"Kaushambi","district_code":"174","address1":"Manjhanpur","address2":"","latitude":"25.4524","longitude":"81.4268","accuracy":"3"},{"address3":"Vaish Kanti","state":"Uttar Pradesh","state_code":"36","district":"Kaushambi","district_code":"174","address1":"Manjhanpur","address2":"","latitude":"25.4524","longitude":"81.4268","accuracy":"3"},{"address3":"Zafarpur Mahawan","state":"Uttar Pradesh","state_code":"36","district":"Kaushambi","district_code":"174","address1":"Manjhanpur","address2":"","latitude":"25.4524","longitude":"81.4268","accuracy":"3"},{"address3":"Raxwara","state":"Uttar Pradesh","state_code":"36","district":"Kaushambi","district_code":"174","address1":"Manjhanpur","address2":"","latitude":"25.4524","longitude":"81.4268","accuracy":"3"}],"212207":[{"address3":"Shahpur","state":"Uttar Pradesh","state_code":"36","district":"Kaushambi","district_code":"174","address1":"Manjhanpur","address2":"","latitude":"25.4168","longitude":"81.6457","accuracy":"4"},{"address3":"Osa","state":"Uttar Pradesh","state_code":"36","district":"Kaushambi","district_code":"174","address1":"Manjhanpur","address2":"","latitude":"25.4869","longitude":"81.3762","accuracy":"4"},{"address3":"Kadipur","state":"Uttar Pradesh","state_code":"36","district":"Kaushambi","district_code":"174","address1":"Manjhanpur","address2":"","latitude":"25.4887","longitude":"81.4536","accuracy":"4"},{"address3":"Hinauta","state":"Uttar Pradesh","state_code":"36","district":"Kaushambi","district_code":"174","address1":"Manjhanpur","address2":"","latitude":"25.4397","longitude":"81.2113","accuracy":"4"},{"address3":"Bhelkha","state":"Uttar Pradesh","state_code":"36","district":"Kaushambi","district_code":"174","address1":"Manjhanpur","address2":"","latitude":"25.5123","longitude":"81.3568","accuracy":"4"},{"address3":"Kumbhiyawan","state":"Uttar Pradesh","state_code":"36","district":"Kaushambi","district_code":"174","address1":"Manjhanpur","address2":"","latitude":"25.5297","longitude":"81.499","accuracy":"3"},{"address3":"Kurron","state":"Uttar Pradesh","state_code":"36","district":"Kaushambi","district_code":"174","address1":"Manjhanpur","address2":"","latitude":"25.5521","longitude":"81.3806","accuracy":"4"},{"address3":"Mawai","state":"Uttar Pradesh","state_code":"36","district":"Kaushambi","district_code":"174","address1":"Manjhanpur","address2":"","latitude":"25.3448","longitude":"81.4644","accuracy":"4"},{"address3":"Sarswan","state":"Uttar Pradesh","state_code":"36","district":"Kaushambi","district_code":"174","address1":"Manjhanpur","address2":"","latitude":"25.5297","longitude":"81.499","accuracy":"3"},{"address3":"Tewa","state":"Uttar Pradesh","state_code":"36","district":"Kaushambi","district_code":"174","address1":"Manjhanpur","address2":"","latitude":"25.4749","longitude":"81.331","accuracy":"4"},{"address3":"Manjhanpur","state":"Uttar Pradesh","state_code":"36","district":"Kaushambi","district_code":"174","address1":"Manjhanpur","address2":"","latitude":"25.5305","longitude":"81.3757","accuracy":"4"},{"address3":"Ten Shah Aimabad","state":"Uttar Pradesh","state_code":"36","district":"Kaushambi","district_code":"174","address1":"Manjhanpur","address2":"","latitude":"25.5297","longitude":"81.499","accuracy":"3"},{"address3":"Bandhawa Rajwar","state":"Uttar Pradesh","state_code":"36","district":"Kaushambi","district_code":"174","address1":"Manjhanpur","address2":"","latitude":"25.5297","longitude":"81.499","accuracy":"3"},{"address3":"Naugira","state":"Uttar Pradesh","state_code":"36","district":"Kaushambi","district_code":"174","address1":"Manjhanpur","address2":"","latitude":"25.5297","longitude":"81.499","accuracy":"3"}],"212208":[{"address3":"Pura Mufti ED","state":"Uttar Pradesh","state_code":"36","district":"Kaushambi","district_code":"174","address1":"Sirathu","address2":"","latitude":"25.6177","longitude":"81.5136","accuracy":"1"},{"address3":"Sallahpur","state":"Uttar Pradesh","state_code":"36","district":"Allahabad","district_code":"175","address1":"Allahabad","address2":"","latitude":"25.2989","longitude":"81.9717","accuracy":"1"},{"address3":"Fatehpur Ghat","state":"Uttar Pradesh","state_code":"36","district":"Allahabad","district_code":"175","address1":"Allahabad","address2":"","latitude":"25.2989","longitude":"81.9717","accuracy":"1"},{"address3":"Shaikhpur Rasoolpur","state":"Uttar Pradesh","state_code":"36","district":"Allahabad","district_code":"175","address1":"Allahabad","address2":"","latitude":"25.6177","longitude":"81.5136","accuracy":"1"},{"address3":"Mohdpur Taluka","state":"Uttar Pradesh","state_code":"36","district":"Allahabad","district_code":"175","address1":"Allahabad","address2":"","latitude":"25.6177","longitude":"81.5136","accuracy":"1"},{"address3":"Manauri","state":"Uttar Pradesh","state_code":"36","district":"Allahabad","district_code":"175","address1":"Allahabad","address2":"","latitude":"25.2989","longitude":"81.9717","accuracy":"1"},{"address3":"Ahmedpur Pawan","state":"Uttar Pradesh","state_code":"36","district":"Allahabad","district_code":"175","address1":"Allahabad","address2":"","latitude":"25.6177","longitude":"81.5136","accuracy":"1"},{"address3":"Ahmedpur Asrauli","state":"Uttar Pradesh","state_code":"36","district":"Allahabad","district_code":"175","address1":"Allahabad","address2":"","latitude":"25.6177","longitude":"81.5136","accuracy":"1"}],"212212":[{"address3":"Manauri AF","state":"Uttar Pradesh","state_code":"36","district":"Allahabad","district_code":"175","address1":"Allahabad","address2":"","latitude":"25.5291","longitude":"81.5825","accuracy":"1"}],"212213":[{"address3":"Mahgaon","state":"Uttar Pradesh","state_code":"36","district":"Kaushambi","district_code":"174","address1":"Chail","address2":"","latitude":"25.5127","longitude":"81.6104","accuracy":"4"},{"address3":"Alam Chand","state":"Uttar Pradesh","state_code":"36","district":"Kaushambi","district_code":"174","address1":"Chail","address2":"","latitude":"25.5157","longitude":"81.6236","accuracy":"3"},{"address3":"Baserhi","state":"Uttar Pradesh","state_code":"36","district":"Allahabad","district_code":"175","address1":"Karchhana","address2":"","latitude":"25.5157","longitude":"81.6236","accuracy":"3"},{"address3":"Gauspur","state":"Uttar Pradesh","state_code":"36","district":"Allahabad","district_code":"175","address1":"Chail","address2":"","latitude":"25.2989","longitude":"81.9717","accuracy":"4"},{"address3":"Sayed Serawan","state":"Uttar Pradesh","state_code":"36","district":"Allahabad","district_code":"175","address1":"Chail","address2":"","latitude":"25.5157","longitude":"81.6236","accuracy":"3"},{"address3":"Sikandarpur Bazha","state":"Uttar Pradesh","state_code":"36","district":"Allahabad","district_code":"175","address1":"Karchhana","address2":"","latitude":"25.5157","longitude":"81.6236","accuracy":"3"}],"212214":[{"address3":"Alwara","state":"Uttar Pradesh","state_code":"36","district":"Kaushambi","district_code":"174","address1":"Manjhanpur","address2":"","latitude":"25.4115","longitude":"81.2323","accuracy":"4"},{"address3":"Goraju","state":"Uttar Pradesh","state_code":"36","district":"Kaushambi","district_code":"174","address1":"Sirathu","address2":"","latitude":"25.3797","longitude":"81.324","accuracy":"4"},{"address3":"Pashchim Sarira","state":"Uttar Pradesh","state_code":"36","district":"Kaushambi","district_code":"174","address1":"Manjhanpur","address2":"","latitude":"25.4538","longitude":"81.4642","accuracy":"3"},{"address3":"Andhawan","state":"Uttar Pradesh","state_code":"36","district":"Kaushambi","district_code":"174","address1":"Manjhanpur","address2":"","latitude":"25.4288","longitude":"81.2768","accuracy":"4"},{"address3":"Bairampur","state":"Uttar Pradesh","state_code":"36","district":"Kaushambi","district_code":"174","address1":"Manjhanpur","address2":"","latitude":"25.4025","longitude":"81.252","accuracy":"4"},{"address3":"Kaushambi","state":"Uttar Pradesh","state_code":"36","district":"Kaushambi","district_code":"174","address1":"Manjhanpur","address2":"","latitude":"25.4538","longitude":"81.4642","accuracy":"3"},{"address3":"Purab Sarira","state":"Uttar Pradesh","state_code":"36","district":"Kaushambi","district_code":"174","address1":"Manjhanpur","address2":"","latitude":"25.4202","longitude":"81.321","accuracy":"4"},{"address3":"Katari","state":"Uttar Pradesh","state_code":"36","district":"Kaushambi","district_code":"174","address1":"Manjhanpur","address2":"","latitude":"25.4887","longitude":"81.4536","accuracy":"4"},{"address3":"Champaha Bazar","state":"Uttar Pradesh","state_code":"36","district":"Kaushambi","district_code":"174","address1":"Manjhanpur","address2":"","latitude":"25.4538","longitude":"81.4642","accuracy":"3"},{"address3":"Ramaipur","state":"Uttar Pradesh","state_code":"36","district":"Kaushambi","district_code":"174","address1":"Manjhanpur","address2":"","latitude":"25.4887","longitude":"81.4536","accuracy":"4"}],"212216":[{"address3":"Sarai Akil","state":"Uttar Pradesh","state_code":"36","district":"Kaushambi","district_code":"174","address1":"Manjhanpur","address2":"","latitude":"25.3789","longitude":"81.5103","accuracy":"4"},{"address3":"Arkamahabirpur","state":"Uttar Pradesh","state_code":"36","district":"Kaushambi","district_code":"174","address1":"Manjhanpur","address2":"","latitude":"25.4101","longitude":"81.6878","accuracy":"3"},{"address3":"Dharampur","state":"Uttar Pradesh","state_code":"36","district":"Kaushambi","district_code":"174","address1":"Manjhanpur","address2":"","latitude":"25.4887","longitude":"81.4536","accuracy":"4"},{"address3":"Bandhuri Rasulipur","state":"Uttar Pradesh","state_code":"36","district":"Kaushambi","district_code":"174","address1":"Manjhanpur","address2":"","latitude":"25.4101","longitude":"81.6878","accuracy":"3"},{"address3":"Banthari","state":"Uttar Pradesh","state_code":"36","district":"Kaushambi","district_code":"174","address1":"Chail","address2":"","latitude":"25.3278","longitude":"81.4918","accuracy":"4"},{"address3":"Bhakanda","state":"Uttar Pradesh","state_code":"36","district":"Kaushambi","district_code":"174","address1":"Manjhanpur","address2":"","latitude":"25.4101","longitude":"81.6878","accuracy":"3"},{"address3":"Mahila","state":"Uttar Pradesh","state_code":"36","district":"Kaushambi","district_code":"174","address1":"Manjhanpur","address2":"","latitude":"25.2829","longitude":"81.4027","accuracy":"4"},{"address3":"Berauncha","state":"Uttar Pradesh","state_code":"36","district":"Kaushambi","district_code":"174","address1":"Manjhanpur","address2":"","latitude":"25.4101","longitude":"81.6878","accuracy":"3"},{"address3":"Hasanpur","state":"Uttar Pradesh","state_code":"36","district":"Kaushambi","district_code":"174","address1":"Manjhanpur","address2":"","latitude":"25.3696","longitude":"81.3729","accuracy":"4"},{"address3":"Yugrajpur","state":"Uttar Pradesh","state_code":"36","district":"Kaushambi","district_code":"174","address1":"Manjhanpur","address2":"","latitude":"25.4101","longitude":"81.6878","accuracy":"3"},{"address3":"Kanaili","state":"Uttar Pradesh","state_code":"36","district":"Kaushambi","district_code":"174","address1":"Manjhanpur","address2":"","latitude":"25.3273","longitude":"81.4707","accuracy":"4"},{"address3":"Hisambad","state":"Uttar Pradesh","state_code":"36","district":"Kaushambi","district_code":"174","address1":"Manjhanpur","address2":"","latitude":"25.3344","longitude":"81.3953","accuracy":"4"},{"address3":"Basuhar","state":"Uttar Pradesh","state_code":"36","district":"Kaushambi","district_code":"174","address1":"Manjhanpur","address2":"","latitude":"25.4887","longitude":"81.4536","accuracy":"4"},{"address3":"Harraipur","state":"Uttar Pradesh","state_code":"36","district":"Kaushambi","district_code":"174","address1":"Manjhanpur","address2":"","latitude":"25.372","longitude":"81.4941","accuracy":"4"},{"address3":"Khonpa","state":"Uttar Pradesh","state_code":"36","district":"Kaushambi","district_code":"174","address1":"Manjhanpur","address2":"","latitude":"25.4887","longitude":"81.4536","accuracy":"4"},{"address3":"Mohiuddinpur","state":"Uttar Pradesh","state_code":"36","district":"Allahabad","district_code":"175","address1":"Karchhana","address2":"","latitude":"25.2989","longitude":"81.9717","accuracy":"4"},{"address3":"Maohar","state":"Uttar Pradesh","state_code":"36","district":"Allahabad","district_code":"175","address1":"Phulpur","address2":"","latitude":"25.4101","longitude":"81.6878","accuracy":"3"},{"address3":"Makdoompur Dhoksaha","state":"Uttar Pradesh","state_code":"36","district":"Allahabad","district_code":"175","address1":"Handia","address2":"","latitude":"25.4101","longitude":"81.6878","accuracy":"3"}],"212217":[{"address3":"Bhadehri","state":"Uttar Pradesh","state_code":"36","district":"Kaushambi","district_code":"174","address1":"Sirathu","address2":"","latitude":"25.4887","longitude":"81.4536","accuracy":"4"},{"address3":"Samsabad","state":"Uttar Pradesh","state_code":"36","district":"Kaushambi","district_code":"174","address1":"Sirathu","address2":"","latitude":"25.4887","longitude":"81.4536","accuracy":"3"},{"address3":"Dorma","state":"Uttar Pradesh","state_code":"36","district":"Kaushambi","district_code":"174","address1":"Sirathu","address2":"","latitude":"25.6796","longitude":"81.2949","accuracy":"4"},{"address3":"Nidura","state":"Uttar Pradesh","state_code":"36","district":"Kaushambi","district_code":"174","address1":"Sirathu","address2":"","latitude":"25.4887","longitude":"81.4536","accuracy":"4"},{"address3":"Siyara Mithepur","state":"Uttar Pradesh","state_code":"36","district":"Kaushambi","district_code":"174","address1":"Sirathu","address2":"","latitude":"25.814","longitude":"81.5006","accuracy":"3"},{"address3":"Tulsipur","state":"Uttar Pradesh","state_code":"36","district":"Kaushambi","district_code":"174","address1":"Sirathu","address2":"","latitude":"25.5743","longitude":"81.3081","accuracy":"4"},{"address3":"Anetha","state":"Uttar Pradesh","state_code":"36","district":"Kaushambi","district_code":"174","address1":"Manjhanpur","address2":"","latitude":"25.814","longitude":"81.5006","accuracy":"3"},{"address3":"Tanda","state":"Uttar Pradesh","state_code":"36","district":"Kaushambi","district_code":"174","address1":"Sirathu","address2":"","latitude":"25.7502","longitude":"81.2594","accuracy":"4"},{"address3":"Barat Fariq","state":"Uttar Pradesh","state_code":"36","district":"Kaushambi","district_code":"174","address1":"Sirathu","address2":"","latitude":"25.814","longitude":"81.5006","accuracy":"3"},{"address3":"Nara","state":"Uttar Pradesh","state_code":"36","district":"Kaushambi","district_code":"174","address1":"Sirathu","address2":"","latitude":"25.5353","longitude":"81.2792","accuracy":"4"},{"address3":"Ganpa","state":"Uttar Pradesh","state_code":"36","district":"Kaushambi","district_code":"174","address1":"Sirathu","address2":"","latitude":"25.814","longitude":"81.5006","accuracy":"3"},{"address3":"Rampur Dhamawan","state":"Uttar Pradesh","state_code":"36","district":"Kaushambi","district_code":"174","address1":"Sirathu","address2":"","latitude":"25.6246","longitude":"81.307","accuracy":"4"},{"address3":"Udhinbuzurg","state":"Uttar Pradesh","state_code":"36","district":"Kaushambi","district_code":"174","address1":"Sirathu","address2":"","latitude":"25.814","longitude":"81.5006","accuracy":"3"},{"address3":"Kanwar","state":"Uttar Pradesh","state_code":"36","district":"Kaushambi","district_code":"174","address1":"Sirathu","address2":"","latitude":"25.7","longitude":"81.2177","accuracy":"4"},{"address3":"Selraha","state":"Uttar Pradesh","state_code":"36","district":"Kaushambi","district_code":"174","address1":"Sirathu","address2":"","latitude":"25.814","longitude":"81.5006","accuracy":"3"},{"address3":"Sirathu","state":"Uttar Pradesh","state_code":"36","district":"Kaushambi","district_code":"174","address1":"Sirathu","address2":"","latitude":"25.6429","longitude":"81.3186","accuracy":"4"},{"address3":"Shakha","state":"Uttar Pradesh","state_code":"36","district":"Kaushambi","district_code":"174","address1":"Sirathu","address2":"","latitude":"25.814","longitude":"81.5006","accuracy":"3"},{"address3":"Mohabbatpur Painsa","state":"Uttar Pradesh","state_code":"36","district":"Kaushambi","district_code":"174","address1":"Sirathu","address2":"","latitude":"25.814","longitude":"81.5006","accuracy":"3"},{"address3":"Govindpur Goriyon","state":"Uttar Pradesh","state_code":"36","district":"Kaushambi","district_code":"174","address1":"Sirathu","address2":"","latitude":"25.814","longitude":"81.5006","accuracy":"3"},{"address3":"Afjalpurwari","state":"Uttar Pradesh","state_code":"36","district":"Kaushambi","district_code":"174","address1":"Manjhanpur","address2":"","latitude":"25.814","longitude":"81.5006","accuracy":"3"},{"address3":"Ajhuwa Bazar ED","state":"Uttar Pradesh","state_code":"36","district":"Allahabad","district_code":"175","address1":"Sirathu","address2":"","latitude":"25.814","longitude":"81.5006","accuracy":"3"}],"212218":[{"address3":"Bigahra Usmanpur","state":"Uttar Pradesh","state_code":"36","district":"Kaushambi","district_code":"174","address1":"Chail","address2":"","latitude":"25.3219","longitude":"81.5432","accuracy":"4"},{"address3":"Imli Gaon","state":"Uttar Pradesh","state_code":"36","district":"Kaushambi","district_code":"174","address1":"Chail","address2":"","latitude":"25.3889","longitude":"81.6477","accuracy":"3"},{"address3":"Tilhapur","state":"Uttar Pradesh","state_code":"36","district":"Kaushambi","district_code":"174","address1":"Chail","address2":"","latitude":"25.3376","longitude":"81.5763","accuracy":"4"},{"address3":"Noorpur","state":"Uttar Pradesh","state_code":"36","district":"Kaushambi","district_code":"174","address1":"Chail","address2":"","latitude":"25.3889","longitude":"81.6477","accuracy":"3"},{"address3":"Audhan","state":"Uttar Pradesh","state_code":"36","district":"Kaushambi","district_code":"174","address1":"Chail","address2":"","latitude":"25.3489","longitude":"81.618","accuracy":"4"},{"address3":"Newada","state":"Uttar Pradesh","state_code":"36","district":"Allahabad","district_code":"175","address1":"Handia","address2":"","latitude":"25.6108","longitude":"81.9788","accuracy":"4"},{"address3":"Purkhas","state":"Uttar Pradesh","state_code":"36","district":"Allahabad","district_code":"175","address1":"Chail","address2":"","latitude":"25.2989","longitude":"81.9717","accuracy":"4"}],"212301":[{"address3":"Akorha","state":"Uttar Pradesh","state_code":"36","district":"Allahabad","district_code":"175","address1":"Akorha","address2":"","latitude":"25.2236","longitude":"82.1505","accuracy":"4"},{"address3":"Dhanaura","state":"Uttar Pradesh","state_code":"36","district":"Allahabad","district_code":"175","address1":"Karchhana","address2":"","latitude":"25.2989","longitude":"81.9717","accuracy":"4"},{"address3":"Karchha R.S.","state":"Uttar Pradesh","state_code":"36","district":"Allahabad","district_code":"175","address1":"Karchhana","address2":"","latitude":"25.5513","longitude":"82.1435","accuracy":"3"},{"address3":"Pindi","state":"Uttar Pradesh","state_code":"36","district":"Allahabad","district_code":"175","address1":"Karchhana","address2":"","latitude":"25.2989","longitude":"81.9717","accuracy":"4"},{"address3":"Deora","state":"Uttar Pradesh","state_code":"36","district":"Allahabad","district_code":"175","address1":"Karchhana","address2":"","latitude":"25.6276","longitude":"81.982","accuracy":"4"},{"address3":"Pipraon","state":"Uttar Pradesh","state_code":"36","district":"Allahabad","district_code":"175","address1":"Meja","address2":"","latitude":"25.2771","longitude":"82.0077","accuracy":"4"},{"address3":"Mungari","state":"Uttar Pradesh","state_code":"36","district":"Allahabad","district_code":"175","address1":"Karchhana","address2":"","latitude":"25.3069","longitude":"81.9383","accuracy":"4"},{"address3":"Konhdar","state":"Uttar Pradesh","state_code":"36","district":"Allahabad","district_code":"175","address1":"Karchhana","address2":"","latitude":"25.2989","longitude":"81.9717","accuracy":"4"},{"address3":"Karchhana","state":"Uttar Pradesh","state_code":"36","district":"Allahabad","district_code":"175","address1":"Karchana","address2":"","latitude":"25.5513","longitude":"82.1435","accuracy":"3"},{"address3":"Silaundhi","state":"Uttar Pradesh","state_code":"36","district":"Allahabad","district_code":"175","address1":"Meja","address2":"","latitude":"25.2989","longitude":"81.9717","accuracy":"4"},{"address3":"Baraon","state":"Uttar Pradesh","state_code":"36","district":"Allahabad","district_code":"175","address1":"Karchhana","address2":"","latitude":"25.2296","longitude":"81.9426","accuracy":"4"},{"address3":"Issauta","state":"Uttar Pradesh","state_code":"36","district":"Allahabad","district_code":"175","address1":"Meja","address2":"","latitude":"25.5513","longitude":"82.1435","accuracy":"3"},{"address3":"Sonai","state":"Uttar Pradesh","state_code":"36","district":"Allahabad","district_code":"175","address1":"Meja","address2":"","latitude":"25.257","longitude":"81.9191","accuracy":"4"},{"address3":"Harduwa","state":"Uttar Pradesh","state_code":"36","district":"Allahabad","district_code":"175","address1":"Karchhana","address2":"","latitude":"25.5513","longitude":"82.1435","accuracy":"3"},{"address3":"Pathra","state":"Uttar Pradesh","state_code":"36","district":"Allahabad","district_code":"175","address1":"Meja","address2":"","latitude":"25.0726","longitude":"82.0165","accuracy":"4"},{"address3":"Bendon","state":"Uttar Pradesh","state_code":"36","district":"Allahabad","district_code":"175","address1":"Karchhana","address2":"","latitude":"25.5513","longitude":"82.1435","accuracy":"3"},{"address3":"Tilakhwar","state":"Uttar Pradesh","state_code":"36","district":"Allahabad","district_code":"175","address1":"Meja","address2":"","latitude":"25.3028","longitude":"81.8946","accuracy":"4"},{"address3":"Arai","state":"Uttar Pradesh","state_code":"36","district":"Allahabad","district_code":"175","address1":"Karchhana","address2":"","latitude":"25.3865","longitude":"82.2273","accuracy":"4"}],"212302":[{"address3":"Lutar","state":"Uttar Pradesh","state_code":"36","district":"Allahabad","district_code":"175","address1":"Meja","address2":"","latitude":"25.1714","longitude":"82.2421","accuracy":"3"},{"address3":"Bhaiyan","state":"Uttar Pradesh","state_code":"36","district":"Allahabad","district_code":"175","address1":"Meja","address2":"","latitude":"25.1714","longitude":"82.2421","accuracy":"3"},{"address3":"Pasna","state":"Uttar Pradesh","state_code":"36","district":"Allahabad","district_code":"175","address1":"Meja","address2":"","latitude":"25.0544","longitude":"82.0973","accuracy":"4"},{"address3":"Tigza","state":"Uttar Pradesh","state_code":"36","district":"Allahabad","district_code":"175","address1":"Meja","address2":"","latitude":"25.1714","longitude":"82.2421","accuracy":"3"},{"address3":"Kurki Kalan","state":"Uttar Pradesh","state_code":"36","district":"Allahabad","district_code":"175","address1":"Meja","address2":"","latitude":"25.1372","longitude":"82.1676","accuracy":"4"},{"address3":"Dari","state":"Uttar Pradesh","state_code":"36","district":"Allahabad","district_code":"175","address1":"Meja","address2":"","latitude":"25.1369","longitude":"82.0785","accuracy":"4"},{"address3":"Gunai Gaharpur","state":"Uttar Pradesh","state_code":"36","district":"Allahabad","district_code":"175","address1":"Meja","address2":"","latitude":"25.1539","longitude":"82.123","accuracy":"4"},{"address3":"Bikikalan","state":"Uttar Pradesh","state_code":"36","district":"Allahabad","district_code":"175","address1":"Meja","address2":"","latitude":"25.1714","longitude":"82.2421","accuracy":"3"},{"address3":"Bhatauti","state":"Uttar Pradesh","state_code":"36","district":"Allahabad","district_code":"175","address1":"Meja","address2":"","latitude":"25.2989","longitude":"81.9717","accuracy":"4"},{"address3":"Basahra","state":"Uttar Pradesh","state_code":"36","district":"Allahabad","district_code":"175","address1":"Meja","address2":"","latitude":"25.1714","longitude":"82.2421","accuracy":"3"},{"address3":"Meja","state":"Uttar Pradesh","state_code":"36","district":"Allahabad","district_code":"175","address1":"Meja","address2":"","latitude":"25.143","longitude":"82.1047","accuracy":"4"},{"address3":"Belhat","state":"Uttar Pradesh","state_code":"36","district":"Allahabad","district_code":"175","address1":"Meja","address2":"","latitude":"25.1714","longitude":"82.2421","accuracy":"3"}],"212303":[{"address3":"Meja Road","state":"Uttar Pradesh","state_code":"36","district":"Allahabad","district_code":"175","address1":"Meja","address2":"","latitude":"25.2338","longitude":"82.0972","accuracy":"3"},{"address3":"Barha Kalan","state":"Uttar Pradesh","state_code":"36","district":"Allahabad","district_code":"175","address1":"Meja","address2":"","latitude":"25.1608","longitude":"82.1722","accuracy":"4"},{"address3":"Lotarh","state":"Uttar Pradesh","state_code":"36","district":"Allahabad","district_code":"175","address1":"Meja","address2":"","latitude":"25.1773","longitude":"81.7886","accuracy":"4"},{"address3":"Babhani Hethar","state":"Uttar Pradesh","state_code":"36","district":"Allahabad","district_code":"175","address1":"Meja","address2":"","latitude":"25.2338","longitude":"82.0972","accuracy":"3"},{"address3":"Amora","state":"Uttar Pradesh","state_code":"36","district":"Allahabad","district_code":"175","address1":"Meja","address2":"","latitude":"25.2989","longitude":"81.9717","accuracy":"3"},{"address3":"Masauli","state":"Uttar Pradesh","state_code":"36","district":"Allahabad","district_code":"175","address1":"Meja","address2":"","latitude":"25.1457","longitude":"82.1984","accuracy":"4"},{"address3":"Bharari","state":"Uttar Pradesh","state_code":"36","district":"Allahabad","district_code":"175","address1":"Meja","address2":"","latitude":"25.1805","longitude":"82.1633","accuracy":"4"},{"address3":"Newadhiya","state":"Uttar Pradesh","state_code":"36","district":"Allahabad","district_code":"175","address1":"Meja","address2":"","latitude":"25.2338","longitude":"82.0972","accuracy":"3"},{"address3":"Nibaiya","state":"Uttar Pradesh","state_code":"36","district":"Allahabad","district_code":"175","address1":"Meja","address2":"","latitude":"25.2289","longitude":"82.1168","accuracy":"4"},{"address3":"Bhaganpur","state":"Uttar Pradesh","state_code":"36","district":"Allahabad","district_code":"175","address1":"Meja","address2":"","latitude":"25.1911","longitude":"82.0488","accuracy":"4"},{"address3":"Katrauli","state":"Uttar Pradesh","state_code":"36","district":"Allahabad","district_code":"175","address1":"Meja","address2":"","latitude":"25.6571","longitude":"82.0774","accuracy":"4"},{"address3":"Uruwa","state":"Uttar Pradesh","state_code":"36","district":"Allahabad","district_code":"175","address1":"Meja","address2":"","latitude":"25.2338","longitude":"82.0972","accuracy":"3"},{"address3":"Samhan","state":"Uttar Pradesh","state_code":"36","district":"Allahabad","district_code":"175","address1":"Meja","address2":"","latitude":"25.2288","longitude":"82.0454","accuracy":"4"},{"address3":"Zera","state":"Uttar Pradesh","state_code":"36","district":"Allahabad","district_code":"175","address1":"Meja","address2":"","latitude":"25.2338","longitude":"82.0972","accuracy":"3"},{"address3":"Kathauli","state":"Uttar Pradesh","state_code":"36","district":"Allahabad","district_code":"175","address1":"Meja","address2":"","latitude":"25.2207","longitude":"82.0568","accuracy":"4"},{"address3":"Achhola","state":"Uttar Pradesh","state_code":"36","district":"Allahabad","district_code":"175","address1":"Meja","address2":"","latitude":"25.2121","longitude":"82.1859","accuracy":"4"},{"address3":"Aunta","state":"Uttar Pradesh","state_code":"36","district":"Allahabad","district_code":"175","address1":"Meja","address2":"","latitude":"25.1997","longitude":"82.1704","accuracy":"4"},{"address3":"Amilia Kalan","state":"Uttar Pradesh","state_code":"36","district":"Allahabad","district_code":"175","address1":"Meja","address2":"","latitude":"25.2025","longitude":"82.1418","accuracy":"4"}],"212305":[{"address3":"Unchdeeh","state":"Uttar Pradesh","state_code":"36","district":"Allahabad","district_code":"175","address1":"Meja","address2":"","latitude":"25.2714","longitude":"82.0979","accuracy":"3"},{"address3":"Sirsa","state":"Uttar Pradesh","state_code":"36","district":"Allahabad","district_code":"175","address1":"Meja","address2":"","latitude":"25.2634","longitude":"82.0919","accuracy":"4"},{"address3":"Upraura","state":"Uttar Pradesh","state_code":"36","district":"Allahabad","district_code":"175","address1":"Meja","address2":"","latitude":"25.2714","longitude":"82.0979","accuracy":"3"},{"address3":"Paranipur","state":"Uttar Pradesh","state_code":"36","district":"Allahabad","district_code":"175","address1":"Meja","address2":"","latitude":"25.289","longitude":"82.1692","accuracy":"4"},{"address3":"Chawki","state":"Uttar Pradesh","state_code":"36","district":"Allahabad","district_code":"175","address1":"Meja","address2":"","latitude":"25.2714","longitude":"82.0979","accuracy":"3"},{"address3":"Lohari","state":"Uttar Pradesh","state_code":"36","district":"Allahabad","district_code":"175","address1":"Meja","address2":"","latitude":"25.2855","longitude":"82.0112","accuracy":"4"},{"address3":"Bigahuna","state":"Uttar Pradesh","state_code":"36","district":"Allahabad","district_code":"175","address1":"Meja","address2":"","latitude":"25.2714","longitude":"82.0979","accuracy":"3"},{"address3":"Shukulpur ED","state":"Uttar Pradesh","state_code":"36","district":"Allahabad","district_code":"175","address1":"Meja","address2":"","latitude":"25.2714","longitude":"82.0979","accuracy":"3"},{"address3":"Ramnagar","state":"Uttar Pradesh","state_code":"36","district":"Allahabad","district_code":"175","address1":"Meja","address2":"","latitude":"25.2476","longitude":"82.1194","accuracy":"4"},{"address3":"Madra Mukundpur","state":"Uttar Pradesh","state_code":"36","district":"Allahabad","district_code":"175","address1":"Meja","address2":"","latitude":"25.2714","longitude":"82.0979","accuracy":"3"},{"address3":"Jawaniya","state":"Uttar Pradesh","state_code":"36","district":"Allahabad","district_code":"175","address1":"Meja","address2":"","latitude":"25.2714","longitude":"82.0979","accuracy":"3"},{"address3":"Dubeypur","state":"Uttar Pradesh","state_code":"36","district":"Allahabad","district_code":"175","address1":"Meja","address2":"","latitude":"25.2714","longitude":"82.0979","accuracy":"3"},{"address3":"Dohariya","state":"Uttar Pradesh","state_code":"36","district":"Allahabad","district_code":"175","address1":"Meja","address2":"","latitude":"25.2714","longitude":"82.0979","accuracy":"3"}],"212306":[{"address3":"Nathupur","state":"Uttar Pradesh","state_code":"36","district":"Allahabad","district_code":"175","address1":"Koraon **","address2":"","latitude":"25.2989","longitude":"81.9717","accuracy":"4"},{"address3":"Ramgarh","state":"Uttar Pradesh","state_code":"36","district":"Allahabad","district_code":"175","address1":"Meja","address2":"","latitude":"25.3026","longitude":"82.0088","accuracy":"4"},{"address3":"Ayodhya","state":"Uttar Pradesh","state_code":"36","district":"Allahabad","district_code":"175","address1":"Koraon","address2":"","latitude":"25.2989","longitude":"81.9717","accuracy":"4"},{"address3":"Paintiha","state":"Uttar Pradesh","state_code":"36","district":"Allahabad","district_code":"175","address1":"Meja","address2":"","latitude":"25.3094","longitude":"82.2005","accuracy":"3"},{"address3":"Bisari","state":"Uttar Pradesh","state_code":"36","district":"Allahabad","district_code":"175","address1":"Koraon","address2":"","latitude":"25.2989","longitude":"81.9717","accuracy":"3"},{"address3":"Pachera","state":"Uttar Pradesh","state_code":"36","district":"Allahabad","district_code":"175","address1":"Koraon","address2":"","latitude":"24.9644","longitude":"82.1452","accuracy":"4"},{"address3":"Misirpur","state":"Uttar Pradesh","state_code":"36","district":"Allahabad","district_code":"175","address1":"Koraon","address2":"","latitude":"25.2749","longitude":"82.135","accuracy":"4"},{"address3":"Mahuli","state":"Uttar Pradesh","state_code":"36","district":"Allahabad","district_code":"175","address1":"Koraon","address2":"","latitude":"25.3094","longitude":"82.2005","accuracy":"3"},{"address3":"Badokhar","state":"Uttar Pradesh","state_code":"36","district":"Allahabad","district_code":"175","address1":"Koraon","address2":"","latitude":"25.2989","longitude":"81.9717","accuracy":"4"},{"address3":"Rampur Kalan","state":"Uttar Pradesh","state_code":"36","district":"Allahabad","district_code":"175","address1":"Koraon **","address2":"","latitude":"24.914","longitude":"82.1664","accuracy":"4"},{"address3":"Badaur","state":"Uttar Pradesh","state_code":"36","district":"Allahabad","district_code":"175","address1":"Koraon","address2":"","latitude":"25.0348","longitude":"82.0619","accuracy":"4"},{"address3":"Kush Fara","state":"Uttar Pradesh","state_code":"36","district":"Allahabad","district_code":"175","address1":"Koraon **","address2":"","latitude":"25.3094","longitude":"82.2005","accuracy":"3"},{"address3":"Kapasi Kalan","state":"Uttar Pradesh","state_code":"36","district":"Allahabad","district_code":"175","address1":"Koraon","address2":"","latitude":"24.9532","longitude":"82.0911","accuracy":"4"},{"address3":"Handia Manpur","state":"Uttar Pradesh","state_code":"36","district":"Allahabad","district_code":"175","address1":"Meja","address2":"","latitude":"25.3094","longitude":"82.2005","accuracy":"3"},{"address3":"Deoghat","state":"Uttar Pradesh","state_code":"36","district":"Allahabad","district_code":"175","address1":"Koraon","address2":"","latitude":"24.9014","longitude":"82.0356","accuracy":"4"},{"address3":"Bhageshar","state":"Uttar Pradesh","state_code":"36","district":"Allahabad","district_code":"175","address1":"Koraon","address2":"","latitude":"25.3094","longitude":"82.2005","accuracy":"3"},{"address3":"Khajuri","state":"Uttar Pradesh","state_code":"36","district":"Allahabad","district_code":"175","address1":"Meja","address2":"","latitude":"25.2299","longitude":"81.935","accuracy":"4"},{"address3":"Kheoli Kalan","state":"Uttar Pradesh","state_code":"36","district":"Allahabad","district_code":"175","address1":"Koraon","address2":"","latitude":"25.3094","longitude":"82.2005","accuracy":"3"},{"address3":"Sansarpur","state":"Uttar Pradesh","state_code":"36","district":"Allahabad","district_code":"175","address1":"Koraon **","address2":"","latitude":"24.8571","longitude":"82.0461","accuracy":"4"},{"address3":"Garha","state":"Uttar Pradesh","state_code":"36","district":"Allahabad","district_code":"175","address1":"Koraon **","address2":"","latitude":"24.91","longitude":"81.9932","accuracy":"4"},{"address3":"Beri","state":"Uttar Pradesh","state_code":"36","district":"Allahabad","district_code":"175","address1":"Koraon","address2":"","latitude":"24.9492","longitude":"82.1941","accuracy":"4"},{"address3":"Karpia","state":"Uttar Pradesh","state_code":"36","district":"Allahabad","district_code":"175","address1":"Koraon","address2":"","latitude":"24.9818","longitude":"82.0042","accuracy":"4"},{"address3":"Saji","state":"Uttar Pradesh","state_code":"36","district":"Allahabad","district_code":"175","address1":"Koraon **","address2":"","latitude":"25.0111","longitude":"82.1323","accuracy":"4"},{"address3":"Koraon","state":"Uttar Pradesh","state_code":"36","district":"Allahabad","district_code":"175","address1":"Koraon","address2":"","latitude":"25.2989","longitude":"81.9717","accuracy":"4"},{"address3":"Chiraon","state":"Uttar Pradesh","state_code":"36","district":"Allahabad","district_code":"175","address1":"Koraon","address2":"","latitude":"24.9067","longitude":"81.9162","accuracy":"4"}],"212307":[{"address3":"Khain","state":"Uttar Pradesh","state_code":"36","district":"Allahabad","district_code":"175","address1":"Khain","address2":"","latitude":"25.2426","longitude":"81.9857","accuracy":"4"},{"address3":"Ghodedeeh","state":"Uttar Pradesh","state_code":"36","district":"Allahabad","district_code":"175","address1":"Karchhana","address2":"","latitude":"25.2589","longitude":"82.0128","accuracy":"3"},{"address3":"Bhunda","state":"Uttar Pradesh","state_code":"36","district":"Allahabad","district_code":"175","address1":"Meja","address2":"","latitude":"25.2035","longitude":"81.9854","accuracy":"4"},{"address3":"Mahori","state":"Uttar Pradesh","state_code":"36","district":"Allahabad","district_code":"175","address1":"Karchhana","address2":"","latitude":"25.2589","longitude":"82.0128","accuracy":"3"},{"address3":"Panasa","state":"Uttar Pradesh","state_code":"36","district":"Allahabad","district_code":"175","address1":"Karchhana","address2":"","latitude":"25.2719","longitude":"82.0454","accuracy":"4"},{"address3":"Deeha","state":"Uttar Pradesh","state_code":"36","district":"Allahabad","district_code":"175","address1":"Meja","address2":"","latitude":"25.2589","longitude":"82.0128","accuracy":"3"},{"address3":"Birpur","state":"Uttar Pradesh","state_code":"36","district":"Allahabad","district_code":"175","address1":"Bara","address2":"","latitude":"25.2797","longitude":"82.0095","accuracy":"4"},{"address3":"Basahi","state":"Uttar Pradesh","state_code":"36","district":"Allahabad","district_code":"175","address1":"Koraon **","address2":"","latitude":"25.2969","longitude":"82.0378","accuracy":"4"},{"address3":"Rokari","state":"Uttar Pradesh","state_code":"36","district":"Allahabad","district_code":"175","address1":"Karchhana","address2":"","latitude":"25.2589","longitude":"82.0128","accuracy":"3"}],"212308":[{"address3":"NTPC Kohdar Meja","state":"Uttar Pradesh","state_code":"36","district":"Allahabad","district_code":"175","address1":"Meja","address2":"","latitude":"25.3267","longitude":"82.1474","accuracy":"1"}],"212401":[{"address3":"Newada","state":"Uttar Pradesh","state_code":"36","district":"Kaushambi","district_code":"174","address1":"Chail","address2":"","latitude":"25.3705","longitude":"81.603","accuracy":"4"},{"address3":"Patwa","state":"Uttar Pradesh","state_code":"36","district":"Allahabad","district_code":"175","address1":"Handia","address2":"","latitude":"25.5332","longitude":"82.288","accuracy":"4"},{"address3":"Pipari","state":"Uttar Pradesh","state_code":"36","district":"Allahabad","district_code":"175","address1":"Soraon","address2":"","latitude":"25.2989","longitude":"81.9717","accuracy":"4"},{"address3":"Mandwa Bazar","state":"Uttar Pradesh","state_code":"36","district":"Allahabad","district_code":"175","address1":"Karchhana","address2":"","latitude":"25.6986","longitude":"82.3492","accuracy":"3"},{"address3":"Kishundaspur","state":"Uttar Pradesh","state_code":"36","district":"Allahabad","district_code":"175","address1":"Handia","address2":"","latitude":"25.2989","longitude":"81.9717","accuracy":"4"},{"address3":"Janghai Bazar","state":"Uttar Pradesh","state_code":"36","district":"Allahabad","district_code":"175","address1":"Handia","address2":"","latitude":"25.6986","longitude":"82.3492","accuracy":"3"},{"address3":"Maharchha","state":"Uttar Pradesh","state_code":"36","district":"Allahabad","district_code":"175","address1":"Handia","address2":"","latitude":"25.5038","longitude":"82.3002","accuracy":"4"},{"address3":"Koraur","state":"Uttar Pradesh","state_code":"36","district":"Allahabad","district_code":"175","address1":"Phulpur","address2":"","latitude":"25.6986","longitude":"82.3492","accuracy":"3"},{"address3":"Bhatewra Kathar","state":"Uttar Pradesh","state_code":"36","district":"Allahabad","district_code":"175","address1":"Handia","address2":"","latitude":"25.6986","longitude":"82.3492","accuracy":"3"},{"address3":"Anuwa","state":"Uttar Pradesh","state_code":"36","district":"Allahabad","district_code":"175","address1":"Handia","address2":"","latitude":"25.6986","longitude":"82.3492","accuracy":"3"},{"address3":"Chanethu","state":"Uttar Pradesh","state_code":"36","district":"Allahabad","district_code":"175","address1":"Janghai Bazar","address2":"","latitude":"25.6986","longitude":"82.3492","accuracy":"3"},{"address3":"Nindula","state":"Uttar Pradesh","state_code":"36","district":"Allahabad","district_code":"175","address1":"Janghai Bazar","address2":"","latitude":"25.6986","longitude":"82.3492","accuracy":"3"},{"address3":"Nibi Bari","state":"Uttar Pradesh","state_code":"36","district":"Allahabad","district_code":"175","address1":"Handia","address2":"","latitude":"25.6986","longitude":"82.3492","accuracy":"3"}],"212402":[{"address3":"Katrauli","state":"Uttar Pradesh","state_code":"36","district":"Allahabad","district_code":"175","address1":"Handia","address2":"","latitude":"25.6571","longitude":"82.0774","accuracy":"4"},{"address3":"Mailahan","state":"Uttar Pradesh","state_code":"36","district":"Allahabad","district_code":"175","address1":"Phoolpur","address2":"","latitude":"25.2989","longitude":"81.9717","accuracy":"4"},{"address3":"Bahadurgarh Arwasi","state":"Uttar Pradesh","state_code":"36","district":"Allahabad","district_code":"175","address1":"Phulpur","address2":"","latitude":"25.6747","longitude":"81.9405","accuracy":"3"},{"address3":"Gorigon","state":"Uttar Pradesh","state_code":"36","district":"Allahabad","district_code":"175","address1":"Phulpur","address2":"","latitude":"25.6747","longitude":"81.9405","accuracy":"3"},{"address3":"Kapsa","state":"Uttar Pradesh","state_code":"36","district":"Allahabad","district_code":"175","address1":"Phoolpur","address2":"","latitude":"25.6371","longitude":"82.0697","accuracy":"4"},{"address3":"Chandopara","state":"Uttar Pradesh","state_code":"36","district":"Allahabad","district_code":"175","address1":"Phoolpur","address2":"","latitude":"25.6747","longitude":"81.9405","accuracy":"3"},{"address3":"Saraj Mamrej","state":"Uttar Pradesh","state_code":"36","district":"Allahabad","district_code":"175","address1":"Handia","address2":"","latitude":"25.6747","longitude":"81.9405","accuracy":"3"},{"address3":"Chamrupur Urf Nantaut","state":"Uttar Pradesh","state_code":"36","district":"Allahabad","district_code":"175","address1":"Phoolpur","address2":"","latitude":"25.6747","longitude":"81.9405","accuracy":"3"},{"address3":"Kanethi","state":"Uttar Pradesh","state_code":"36","district":"Allahabad","district_code":"175","address1":"Phoolpur","address2":"","latitude":"25.5514","longitude":"82.0302","accuracy":"4"},{"address3":"Deewanganj","state":"Uttar Pradesh","state_code":"36","district":"Allahabad","district_code":"175","address1":"Handia","address2":"","latitude":"25.6747","longitude":"81.9405","accuracy":"3"},{"address3":"Deoli","state":"Uttar Pradesh","state_code":"36","district":"Allahabad","district_code":"175","address1":"Phoolpur","address2":"","latitude":"25.5068","longitude":"82.1274","accuracy":"4"},{"address3":"Ramgarh Kothari","state":"Uttar Pradesh","state_code":"36","district":"Allahabad","district_code":"175","address1":"Handia","address2":"","latitude":"25.6747","longitude":"81.9405","accuracy":"3"},{"address3":"Jalalpur Kasba","state":"Uttar Pradesh","state_code":"36","district":"Allahabad","district_code":"175","address1":"Phoolpur","address2":"","latitude":"25.6747","longitude":"81.9405","accuracy":"3"},{"address3":"Pratappur","state":"Uttar Pradesh","state_code":"36","district":"Allahabad","district_code":"175","address1":"Handia","address2":"","latitude":"25.2872","longitude":"81.5532","accuracy":"4"},{"address3":"Phoolpur","state":"Uttar Pradesh","state_code":"36","district":"Allahabad","district_code":"175","address1":"Handia","address2":"","latitude":"25.6747","longitude":"81.9405","accuracy":"3"}],"212404":[{"address3":"Bagai Khurd","state":"Uttar Pradesh","state_code":"36","district":"Allahabad","district_code":"175","address1":"Ghiyanagar","address2":"","latitude":"25.6107","longitude":"81.9876","accuracy":"3"},{"address3":"Ghiya Ngr","state":"Uttar Pradesh","state_code":"36","district":"Allahabad","district_code":"175","address1":"Handia","address2":"","latitude":"25.6107","longitude":"81.9876","accuracy":"3"},{"address3":"Babuganj","state":"Uttar Pradesh","state_code":"36","district":"Allahabad","district_code":"175","address1":"Phulpur","address2":"","latitude":"25.6107","longitude":"81.9876","accuracy":"4"}],"212405":[{"address3":"Ugrasen Pur","state":"Uttar Pradesh","state_code":"36","district":"Allahabad","district_code":"175","address1":"Allahabad","address2":"","latitude":"25.5611","longitude":"82.1872","accuracy":"3"},{"address3":"Barasta Kalan","state":"Uttar Pradesh","state_code":"36","district":"Allahabad","district_code":"175","address1":"Ugrasenpur","address2":"","latitude":"25.5611","longitude":"82.1872","accuracy":"3"},{"address3":"Khakhaicha","state":"Uttar Pradesh","state_code":"36","district":"Allahabad","district_code":"175","address1":"Handia","address2":"","latitude":"25.5611","longitude":"82.1872","accuracy":"3"},{"address3":"Basna","state":"Uttar Pradesh","state_code":"36","district":"Allahabad","district_code":"175","address1":"Handia","address2":"","latitude":"25.5549","longitude":"82.1505","accuracy":"4"},{"address3":"Bhogwara","state":"Uttar Pradesh","state_code":"36","district":"Allahabad","district_code":"175","address1":"Ugrasenpur","address2":"","latitude":"25.5611","longitude":"82.1872","accuracy":"3"},{"address3":"Soron","state":"Uttar Pradesh","state_code":"36","district":"Allahabad","district_code":"175","address1":"Soraon","address2":"","latitude":"25.5673","longitude":"82.2238","accuracy":"4"}],"212502":[{"address3":"Chandpur","state":"Uttar Pradesh","state_code":"36","district":"Allahabad","district_code":"175","address1":"Soraon","address2":"","latitude":"25.6374","longitude":"81.8253","accuracy":"4"},{"address3":"Khargapur","state":"Uttar Pradesh","state_code":"36","district":"Allahabad","district_code":"175","address1":"Meja","address2":"","latitude":"25.316","longitude":"82.3021","accuracy":"4"},{"address3":"Shivgarh","state":"Uttar Pradesh","state_code":"36","district":"Allahabad","district_code":"175","address1":"Soraon","address2":"","latitude":"25.2989","longitude":"81.9717","accuracy":"4"},{"address3":"Prem Nagar Chauraha","state":"Uttar Pradesh","state_code":"36","district":"Allahabad","district_code":"175","address1":"Soraon","address2":"","latitude":"25.6007","longitude":"81.9607","accuracy":"3"},{"address3":"Karaundi","state":"Uttar Pradesh","state_code":"36","district":"Allahabad","district_code":"175","address1":"Soraon","address2":"","latitude":"25.5879","longitude":"81.9068","accuracy":"4"},{"address3":"Badagaon","state":"Uttar Pradesh","state_code":"36","district":"Allahabad","district_code":"175","address1":"Soraon","address2":"","latitude":"25.6007","longitude":"81.9607","accuracy":"3"},{"address3":"Bari","state":"Uttar Pradesh","state_code":"36","district":"Allahabad","district_code":"175","address1":"Soraon","address2":"","latitude":"25.5727","longitude":"81.8164","accuracy":"4"},{"address3":"Nasratpur","state":"Uttar Pradesh","state_code":"36","district":"Allahabad","district_code":"175","address1":"Soraon","address2":"","latitude":"25.6175","longitude":"81.9339","accuracy":"4"},{"address3":"Soraon","state":"Uttar Pradesh","state_code":"36","district":"Allahabad","district_code":"175","address1":"Allahabad","address2":"","latitude":"25.6084","longitude":"81.8453","accuracy":"4"}],"212503":[{"address3":"Dahiyawan","state":"Uttar Pradesh","state_code":"36","district":"Allahabad","district_code":"175","address1":"Allahabad","address2":"","latitude":"25.652","longitude":"81.7639","accuracy":"3"},{"address3":"Mukundpur","state":"Uttar Pradesh","state_code":"36","district":"Allahabad","district_code":"175","address1":"Holgarh","address2":"","latitude":"25.703","longitude":"81.7634","accuracy":"4"},{"address3":"Aruvaon","state":"Uttar Pradesh","state_code":"36","district":"Allahabad","district_code":"175","address1":"Allahabad","address2":"","latitude":"25.652","longitude":"81.7639","accuracy":"3"},{"address3":"Barai Harakh","state":"Uttar Pradesh","state_code":"36","district":"Allahabad","district_code":"175","address1":"Holagarh","address2":"","latitude":"25.6152","longitude":"81.7542","accuracy":"4"},{"address3":"Purabnara","state":"Uttar Pradesh","state_code":"36","district":"Allahabad","district_code":"175","address1":"Holagarh","address2":"","latitude":"25.652","longitude":"81.7639","accuracy":"3"},{"address3":"Bhagwatipurkhutana","state":"Uttar Pradesh","state_code":"36","district":"Allahabad","district_code":"175","address1":"Holagarh","address2":"","latitude":"25.652","longitude":"81.7639","accuracy":"3"},{"address3":"Sarai Madan Urf Chanti","state":"Uttar Pradesh","state_code":"36","district":"Allahabad","district_code":"175","address1":"Holagarh","address2":"","latitude":"25.652","longitude":"81.7639","accuracy":"3"},{"address3":"Holagarh","state":"Uttar Pradesh","state_code":"36","district":"Allahabad","district_code":"175","address1":"Soraon","address2":"","latitude":"25.6377","longitude":"81.7742","accuracy":"4"},{"address3":"Niyayipur","state":"Uttar Pradesh","state_code":"36","district":"Allahabad","district_code":"175","address1":"Holagarh","address2":"","latitude":"25.652","longitude":"81.7639","accuracy":"3"}],"212507":[{"address3":"Newada","state":"Uttar Pradesh","state_code":"36","district":"Kaushambi","district_code":"174","address1":"Sirathu","address2":"","latitude":"25.3705","longitude":"81.603","accuracy":"4"},{"address3":"Siswan","state":"Uttar Pradesh","state_code":"36","district":"Allahabad","district_code":"175","address1":"Soraon","address2":"","latitude":"25.7192","longitude":"81.8413","accuracy":"4"},{"address3":"Umariasari","state":"Uttar Pradesh","state_code":"36","district":"Allahabad","district_code":"175","address1":"Mauaima","address2":"","latitude":"25.7155","longitude":"81.7887","accuracy":"4"},{"address3":"Harisenganj","state":"Uttar Pradesh","state_code":"36","district":"Allahabad","district_code":"175","address1":"Mau Aima","address2":"","latitude":"25.633","longitude":"81.9154","accuracy":"3"},{"address3":"Narainganj","state":"Uttar Pradesh","state_code":"36","district":"Allahabad","district_code":"175","address1":"Soraon","address2":"","latitude":"25.633","longitude":"81.9154","accuracy":"3"},{"address3":"Mohd.Pur Gheempur","state":"Uttar Pradesh","state_code":"36","district":"Allahabad","district_code":"175","address1":"Soraon","address2":"","latitude":"25.633","longitude":"81.9154","accuracy":"3"},{"address3":"Chhata","state":"Uttar Pradesh","state_code":"36","district":"Allahabad","district_code":"175","address1":"Phulpur","address2":"","latitude":"25.7059","longitude":"81.9845","accuracy":"4"},{"address3":"Mehraunda","state":"Uttar Pradesh","state_code":"36","district":"Allahabad","district_code":"175","address1":"Mau Aima","address2":"","latitude":"25.633","longitude":"81.9154","accuracy":"3"},{"address3":"Tejpur","state":"Uttar Pradesh","state_code":"36","district":"Allahabad","district_code":"175","address1":"Soraon","address2":"","latitude":"25.6728","longitude":"81.9797","accuracy":"4"},{"address3":"Bakajalalpur","state":"Uttar Pradesh","state_code":"36","district":"Allahabad","district_code":"175","address1":"Mau Aima","address2":"","latitude":"25.633","longitude":"81.9154","accuracy":"3"},{"address3":"Kiraon","state":"Uttar Pradesh","state_code":"36","district":"Allahabad","district_code":"175","address1":"Handia","address2":"","latitude":"25.4045","longitude":"82.2652","accuracy":"4"},{"address3":"Mau Aima","state":"Uttar Pradesh","state_code":"36","district":"Allahabad","district_code":"175","address1":"Allahabad","address2":"","latitude":"25.6952","longitude":"81.9234","accuracy":"4"},{"address3":"Chhitpalgarh","state":"Uttar Pradesh","state_code":"36","district":"Allahabad","district_code":"175","address1":"Soraon","address2":"","latitude":"25.2989","longitude":"81.9717","accuracy":"4"},{"address3":"Nai Bazar","state":"Uttar Pradesh","state_code":"36","district":"Allahabad","district_code":"175","address1":"Soraon","address2":"","latitude":"25.6771","longitude":"81.9457","accuracy":"4"}],"212601":[{"address3":"Hariharganj","state":"Uttar Pradesh","state_code":"36","district":"Fatehpur","district_code":"172","address1":"Fatehpur","address2":"","latitude":"25.8733","longitude":"80.807","accuracy":"4"},{"address3":"Banarsi","state":"Uttar Pradesh","state_code":"36","district":"Fatehpur","district_code":"172","address1":"Fatehpur","address2":"","latitude":"25.8921","longitude":"80.6762","accuracy":"4"},{"address3":"Aboonagar","state":"Uttar Pradesh","state_code":"36","district":"Fatehpur","district_code":"172","address1":"Fatehpur","address2":"","latitude":"26.0702","longitude":"81.1133","accuracy":"3"},{"address3":"Bhitaura","state":"Uttar Pradesh","state_code":"36","district":"Fatehpur","district_code":"172","address1":"Fatehpur","address2":"","latitude":"26.0359","longitude":"80.8563","accuracy":"4"},{"address3":"Umari","state":"Uttar Pradesh","state_code":"36","district":"Fatehpur","district_code":"172","address1":"Fatehpur","address2":"","latitude":"26.0702","longitude":"81.1133","accuracy":"3"},{"address3":"Chandiyana","state":"Uttar Pradesh","state_code":"36","district":"Fatehpur","district_code":"172","address1":"Fatehpur","address2":"","latitude":"25.8733","longitude":"80.807","accuracy":"3"},{"address3":"Fatehpur Town","state":"Uttar Pradesh","state_code":"36","district":"Fatehpur","district_code":"172","address1":"Fatehpur","address2":"","latitude":"26.0702","longitude":"81.1133","accuracy":"3"},{"address3":"Fatehpur City","state":"Uttar Pradesh","state_code":"36","district":"Fatehpur","district_code":"172","address1":"Fatehpur","address2":"","latitude":"25.9277","longitude":"80.8127","accuracy":"4"},{"address3":"Fatehpur H.O","state":"Uttar Pradesh","state_code":"36","district":"Fatehpur","district_code":"172","address1":"Fatehpur","address2":"","latitude":"26.0702","longitude":"81.1133","accuracy":"3"},{"address3":"Teliyani","state":"Uttar Pradesh","state_code":"36","district":"Fatehpur","district_code":"172","address1":"Fatehpur","address2":"","latitude":"25.8733","longitude":"80.807","accuracy":"4"},{"address3":"Fatehpur Court","state":"Uttar Pradesh","state_code":"36","district":"Fatehpur","district_code":"172","address1":"Fatehpur","address2":"","latitude":"26.0702","longitude":"81.1133","accuracy":"3"},{"address3":"Dhakauli","state":"Uttar Pradesh","state_code":"36","district":"Fatehpur","district_code":"172","address1":"Fatehpur","address2":"","latitude":"25.8988","longitude":"80.7673","accuracy":"4"},{"address3":"Ramwan","state":"Uttar Pradesh","state_code":"36","district":"Fatehpur","district_code":"172","address1":"Fatehpur","address2":"","latitude":"26.0702","longitude":"81.1133","accuracy":"3"},{"address3":"Korai","state":"Uttar Pradesh","state_code":"36","district":"Fatehpur","district_code":"172","address1":"Fatehpur","address2":"","latitude":"25.8733","longitude":"80.807","accuracy":"4"},{"address3":"Beragarhiwa","state":"Uttar Pradesh","state_code":"36","district":"Fatehpur","district_code":"172","address1":"Fatehpur","address2":"","latitude":"26.0702","longitude":"81.1133","accuracy":"3"},{"address3":"Kandhi","state":"Uttar Pradesh","state_code":"36","district":"Fatehpur","district_code":"172","address1":"Fatehpur","address2":"","latitude":"25.949","longitude":"80.7388","accuracy":"4"},{"address3":"Shah","state":"Uttar Pradesh","state_code":"36","district":"Fatehpur","district_code":"172","address1":"Fatehpur","address2":"","latitude":"26.0702","longitude":"81.1133","accuracy":"3"},{"address3":"Meoli","state":"Uttar Pradesh","state_code":"36","district":"Fatehpur","district_code":"172","address1":"Fatehpur","address2":"","latitude":"26.0101","longitude":"80.7634","accuracy":"4"},{"address3":"Bilandpur","state":"Uttar Pradesh","state_code":"36","district":"Fatehpur","district_code":"172","address1":"Fatehpur","address2":"","latitude":"25.934","longitude":"80.7632","accuracy":"4"},{"address3":"Baranpur","state":"Uttar Pradesh","state_code":"36","district":"Fatehpur","district_code":"172","address1":"Fatehpur","address2":"","latitude":"25.87","longitude":"80.7961","accuracy":"4"},{"address3":"Ayah","state":"Uttar Pradesh","state_code":"36","district":"Fatehpur","district_code":"172","address1":"Fatehpur","address2":"","latitude":"25.8392","longitude":"80.6996","accuracy":"4"},{"address3":"Sangaon","state":"Uttar Pradesh","state_code":"36","district":"Fatehpur","district_code":"172","address1":"Fatehpur","address2":"","latitude":"25.9748","longitude":"80.7929","accuracy":"4"},{"address3":"Damapur","state":"Uttar Pradesh","state_code":"36","district":"Fatehpur","district_code":"172","address1":"Fatehpur","address2":"","latitude":"25.8101","longitude":"80.9829","accuracy":"4"},{"address3":"Churiyani","state":"Uttar Pradesh","state_code":"36","district":"Fatehpur","district_code":"172","address1":"Fatehpur","address2":"","latitude":"25.8454","longitude":"80.7711","accuracy":"4"}],"212620":[{"address3":"Berui","state":"Uttar Pradesh","state_code":"36","district":"Fatehpur","district_code":"172","address1":"Fatehpur","address2":"","latitude":"25.9156","longitude":"80.8345","accuracy":"4"},{"address3":"Asother","state":"Uttar Pradesh","state_code":"36","district":"Fatehpur","district_code":"172","address1":"Fatehpur","address2":"","latitude":"25.7688","longitude":"80.7547","accuracy":"3"},{"address3":"Jarauli","state":"Uttar Pradesh","state_code":"36","district":"Fatehpur","district_code":"172","address1":"Fatehpur","address2":"","latitude":"25.7195","longitude":"80.8518","accuracy":"4"},{"address3":"Ainjhi","state":"Uttar Pradesh","state_code":"36","district":"Fatehpur","district_code":"172","address1":"Fatehpur","address2":"","latitude":"25.8733","longitude":"80.807","accuracy":"4"},{"address3":"Kandhiya","state":"Uttar Pradesh","state_code":"36","district":"Fatehpur","district_code":"172","address1":"Fatehpur","address2":"","latitude":"25.7853","longitude":"80.8514","accuracy":"4"},{"address3":"Rithwan Bhairwan","state":"Uttar Pradesh","state_code":"36","district":"Fatehpur","district_code":"172","address1":"Fatehpur","address2":"","latitude":"25.7688","longitude":"80.7547","accuracy":"3"},{"address3":"Manawan","state":"Uttar Pradesh","state_code":"36","district":"Fatehpur","district_code":"172","address1":"Fatehpur","address2":"","latitude":"25.7525","longitude":"80.9448","accuracy":"4"},{"address3":"Berraon","state":"Uttar Pradesh","state_code":"36","district":"Fatehpur","district_code":"172","address1":"Fatehpur","address2":"","latitude":"25.7688","longitude":"80.7547","accuracy":"3"},{"address3":"Tikar","state":"Uttar Pradesh","state_code":"36","district":"Fatehpur","district_code":"172","address1":"Fatehpur","address2":"","latitude":"25.7892","longitude":"80.9277","accuracy":"4"},{"address3":"Ram Nagar Kauhan","state":"Uttar Pradesh","state_code":"36","district":"Fatehpur","district_code":"172","address1":"Fatehpur","address2":"","latitude":"25.7688","longitude":"80.7547","accuracy":"3"},{"address3":"Kaundar","state":"Uttar Pradesh","state_code":"36","district":"Fatehpur","district_code":"172","address1":"Fatehpur","address2":"","latitude":"25.7634","longitude":"80.9274","accuracy":"4"},{"address3":"Andipur","state":"Uttar Pradesh","state_code":"36","district":"Fatehpur","district_code":"172","address1":"Fatehpur","address2":"","latitude":"25.7879","longitude":"80.9021","accuracy":"4"}],"212621":[{"address3":"Kusumbhi","state":"Uttar Pradesh","state_code":"36","district":"Fatehpur","district_code":"172","address1":"Fatehpur","address2":"","latitude":"25.8342","longitude":"80.8355","accuracy":"4"},{"address3":"Ghazipur (Fatehpur)","state":"Uttar Pradesh","state_code":"36","district":"Fatehpur","district_code":"172","address1":"Fatehpur","address2":"","latitude":"25.8194","longitude":"80.7952","accuracy":"3"},{"address3":"Budhramau","state":"Uttar Pradesh","state_code":"36","district":"Fatehpur","district_code":"172","address1":"Fatehpur","address2":"","latitude":"25.7702","longitude":"80.8168","accuracy":"4"},{"address3":"Mawaiya","state":"Uttar Pradesh","state_code":"36","district":"Fatehpur","district_code":"172","address1":"Fatehpur","address2":"","latitude":"25.9747","longitude":"80.8257","accuracy":"4"},{"address3":"Lamehata","state":"Uttar Pradesh","state_code":"36","district":"Fatehpur","district_code":"172","address1":"Fatehpur","address2":"","latitude":"25.8194","longitude":"80.7952","accuracy":"3"},{"address3":"Laugaon","state":"Uttar Pradesh","state_code":"36","district":"Fatehpur","district_code":"172","address1":"Fatehpur","address2":"","latitude":"25.763","longitude":"80.7734","accuracy":"4"},{"address3":"Sewramau","state":"Uttar Pradesh","state_code":"36","district":"Fatehpur","district_code":"172","address1":"Fatehpur","address2":"","latitude":"25.8194","longitude":"80.7952","accuracy":"3"},{"address3":"Chhichhni","state":"Uttar Pradesh","state_code":"36","district":"Fatehpur","district_code":"172","address1":"Fatehpur","address2":"","latitude":"25.8116","longitude":"80.8624","accuracy":"4"},{"address3":"Sarkee","state":"Uttar Pradesh","state_code":"36","district":"Fatehpur","district_code":"172","address1":"Fatehpur","address2":"","latitude":"25.8194","longitude":"80.7952","accuracy":"3"},{"address3":"Khesahan","state":"Uttar Pradesh","state_code":"36","district":"Fatehpur","district_code":"172","address1":"Fatehpur","address2":"","latitude":"25.8153","longitude":"80.8038","accuracy":"4"},{"address3":"Shankha","state":"Uttar Pradesh","state_code":"36","district":"Fatehpur","district_code":"172","address1":"Fatehpur","address2":"","latitude":"25.8194","longitude":"80.7952","accuracy":"3"},{"address3":"Suketi","state":"Uttar Pradesh","state_code":"36","district":"Fatehpur","district_code":"172","address1":"Fatehpur","address2":"","latitude":"25.7581","longitude":"80.7431","accuracy":"4"},{"address3":"Gambhari","state":"Uttar Pradesh","state_code":"36","district":"Fatehpur","district_code":"172","address1":"Fatehpur","address2":"","latitude":"25.8194","longitude":"80.7952","accuracy":"3"},{"address3":"Pamrauli","state":"Uttar Pradesh","state_code":"36","district":"Fatehpur","district_code":"172","address1":"Fatehpur","address2":"","latitude":"25.8331","longitude":"80.7333","accuracy":"4"},{"address3":"Deolan","state":"Uttar Pradesh","state_code":"36","district":"Fatehpur","district_code":"172","address1":"Fatehpur","address2":"","latitude":"25.8194","longitude":"80.7952","accuracy":"3"},{"address3":"Paina Khurd","state":"Uttar Pradesh","state_code":"36","district":"Fatehpur","district_code":"172","address1":"Fatehpur","address2":"","latitude":"25.8144","longitude":"80.763","accuracy":"4"}],"212622":[{"address3":"Khas Mau","state":"Uttar Pradesh","state_code":"36","district":"Fatehpur","district_code":"172","address1":"Fatehpur","address2":"","latitude":"25.8303","longitude":"81.053","accuracy":"4"},{"address3":"Sahjahanpur Selraha","state":"Uttar Pradesh","state_code":"36","district":"Fatehpur","district_code":"172","address1":"Fatehpur","address2":"","latitude":"26.075","longitude":"80.7227","accuracy":"3"},{"address3":"Malaon","state":"Uttar Pradesh","state_code":"36","district":"Fatehpur","district_code":"172","address1":"Fatehpur","address2":"","latitude":"25.88","longitude":"81.0184","accuracy":"4"},{"address3":"Muraon","state":"Uttar Pradesh","state_code":"36","district":"Fatehpur","district_code":"172","address1":"Fatehpur","address2":"","latitude":"26.075","longitude":"80.7227","accuracy":"3"},{"address3":"Sawant","state":"Uttar Pradesh","state_code":"36","district":"Fatehpur","district_code":"172","address1":"Fatehpur","address2":"","latitude":"25.8733","longitude":"80.807","accuracy":"4"},{"address3":"Dharmpur Saton","state":"Uttar Pradesh","state_code":"36","district":"Fatehpur","district_code":"172","address1":"Fatehpur","address2":"","latitude":"26.075","longitude":"80.7227","accuracy":"3"},{"address3":"Manda Sarai","state":"Uttar Pradesh","state_code":"36","district":"Fatehpur","district_code":"172","address1":"Fatehpur","address2":"","latitude":"25.8959","longitude":"81.0121","accuracy":"4"},{"address3":"Ghoori Bujurg","state":"Uttar Pradesh","state_code":"36","district":"Fatehpur","district_code":"172","address1":"Fatehpur","address2":"","latitude":"26.075","longitude":"80.7227","accuracy":"3"},{"address3":"Naraini","state":"Uttar Pradesh","state_code":"36","district":"Fatehpur","district_code":"172","address1":"Fatehpur","address2":"","latitude":"25.7345","longitude":"80.9993","accuracy":"4"},{"address3":"Chak Korra Sadat","state":"Uttar Pradesh","state_code":"36","district":"Fatehpur","district_code":"172","address1":"Fatehpur","address2":"","latitude":"26.075","longitude":"80.7227","accuracy":"3"},{"address3":"Aurai","state":"Uttar Pradesh","state_code":"36","district":"Fatehpur","district_code":"172","address1":"Fatehpur","address2":"","latitude":"25.7988","longitude":"80.9774","accuracy":"4"},{"address3":"Thariyaon","state":"Uttar Pradesh","state_code":"36","district":"Fatehpur","district_code":"172","address1":"Fatehpur","address2":"","latitude":"26.075","longitude":"80.7227","accuracy":"3"},{"address3":"Bahrampur","state":"Uttar Pradesh","state_code":"36","district":"Fatehpur","district_code":"172","address1":"Fatehpur","address2":"","latitude":"25.8253","longitude":"80.973","accuracy":"4"}],"212631":[{"address3":"Chandpur","state":"Uttar Pradesh","state_code":"36","district":"Fatehpur","district_code":"172","address1":"Fatehpur","address2":"","latitude":"25.9344","longitude":"80.3611","accuracy":"4"},{"address3":"Dhamina Khurd","state":"Uttar Pradesh","state_code":"36","district":"Fatehpur","district_code":"172","address1":"Fatehpur","address2":"","latitude":"25.8733","longitude":"80.807","accuracy":"3"},{"address3":"Birnai","state":"Uttar Pradesh","state_code":"36","district":"Fatehpur","district_code":"172","address1":"Fatehpur","address2":"","latitude":"25.8733","longitude":"80.807","accuracy":"4"},{"address3":"Makarandpur","state":"Uttar Pradesh","state_code":"36","district":"Fatehpur","district_code":"172","address1":"Fatehpur","address2":"","latitude":"25.8733","longitude":"80.807","accuracy":"3"},{"address3":"Amauli","state":"Uttar Pradesh","state_code":"36","district":"Fatehpur","district_code":"172","address1":"Fatehpur","address2":"","latitude":"26.0108","longitude":"80.3075","accuracy":"4"},{"address3":"Burhwan","state":"Uttar Pradesh","state_code":"36","district":"Fatehpur","district_code":"172","address1":"Fatehpur","address2":"","latitude":"25.8393","longitude":"80.762","accuracy":"3"},{"address3":"Gaura","state":"Uttar Pradesh","state_code":"36","district":"Fatehpur","district_code":"172","address1":"Fatehpur","address2":"","latitude":"25.9794","longitude":"80.406","accuracy":"4"},{"address3":"Dayalnagar","state":"Uttar Pradesh","state_code":"36","district":"Fatehpur","district_code":"172","address1":"Fatehpur","address2":"","latitude":"25.8733","longitude":"80.807","accuracy":"3"},{"address3":"Kaunh","state":"Uttar Pradesh","state_code":"36","district":"Fatehpur","district_code":"172","address1":"Fatehpur","address2":"","latitude":"25.9878","longitude":"80.3624","accuracy":"4"},{"address3":"Salhepur","state":"Uttar Pradesh","state_code":"36","district":"Fatehpur","district_code":"172","address1":"Fatehpur","address2":"","latitude":"25.8393","longitude":"80.762","accuracy":"3"},{"address3":"Rithwa Awajipur","state":"Uttar Pradesh","state_code":"36","district":"Fatehpur","district_code":"172","address1":"Fatehpur","address2":"","latitude":"25.8393","longitude":"80.762","accuracy":"3"},{"address3":"Gohrari","state":"Uttar Pradesh","state_code":"36","district":"Fatehpur","district_code":"172","address1":"Fatehpur","address2":"","latitude":"25.8393","longitude":"80.762","accuracy":"3"},{"address3":"Gauri Aura","state":"Uttar Pradesh","state_code":"36","district":"Fatehpur","district_code":"172","address1":"Fatehpur","address2":"","latitude":"25.8393","longitude":"80.762","accuracy":"3"},{"address3":"Dapsaura","state":"Uttar Pradesh","state_code":"36","district":"Fatehpur","district_code":"172","address1":"Fatehpur","address2":"","latitude":"25.8393","longitude":"80.762","accuracy":"3"}],"212635":[{"address3":"Alamganj","state":"Uttar Pradesh","state_code":"36","district":"Fatehpur","district_code":"172","address1":"Fatehpur","address2":"","latitude":"25.8733","longitude":"80.807","accuracy":"4"},{"address3":"Bindki","state":"Uttar Pradesh","state_code":"36","district":"Fatehpur","district_code":"172","address1":"Fatehpur","address2":"","latitude":"26.0361","longitude":"80.5762","accuracy":"4"},{"address3":"Lalpur","state":"Uttar Pradesh","state_code":"36","district":"Fatehpur","district_code":"172","address1":"Fatehpur","address2":"","latitude":"25.8161","longitude":"80.5996","accuracy":"4"},{"address3":"Khuta","state":"Uttar Pradesh","state_code":"36","district":"Fatehpur","district_code":"172","address1":"Fatehpur","address2":"","latitude":"25.8733","longitude":"80.807","accuracy":"3"},{"address3":"Chhichha","state":"Uttar Pradesh","state_code":"36","district":"Fatehpur","district_code":"172","address1":"Fatehpur","address2":"","latitude":"25.9686","longitude":"80.5841","accuracy":"4"},{"address3":"Mandraon","state":"Uttar Pradesh","state_code":"36","district":"Fatehpur","district_code":"172","address1":"Fatehpur","address2":"","latitude":"26.0499","longitude":"80.7725","accuracy":"3"},{"address3":"Jafrabad","state":"Uttar Pradesh","state_code":"36","district":"Fatehpur","district_code":"172","address1":"Fatehpur","address2":"","latitude":"25.8733","longitude":"80.807","accuracy":"3"},{"address3":"Purani Bindki","state":"Uttar Pradesh","state_code":"36","district":"Fatehpur","district_code":"172","address1":"Fatehpur","address2":"","latitude":"26.0499","longitude":"80.7725","accuracy":"3"},{"address3":"Deegh","state":"Uttar Pradesh","state_code":"36","district":"Fatehpur","district_code":"172","address1":"Fatehpur","address2":"","latitude":"26.0499","longitude":"80.7725","accuracy":"3"},{"address3":"Mahraha","state":"Uttar Pradesh","state_code":"36","district":"Fatehpur","district_code":"172","address1":"Fatehpur","address2":"","latitude":"26.0499","longitude":"80.7725","accuracy":"3"},{"address3":"Jonihan","state":"Uttar Pradesh","state_code":"36","district":"Fatehpur","district_code":"172","address1":"Fatehpur","address2":"","latitude":"26.0499","longitude":"80.7725","accuracy":"3"}],"212641":[{"address3":"Kharsendwa","state":"Uttar Pradesh","state_code":"36","district":"Fatehpur","district_code":"172","address1":"Fatehpur","address2":"","latitude":"25.5384","longitude":"81.1816","accuracy":"4"},{"address3":"Dhata","state":"Uttar Pradesh","state_code":"36","district":"Fatehpur","district_code":"172","address1":"Fatehpur","address2":"","latitude":"25.5366","longitude":"81.2344","accuracy":"4"},{"address3":"Belain","state":"Uttar Pradesh","state_code":"36","district":"Fatehpur","district_code":"172","address1":"Fatehpur","address2":"","latitude":"25.5484","longitude":"81.1819","accuracy":"4"},{"address3":"Narsinghpur Kabraha","state":"Uttar Pradesh","state_code":"36","district":"Fatehpur","district_code":"172","address1":"Fatehpur","address2":"","latitude":"25.658","longitude":"81.1352","accuracy":"3"},{"address3":"Kalyanpur Kachrauli","state":"Uttar Pradesh","state_code":"36","district":"Fatehpur","district_code":"172","address1":"Fatehpur","address2":"","latitude":"25.5503","longitude":"81.2039","accuracy":"4"},{"address3":"Devrar","state":"Uttar Pradesh","state_code":"36","district":"Fatehpur","district_code":"172","address1":"Fatehpur","address2":"","latitude":"25.658","longitude":"81.1352","accuracy":"3"},{"address3":"Arhauli","state":"Uttar Pradesh","state_code":"36","district":"Fatehpur","district_code":"172","address1":"Fatehpur","address2":"","latitude":"25.8733","longitude":"80.807","accuracy":"4"},{"address3":"Ahmadpur Kusumbha","state":"Uttar Pradesh","state_code":"36","district":"Fatehpur","district_code":"172","address1":"Fatehpur","address2":"","latitude":"25.658","longitude":"81.1352","accuracy":"3"},{"address3":"Jam","state":"Uttar Pradesh","state_code":"36","district":"Fatehpur","district_code":"172","address1":"Fatehpur","address2":"","latitude":"25.5855","longitude":"81.2196","accuracy":"4"},{"address3":"Bamharauli","state":"Uttar Pradesh","state_code":"36","district":"Fatehpur","district_code":"172","address1":"Fatehpur","address2":"","latitude":"25.658","longitude":"81.1352","accuracy":"3"},{"address3":"Dampur","state":"Uttar Pradesh","state_code":"36","district":"Fatehpur","district_code":"172","address1":"Fatehpur","address2":"","latitude":"25.5043","longitude":"81.1734","accuracy":"4"},{"address3":"Pallawan","state":"Uttar Pradesh","state_code":"36","district":"Fatehpur","district_code":"172","address1":"Fatehpur","address2":"","latitude":"25.658","longitude":"81.1352","accuracy":"3"}],"212645":[{"address3":"Bilanda","state":"Uttar Pradesh","state_code":"36","district":"Fatehpur","district_code":"172","address1":"Fatehpur","address2":"","latitude":"25.8733","longitude":"80.807","accuracy":"4"},{"address3":"Lateefpur","state":"Uttar Pradesh","state_code":"36","district":"Fatehpur","district_code":"172","address1":"Fatehpur","address2":"","latitude":"26.2575","longitude":"80.2968","accuracy":"3"},{"address3":"Haswa","state":"Uttar Pradesh","state_code":"36","district":"Fatehpur","district_code":"172","address1":"Fatehpur","address2":"","latitude":"25.8727","longitude":"80.9158","accuracy":"4"},{"address3":"Mahoi","state":"Uttar Pradesh","state_code":"36","district":"Fatehpur","district_code":"172","address1":"Fatehpur","address2":"","latitude":"25.926","longitude":"80.944","accuracy":"4"}],"212650":[{"address3":"Nizamuddinpur","state":"Uttar Pradesh","state_code":"36","district":"Fatehpur","district_code":"172","address1":"Fatehpur","address2":"","latitude":"25.95","longitude":"81.0782","accuracy":"4"},{"address3":"Yauhan","state":"Uttar Pradesh","state_code":"36","district":"Fatehpur","district_code":"172","address1":"Fatehpur","address2":"","latitude":"25.9501","longitude":"80.6969","accuracy":"3"},{"address3":"Salempur","state":"Uttar Pradesh","state_code":"36","district":"Fatehpur","district_code":"172","address1":"Fatehpur","address2":"","latitude":"25.9406","longitude":"81.0196","accuracy":"4"},{"address3":"Amilihapal","state":"Uttar Pradesh","state_code":"36","district":"Fatehpur","district_code":"172","address1":"Fatehpur","address2":"","latitude":"25.9501","longitude":"80.6969","accuracy":"3"},{"address3":"Chheolaha","state":"Uttar Pradesh","state_code":"36","district":"Fatehpur","district_code":"172","address1":"Fatehpur","address2":"","latitude":"25.8733","longitude":"80.807","accuracy":"4"},{"address3":"Gaura Bujurg","state":"Uttar Pradesh","state_code":"36","district":"Fatehpur","district_code":"172","address1":"Fatehpur","address2":"","latitude":"25.9501","longitude":"80.6969","accuracy":"3"},{"address3":"Hasaupur","state":"Uttar Pradesh","state_code":"36","district":"Fatehpur","district_code":"172","address1":"Fatehpur","address2":"","latitude":"25.8733","longitude":"80.807","accuracy":"4"},{"address3":"Karmon","state":"Uttar Pradesh","state_code":"36","district":"Fatehpur","district_code":"172","address1":"Fatehpur","address2":"","latitude":"25.9501","longitude":"80.6969","accuracy":"3"}],"212651":[{"address3":"Husainganj (Fatehpur)","state":"Uttar Pradesh","state_code":"36","district":"Fatehpur","district_code":"172","address1":"Fatehpur","address2":"","latitude":"26.0023","longitude":"80.9298","accuracy":"4"},{"address3":"Mawai","state":"Uttar Pradesh","state_code":"36","district":"Fatehpur","district_code":"172","address1":"Fatehpur","address2":"","latitude":"25.9737","longitude":"81.0083","accuracy":"4"},