{"222001":[{"address3":"Jaunpur H.O","state":"Uttar Pradesh","state_code":"36","district":"Jaunpur","district_code":"194","address1":"Jaunpur","address2":"","latitude":"25.7382","longitude":"82.6399","accuracy":"1"},{"address3":"Shastri Marg","state":"Uttar Pradesh","state_code":"36","district":"Jaunpur","district_code":"194","address1":"Jaunpur","address2":"","latitude":"25.7382","longitude":"82.6399","accuracy":"1"},{"address3":"Shakarmandi","state":"Uttar Pradesh","state_code":"36","district":"Jaunpur","district_code":"194","address1":"Jaunpur","address2":"","latitude":"25.7382","longitude":"82.6399","accuracy":"1"},{"address3":"Sutahatti Bazar","state":"Uttar Pradesh","state_code":"36","district":"Jaunpur","district_code":"194","address1":"Jaunpur","address2":"","latitude":"25.7382","longitude":"82.6399","accuracy":"1"},{"address3":"Raj College","state":"Uttar Pradesh","state_code":"36","district":"Jaunpur","district_code":"194","address1":"Jaunpur","address2":"","latitude":"25.7382","longitude":"82.6399","accuracy":"1"}],"222002":[{"address3":"Jagdishpur","state":"Uttar Pradesh","state_code":"36","district":"Jaunpur","district_code":"194","address1":"Jaunpur","address2":"","latitude":"25.818","longitude":"82.613","accuracy":"4"},{"address3":"Muradganj","state":"Uttar Pradesh","state_code":"36","district":"Jaunpur","district_code":"194","address1":"Jaunpur","address2":"","latitude":"25.7392","longitude":"82.6661","accuracy":"4"},{"address3":"T.D. College","state":"Uttar Pradesh","state_code":"36","district":"Jaunpur","district_code":"194","address1":"Jaunpur","address2":"","latitude":"25.7656","longitude":"82.5918","accuracy":"3"},{"address3":"Pukhta Sarai","state":"Uttar Pradesh","state_code":"36","district":"Jaunpur","district_code":"194","address1":"Jaunpur","address2":"","latitude":"25.746","longitude":"82.5759","accuracy":"3"},{"address3":"Premapur","state":"Uttar Pradesh","state_code":"36","district":"Jaunpur","district_code":"194","address1":"Jaunpur","address2":"","latitude":"25.7806","longitude":"82.7416","accuracy":"4"},{"address3":"Kirtapur","state":"Uttar Pradesh","state_code":"36","district":"Jaunpur","district_code":"194","address1":"Jaunpur","address2":"","latitude":"25.7344","longitude":"82.7676","accuracy":"4"},{"address3":"Collectrate Compound","state":"Uttar Pradesh","state_code":"36","district":"Jaunpur","district_code":"194","address1":"Jaunpur","address2":"","latitude":"25.7656","longitude":"82.5918","accuracy":"3"},{"address3":"Harbaspur","state":"Uttar Pradesh","state_code":"36","district":"Jaunpur","district_code":"194","address1":"Jaunpur","address2":"","latitude":"25.7941","longitude":"82.6261","accuracy":"4"},{"address3":"Umarpur","state":"Uttar Pradesh","state_code":"36","district":"Jaunpur","district_code":"194","address1":"Jaunpur","address2":"","latitude":"25.7406","longitude":"82.2811","accuracy":"4"},{"address3":"Purani Bazar","state":"Uttar Pradesh","state_code":"36","district":"Jaunpur","district_code":"194","address1":"Jaunpur","address2":"","latitude":"25.8999","longitude":"82.4453","accuracy":"4"},{"address3":"Shitla Chaukiya","state":"Uttar Pradesh","state_code":"36","district":"Jaunpur","district_code":"194","address1":"Jaunpur","address2":"","latitude":"25.7656","longitude":"82.5918","accuracy":"3"},{"address3":"Kalichabad","state":"Uttar Pradesh","state_code":"36","district":"Jaunpur","district_code":"194","address1":"Jaunpur","address2":"","latitude":"25.7556","longitude":"82.6615","accuracy":"4"},{"address3":"Dharmapur","state":"Uttar Pradesh","state_code":"36","district":"Jaunpur","district_code":"194","address1":"NA","address2":"","latitude":"25.6276","longitude":"82.5236","accuracy":"4"},{"address3":"Jaunpur Kty.","state":"Uttar Pradesh","state_code":"36","district":"Jaunpur","district_code":"194","address1":"Jaunpur","address2":"","latitude":"25.7656","longitude":"82.5918","accuracy":"3"},{"address3":"Shivapar","state":"Uttar Pradesh","state_code":"36","district":"Jaunpur","district_code":"194","address1":"Jaunpur","address2":"","latitude":"25.7656","longitude":"82.5918","accuracy":"3"},{"address3":"College Colony","state":"Uttar Pradesh","state_code":"36","district":"Jaunpur","district_code":"194","address1":"Jaunpur","address2":"","latitude":"25.7656","longitude":"82.5918","accuracy":"3"},{"address3":"Civil Court (Jaunpur)","state":"Uttar Pradesh","state_code":"36","district":"Jaunpur","district_code":"194","address1":"Jaunpur","address2":"","latitude":"25.7656","longitude":"82.5918","accuracy":"3"}],"222003":[{"address3":"Kanja","state":"Uttar Pradesh","state_code":"36","district":"Jaunpur","district_code":"194","address1":"Jaunpur","address2":"","latitude":"25.746","longitude":"82.5759","accuracy":"4"},{"address3":"Jangipur Khurd","state":"Uttar Pradesh","state_code":"36","district":"Jaunpur","district_code":"194","address1":"Jaunpur","address2":"","latitude":"25.8447","longitude":"82.709","accuracy":"4"},{"address3":"Khalilpur","state":"Uttar Pradesh","state_code":"36","district":"Jaunpur","district_code":"194","address1":"Jaunpur","address2":"","latitude":"25.7058","longitude":"82.6584","accuracy":"4"},{"address3":"Pathana","state":"Uttar Pradesh","state_code":"36","district":"Jaunpur","district_code":"194","address1":"Jaunpur","address2":"","latitude":"25.7073","longitude":"82.6941","accuracy":"3"},{"address3":"Garaila","state":"Uttar Pradesh","state_code":"36","district":"Jaunpur","district_code":"194","address1":"Jaunpur","address2":"","latitude":"25.8303","longitude":"82.7052","accuracy":"4"},{"address3":"Aurahi","state":"Uttar Pradesh","state_code":"36","district":"Jaunpur","district_code":"194","address1":"Jaunpur","address2":"","latitude":"25.746","longitude":"82.5759","accuracy":"4"},{"address3":"Jamuhai","state":"Uttar Pradesh","state_code":"36","district":"Jaunpur","district_code":"194","address1":"Jaunpur","address2":"","latitude":"25.8511","longitude":"82.7544","accuracy":"4"},{"address3":"NDC Jamuhai","state":"Uttar Pradesh","state_code":"36","district":"Jaunpur","district_code":"194","address1":"Jaunpur","address2":"","latitude":"25.7073","longitude":"82.6941","accuracy":"3"},{"address3":"Sonikpur","state":"Uttar Pradesh","state_code":"36","district":"Jaunpur","district_code":"194","address1":"Shahganj","address2":"","latitude":"25.8785","longitude":"82.7061","accuracy":"4"},{"address3":"Bhakura","state":"Uttar Pradesh","state_code":"36","district":"Jaunpur","district_code":"194","address1":"Jaunpur","address2":"","latitude":"25.8249","longitude":"82.7255","accuracy":"4"},{"address3":"Hindi Baghaila","state":"Uttar Pradesh","state_code":"36","district":"Jaunpur","district_code":"194","address1":"Jaunpur","address2":"","latitude":"25.7073","longitude":"82.6941","accuracy":"3"},{"address3":"Malhani","state":"Uttar Pradesh","state_code":"36","district":"Jaunpur","district_code":"194","address1":"Jaunpur","address2":"","latitude":"25.7073","longitude":"82.6941","accuracy":"3"},{"address3":"Saidpur Garaur","state":"Uttar Pradesh","state_code":"36","district":"Jaunpur","district_code":"194","address1":"Jaunpur","address2":"","latitude":"25.7073","longitude":"82.6941","accuracy":"3"},{"address3":"Rampur Baijapur","state":"Uttar Pradesh","state_code":"36","district":"Jaunpur","district_code":"194","address1":"Jaunpur","address2":"","latitude":"25.7073","longitude":"82.6941","accuracy":"3"},{"address3":"Purvanchal Vishwa Vidyalaya","state":"Uttar Pradesh","state_code":"36","district":"Jaunpur","district_code":"194","address1":"Jaunpur","address2":"","latitude":"25.7073","longitude":"82.6941","accuracy":"3"},{"address3":"Basaratpur","state":"Uttar Pradesh","state_code":"36","district":"Jaunpur","district_code":"194","address1":"Jaunpur","address2":"","latitude":"25.7073","longitude":"82.6941","accuracy":"3"},{"address3":"Saraikhwaja","state":"Uttar Pradesh","state_code":"36","district":"Jaunpur","district_code":"194","address1":"Shahganj","address2":"","latitude":"25.7073","longitude":"82.6941","accuracy":"3"},{"address3":"I.T.I.Siddikpur","state":"Uttar Pradesh","state_code":"36","district":"Jaunpur","district_code":"194","address1":"Jaunpur","address2":"","latitude":"25.7073","longitude":"82.6941","accuracy":"3"}],"222105":[{"address3":"Madarpur","state":"Uttar Pradesh","state_code":"36","district":"Jaunpur","district_code":"194","address1":"Jaunpur","address2":"","latitude":"26.0471","longitude":"82.4719","accuracy":"4"},{"address3":"Kuddupur","state":"Uttar Pradesh","state_code":"36","district":"Jaunpur","district_code":"194","address1":"Jaunpur","address2":"","latitude":"25.6952","longitude":"82.6666","accuracy":"4"},{"address3":"Auraila","state":"Uttar Pradesh","state_code":"36","district":"Jaunpur","district_code":"194","address1":"Mariahun","address2":"","latitude":"25.7797","longitude":"82.6026","accuracy":"3"},{"address3":"Ramdayalganj","state":"Uttar Pradesh","state_code":"36","district":"Jaunpur","district_code":"194","address1":"Jaunpur","address2":"","latitude":"25.6898","longitude":"82.6457","accuracy":"4"},{"address3":"Rampur Naddi","state":"Uttar Pradesh","state_code":"36","district":"Jaunpur","district_code":"194","address1":"Mariahun","address2":"","latitude":"25.7797","longitude":"82.6026","accuracy":"3"},{"address3":"Kailawar","state":"Uttar Pradesh","state_code":"36","district":"Jaunpur","district_code":"194","address1":"Mariahun","address2":"","latitude":"25.6866","longitude":"82.6262","accuracy":"4"},{"address3":"Poly","state":"Uttar Pradesh","state_code":"36","district":"Jaunpur","district_code":"194","address1":"Mariahu","address2":"","latitude":"25.7797","longitude":"82.6026","accuracy":"3"}],"222109":[{"address3":"Leduka","state":"Uttar Pradesh","state_code":"36","district":"Jaunpur","district_code":"194","address1":"Badlapur","address2":"","latitude":"25.8849","longitude":"82.5547","accuracy":"4"},{"address3":"Sadanpur","state":"Uttar Pradesh","state_code":"36","district":"Jaunpur","district_code":"194","address1":"Jaunpur","address2":"","latitude":"25.795","longitude":"82.6008","accuracy":"4"},{"address3":"Dariaoganj","state":"Uttar Pradesh","state_code":"36","district":"Jaunpur","district_code":"194","address1":"Jaunpur","address2":"","latitude":"25.8498","longitude":"82.584","accuracy":"4"},{"address3":"Garhabaghrai","state":"Uttar Pradesh","state_code":"36","district":"Jaunpur","district_code":"194","address1":"Badalapur","address2":"","latitude":"25.8536","longitude":"82.5637","accuracy":"3"},{"address3":"Birbhanpur","state":"Uttar Pradesh","state_code":"36","district":"Jaunpur","district_code":"194","address1":"Badalapur","address2":"","latitude":"25.8774","longitude":"82.5191","accuracy":"4"},{"address3":"Naupedwa","state":"Uttar Pradesh","state_code":"36","district":"Jaunpur","district_code":"194","address1":"Jaunpur","address2":"","latitude":"25.8536","longitude":"82.5637","accuracy":"3"},{"address3":"Dakkhinpatti Ranno","state":"Uttar Pradesh","state_code":"36","district":"Jaunpur","district_code":"194","address1":"Badalapur","address2":"","latitude":"25.8536","longitude":"82.5637","accuracy":"3"},{"address3":"Barpur","state":"Uttar Pradesh","state_code":"36","district":"Jaunpur","district_code":"194","address1":"Machhlishahr","address2":"","latitude":"25.8513","longitude":"82.5464","accuracy":"4"},{"address3":"Saderi","state":"Uttar Pradesh","state_code":"36","district":"Jaunpur","district_code":"194","address1":"Badalapur","address2":"","latitude":"25.8536","longitude":"82.5637","accuracy":"3"},{"address3":"Belawan","state":"Uttar Pradesh","state_code":"36","district":"Jaunpur","district_code":"194","address1":"Kerakat","address2":"","latitude":"25.8634","longitude":"82.5772","accuracy":"4"},{"address3":"Buxa","state":"Uttar Pradesh","state_code":"36","district":"Jaunpur","district_code":"194","address1":"Jaunpur","address2":"","latitude":"25.8536","longitude":"82.5637","accuracy":"3"}],"222125":[{"address3":"Medha","state":"Uttar Pradesh","state_code":"36","district":"Jaunpur","district_code":"194","address1":"Badlapur","address2":"","latitude":"25.746","longitude":"82.5759","accuracy":"4"},{"address3":"Shahpur","state":"Uttar Pradesh","state_code":"36","district":"Jaunpur","district_code":"194","address1":"Badlapur","address2":"","latitude":"25.9154","longitude":"82.4948","accuracy":"4"},{"address3":"Dhema","state":"Uttar Pradesh","state_code":"36","district":"Jaunpur","district_code":"194","address1":"Badalapur","address2":"","latitude":"25.746","longitude":"82.5759","accuracy":"4"},{"address3":"Mirsahdpur","state":"Uttar Pradesh","state_code":"36","district":"Jaunpur","district_code":"194","address1":"Badlapur","address2":"","latitude":"25.917","longitude":"82.4668","accuracy":"3"},{"address3":"Bangaonpatti","state":"Uttar Pradesh","state_code":"36","district":"Jaunpur","district_code":"194","address1":"Badlapur","address2":"","latitude":"25.9012","longitude":"82.5028","accuracy":"4"},{"address3":"Muradpur","state":"Uttar Pradesh","state_code":"36","district":"Jaunpur","district_code":"194","address1":"Badalapur","address2":"","latitude":"25.6643","longitude":"82.279","accuracy":"4"},{"address3":"Tiara","state":"Uttar Pradesh","state_code":"36","district":"Jaunpur","district_code":"194","address1":"Badalapur","address2":"","latitude":"25.746","longitude":"82.5759","accuracy":"4"},{"address3":"Meerapur Kewal","state":"Uttar Pradesh","state_code":"36","district":"Jaunpur","district_code":"194","address1":"Badalapur","address2":"","latitude":"25.917","longitude":"82.4668","accuracy":"3"},{"address3":"Gaddopur","state":"Uttar Pradesh","state_code":"36","district":"Jaunpur","district_code":"194","address1":"Badalapur","address2":"","latitude":"25.8688","longitude":"82.3594","accuracy":"4"},{"address3":"Badlapur","state":"Uttar Pradesh","state_code":"36","district":"Jaunpur","district_code":"194","address1":"Badlapur","address2":"","latitude":"25.8922","longitude":"82.4528","accuracy":"4"},{"address3":"Jamaupatti","state":"Uttar Pradesh","state_code":"36","district":"Jaunpur","district_code":"194","address1":"Badlapur","address2":"","latitude":"25.9808","longitude":"82.4563","accuracy":"4"},{"address3":"Kuhi Kalan","state":"Uttar Pradesh","state_code":"36","district":"Jaunpur","district_code":"194","address1":"Badlapur","address2":"","latitude":"25.9414","longitude":"82.4848","accuracy":"4"},{"address3":"Sarai Durgadas","state":"Uttar Pradesh","state_code":"36","district":"Jaunpur","district_code":"194","address1":"Badlapur","address2":"","latitude":"25.8634","longitude":"82.3223","accuracy":"4"},{"address3":"Umari","state":"Uttar Pradesh","state_code":"36","district":"Jaunpur","district_code":"194","address1":"Jaunpur","address2":"","latitude":"25.917","longitude":"82.4668","accuracy":"3"},{"address3":"Udpur Ghelhawa","state":"Uttar Pradesh","state_code":"36","district":"Jaunpur","district_code":"194","address1":"Badlapur","address2":"","latitude":"25.917","longitude":"82.4668","accuracy":"3"},{"address3":"Pyareypur Bijhawat","state":"Uttar Pradesh","state_code":"36","district":"Jaunpur","district_code":"194","address1":"Badalapur","address2":"","latitude":"25.917","longitude":"82.4668","accuracy":"3"},{"address3":"Newada Mukhalispur","state":"Uttar Pradesh","state_code":"36","district":"Jaunpur","district_code":"194","address1":"Badlapur","address2":"","latitude":"25.917","longitude":"82.4668","accuracy":"3"},{"address3":"Rajabazar","state":"Uttar Pradesh","state_code":"36","district":"Jaunpur","district_code":"194","address1":"Badlapur","address2":"","latitude":"25.917","longitude":"82.4668","accuracy":"3"}],"222127":[{"address3":"Gokha","state":"Uttar Pradesh","state_code":"36","district":"Jaunpur","district_code":"194","address1":"NA","address2":"","latitude":"25.746","longitude":"82.5759","accuracy":"3"},{"address3":"Shahopatti","state":"Uttar Pradesh","state_code":"36","district":"Jaunpur","district_code":"194","address1":"Mariahu","address2":"","latitude":"25.6674","longitude":"82.4965","accuracy":"3"},{"address3":"Nizamuddinpur","state":"Uttar Pradesh","state_code":"36","district":"Jaunpur","district_code":"194","address1":"Machhlishahr","address2":"","latitude":"25.674","longitude":"82.4713","accuracy":"4"},{"address3":"Mujar","state":"Uttar Pradesh","state_code":"36","district":"Jaunpur","district_code":"194","address1":"Mariahu","address2":"","latitude":"25.6674","longitude":"82.4965","accuracy":"3"},{"address3":"Jamua","state":"Uttar Pradesh","state_code":"36","district":"Jaunpur","district_code":"194","address1":"Machhali Shahar","address2":"","latitude":"25.6608","longitude":"82.5218","accuracy":"4"},{"address3":"Baderi","state":"Uttar Pradesh","state_code":"36","district":"Jaunpur","district_code":"194","address1":"Machhalishahar","address2":"","latitude":"25.6674","longitude":"82.4965","accuracy":"3"},{"address3":"Kanhabanshipur","state":"Uttar Pradesh","state_code":"36","district":"Jaunpur","district_code":"194","address1":"Mariahu","address2":"","latitude":"25.6674","longitude":"82.4965","accuracy":"3"}],"222128":[{"address3":"Bhawaniganj","state":"Uttar Pradesh","state_code":"36","district":"Jaunpur","district_code":"194","address1":"Mariahu","address2":"","latitude":"25.746","longitude":"82.5759","accuracy":"4"},{"address3":"Khetapur","state":"Uttar Pradesh","state_code":"36","district":"Jaunpur","district_code":"194","address1":"Mariahun","address2":"","latitude":"25.5237","longitude":"82.7006","accuracy":"4"},{"address3":"Nonari","state":"Uttar Pradesh","state_code":"36","district":"Jaunpur","district_code":"194","address1":"Mariahun","address2":"","latitude":"25.746","longitude":"82.5759","accuracy":"4"},{"address3":"Tarati","state":"Uttar Pradesh","state_code":"36","district":"Jaunpur","district_code":"194","address1":"Mariahun","address2":"","latitude":"25.6649","longitude":"82.5038","accuracy":"3"},{"address3":"Budhhipur","state":"Uttar Pradesh","state_code":"36","district":"Jaunpur","district_code":"194","address1":"Mariahun","address2":"","latitude":"25.6649","longitude":"82.5038","accuracy":"3"},{"address3":"Dhanethu","state":"Uttar Pradesh","state_code":"36","district":"Jaunpur","district_code":"194","address1":"Mariahun","address2":"","latitude":"25.5127","longitude":"82.7012","accuracy":"4"},{"address3":"Lagdharpur","state":"Uttar Pradesh","state_code":"36","district":"Jaunpur","district_code":"194","address1":"Machhlishahr","address2":"","latitude":"25.4915","longitude":"82.6977","accuracy":"4"},{"address3":"Bazar Neorhia","state":"Uttar Pradesh","state_code":"36","district":"Jaunpur","district_code":"194","address1":"Mariahun","address2":"","latitude":"25.6649","longitude":"82.5038","accuracy":"3"},{"address3":"Baneora","state":"Uttar Pradesh","state_code":"36","district":"Jaunpur","district_code":"194","address1":"Mariahu","address2":"","latitude":"25.6649","longitude":"82.5038","accuracy":"3"}],"222129":[{"address3":"Hariharpur","state":"Uttar Pradesh","state_code":"36","district":"Jaunpur","district_code":"194","address1":"Kerakat","address2":"","latitude":"25.8234","longitude":"82.6992","accuracy":"4"},{"address3":"Patrahi","state":"Uttar Pradesh","state_code":"36","district":"Jaunpur","district_code":"194","address1":"Kerakat","address2":"","latitude":"25.5841","longitude":"83.0879","accuracy":"4"},{"address3":"Bhaisa","state":"Uttar Pradesh","state_code":"36","district":"Jaunpur","district_code":"194","address1":"Kerakat","address2":"","latitude":"25.746","longitude":"82.5759","accuracy":"4"},{"address3":"Chitako","state":"Uttar Pradesh","state_code":"36","district":"Jaunpur","district_code":"194","address1":"Kerakat","address2":"","latitude":"25.6322","longitude":"82.7161","accuracy":"3"},{"address3":"Chandepur","state":"Uttar Pradesh","state_code":"36","district":"Jaunpur","district_code":"194","address1":"Kerakat","address2":"","latitude":"25.5525","longitude":"83.0512","accuracy":"4"},{"address3":"Chandwak","state":"Uttar Pradesh","state_code":"36","district":"Jaunpur","district_code":"194","address1":"Kerakat","address2":"","latitude":"25.5909","longitude":"82.9978","accuracy":"4"},{"address3":"Biri","state":"Uttar Pradesh","state_code":"36","district":"Jaunpur","district_code":"194","address1":"Kerakat","address2":"","latitude":"25.5868","longitude":"83.0329","accuracy":"4"},{"address3":"Madhi","state":"Uttar Pradesh","state_code":"36","district":"Jaunpur","district_code":"194","address1":"Kerakat","address2":"","latitude":"25.746","longitude":"82.5759","accuracy":"4"},{"address3":"Gobara","state":"Uttar Pradesh","state_code":"36","district":"Jaunpur","district_code":"194","address1":"Kerakat","address2":"","latitude":"25.746","longitude":"82.5759","accuracy":"4"},{"address3":"Balrampur","state":"Uttar Pradesh","state_code":"36","district":"Jaunpur","district_code":"194","address1":"Kerakat","address2":"","latitude":"25.5705","longitude":"83.0363","accuracy":"4"},{"address3":"Hisampur","state":"Uttar Pradesh","state_code":"36","district":"Jaunpur","district_code":"194","address1":"Kerakat","address2":"","latitude":"25.7112","longitude":"82.7037","accuracy":"4"}],"222131":[{"address3":"Sherawan","state":"Uttar Pradesh","state_code":"36","district":"Jaunpur","district_code":"194","address1":"Jaunpur","address2":"","latitude":"25.9111","longitude":"82.0981","accuracy":"3"},{"address3":"Rithi","state":"Uttar Pradesh","state_code":"36","district":"Jaunpur","district_code":"194","address1":"Jaunpur","address2":"","latitude":"25.746","longitude":"82.5759","accuracy":"4"},{"address3":"Shahpur","state":"Uttar Pradesh","state_code":"36","district":"Jaunpur","district_code":"194","address1":"Machhali Shahar","address2":"","latitude":"25.7756","longitude":"82.4621","accuracy":"4"},{"address3":"Sikrara","state":"Uttar Pradesh","state_code":"36","district":"Jaunpur","district_code":"194","address1":"Jaunpur","address2":"","latitude":"25.746","longitude":"82.5759","accuracy":"3"},{"address3":"Khapraha]","state":"Uttar Pradesh","state_code":"36","district":"Jaunpur","district_code":"194","address1":"Jaunpur","address2":"","latitude":"25.9111","longitude":"82.0981","accuracy":"3"}],"222132":[{"address3":"Fatehganj (Jaunpur)","state":"Uttar Pradesh","state_code":"36","district":"Jaunpur","district_code":"194","address1":"Jaunpur","address2":"","latitude":"25.7383","longitude":"82.6108","accuracy":"4"},{"address3":"Kuwarda","state":"Uttar Pradesh","state_code":"36","district":"Jaunpur","district_code":"194","address1":"Jaunpur","address2":"","latitude":"25.7549","longitude":"82.6036","accuracy":"3"},{"address3":"Dhirajpur","state":"Uttar Pradesh","state_code":"36","district":"Jaunpur","district_code":"194","address1":"Jaunpur","address2":"","latitude":"25.772","longitude":"82.628","accuracy":"4"},{"address3":"Kohara Sultanpur","state":"Uttar Pradesh","state_code":"36","district":"Jaunpur","district_code":"194","address1":"Jaunpur","address2":"","latitude":"25.7549","longitude":"82.6036","accuracy":"3"},{"address3":"Shambhuganj","state":"Uttar Pradesh","state_code":"36","district":"Jaunpur","district_code":"194","address1":"Jaunpur","address2":"","latitude":"25.7708","longitude":"82.6002","accuracy":"4"},{"address3":"Masida","state":"Uttar Pradesh","state_code":"36","district":"Jaunpur","district_code":"194","address1":"Jaunpur","address2":"","latitude":"25.7384","longitude":"82.5752","accuracy":"4"}],"222133":[{"address3":"Bhadeora","state":"Uttar Pradesh","state_code":"36","district":"Jaunpur","district_code":"194","address1":"Kerakat","address2":"","latitude":"25.746","longitude":"82.5759","accuracy":"4"},{"address3":"Gaurabadshahpur","state":"Uttar Pradesh","state_code":"36","district":"Jaunpur","district_code":"194","address1":"Jaunpur","address2":"","latitude":"25.8142","longitude":"82.5803","accuracy":"3"},{"address3":"Aara","state":"Uttar Pradesh","state_code":"36","district":"Jaunpur","district_code":"194","address1":"Jaunpur","address2":"","latitude":"25.8142","longitude":"82.5803","accuracy":"3"},{"address3":"Kukuhan","state":"Uttar Pradesh","state_code":"36","district":"Jaunpur","district_code":"194","address1":"Badlapur","address2":"","latitude":"25.8006","longitude":"82.7906","accuracy":"4"},{"address3":"Chorsand","state":"Uttar Pradesh","state_code":"36","district":"Jaunpur","district_code":"194","address1":"Jaunpur","address2":"","latitude":"25.7747","longitude":"82.7837","accuracy":"4"},{"address3":"Umari","state":"Uttar Pradesh","state_code":"36","district":"Jaunpur","district_code":"194","address1":"Jaunpur","address2":"","latitude":"25.8142","longitude":"82.5803","accuracy":"3"},{"address3":"Baghendra","state":"Uttar Pradesh","state_code":"36","district":"Jaunpur","district_code":"194","address1":"Jaunpur","address2":"","latitude":"25.8142","longitude":"82.5803","accuracy":"3"},{"address3":"Pilikhini","state":"Uttar Pradesh","state_code":"36","district":"Jaunpur","district_code":"194","address1":"Jaunpur","address2":"","latitude":"25.8142","longitude":"82.5803","accuracy":"3"},{"address3":"Nayansand","state":"Uttar Pradesh","state_code":"36","district":"Jaunpur","district_code":"194","address1":"Jaunpur","address2":"","latitude":"25.8142","longitude":"82.5803","accuracy":"3"}],"222135":[{"address3":"Gulzarganj","state":"Uttar Pradesh","state_code":"36","district":"Jaunpur","district_code":"194","address1":"Mariahu","address2":"","latitude":"25.715","longitude":"82.5105","accuracy":"4"},{"address3":"Damarua","state":"Uttar Pradesh","state_code":"36","district":"Jaunpur","district_code":"194","address1":"Jaunpur","address2":"","latitude":"25.715","longitude":"82.5105","accuracy":"3"},{"address3":"Samadhganj","state":"Uttar Pradesh","state_code":"36","district":"Jaunpur","district_code":"194","address1":"Jaunpur","address2":"","latitude":"25.715","longitude":"82.5105","accuracy":"3"},{"address3":"Sieura","state":"Uttar Pradesh","state_code":"36","district":"Jaunpur","district_code":"194","address1":"Jaunpur","address2":"","latitude":"25.715","longitude":"82.5105","accuracy":"3"},{"address3":"Mehandi","state":"Uttar Pradesh","state_code":"36","district":"Jaunpur","district_code":"194","address1":"Machhlishahr","address2":"","latitude":"25.715","longitude":"82.5105","accuracy":"3"}],"222136":[{"address3":"Bhaupur","state":"Uttar Pradesh","state_code":"36","district":"Jaunpur","district_code":"194","address1":"Kerakat","address2":"","latitude":"25.7742","longitude":"82.4028","accuracy":"4"},{"address3":"Dubepur","state":"Uttar Pradesh","state_code":"36","district":"Jaunpur","district_code":"194","address1":"Kerakat","address2":"","latitude":"25.4681","longitude":"82.6083","accuracy":"4"},{"address3":"Newada","state":"Uttar Pradesh","state_code":"36","district":"Jaunpur","district_code":"194","address1":"Kerakat","address2":"","latitude":"25.7695","longitude":"82.7131","accuracy":"4"},{"address3":"Sehmalpur","state":"Uttar Pradesh","state_code":"36","district":"Jaunpur","district_code":"194","address1":"Kerakat","address2":"","latitude":"25.6427","longitude":"82.7674","accuracy":"4"},{"address3":"Bidauri","state":"Uttar Pradesh","state_code":"36","district":"Jaunpur","district_code":"194","address1":"Mariahun","address2":"","latitude":"25.6497","longitude":"82.7668","accuracy":"3"},{"address3":"Bakarabad","state":"Uttar Pradesh","state_code":"36","district":"Jaunpur","district_code":"194","address1":"Jaunpur","address2":"","latitude":"25.746","longitude":"82.5759","accuracy":"4"},{"address3":"Rajepur","state":"Uttar Pradesh","state_code":"36","district":"Jaunpur","district_code":"194","address1":"Kerakat","address2":"","latitude":"25.6712","longitude":"82.7091","accuracy":"4"},{"address3":"Dewapar","state":"Uttar Pradesh","state_code":"36","district":"Jaunpur","district_code":"194","address1":"Mariahu","address2":"","latitude":"25.6427","longitude":"82.6638","accuracy":"4"},{"address3":"Purev","state":"Uttar Pradesh","state_code":"36","district":"Jaunpur","district_code":"194","address1":"Kerakat","address2":"","latitude":"25.6497","longitude":"82.7668","accuracy":"3"},{"address3":"Dharaon","state":"Uttar Pradesh","state_code":"36","district":"Jaunpur","district_code":"194","address1":"Kerakat","address2":"","latitude":"25.5638","longitude":"82.7455","accuracy":"4"},{"address3":"Sirkoni","state":"Uttar Pradesh","state_code":"36","district":"Jaunpur","district_code":"194","address1":"Jaunpur","address2":"","latitude":"25.6497","longitude":"82.7668","accuracy":"3"},{"address3":"Nahora","state":"Uttar Pradesh","state_code":"36","district":"Jaunpur","district_code":"194","address1":"Kerakat","address2":"","latitude":"25.6312","longitude":"82.7114","accuracy":"4"},{"address3":"Jalalpur (Jaunpur)","state":"Uttar Pradesh","state_code":"36","district":"Jaunpur","district_code":"194","address1":"Kerakat","address2":"","latitude":"25.6497","longitude":"82.7668","accuracy":"3"},{"address3":"Asbaranpur","state":"Uttar Pradesh","state_code":"36","district":"Jaunpur","district_code":"194","address1":"Kerakat","address2":"","latitude":"25.5502","longitude":"82.7773","accuracy":"4"},{"address3":"Bishunpur Majhwara","state":"Uttar Pradesh","state_code":"36","district":"Jaunpur","district_code":"194","address1":"Kerakat","address2":"","latitude":"25.6497","longitude":"82.7668","accuracy":"3"},{"address3":"Gutwan","state":"Uttar Pradesh","state_code":"36","district":"Jaunpur","district_code":"194","address1":"Mariahun","address2":"","latitude":"25.6309","longitude":"82.6821","accuracy":"4"},{"address3":"Trilochan Badagaon","state":"Uttar Pradesh","state_code":"36","district":"Jaunpur","district_code":"194","address1":"Kerakat","address2":"","latitude":"25.6497","longitude":"82.7668","accuracy":"3"},{"address3":"Lalpur","state":"Uttar Pradesh","state_code":"36","district":"Jaunpur","district_code":"194","address1":"Kerakat","address2":"","latitude":"25.6199","longitude":"82.776","accuracy":"4"},{"address3":"Pasiahi Khurd","state":"Uttar Pradesh","state_code":"36","district":"Jaunpur","district_code":"194","address1":"Mariahu","address2":"","latitude":"25.6497","longitude":"82.7668","accuracy":"3"},{"address3":"Kusia","state":"Uttar Pradesh","state_code":"36","district":"Jaunpur","district_code":"194","address1":"Kerakat","address2":"","latitude":"25.5846","longitude":"82.731","accuracy":"4"},{"address3":"Lahangpur","state":"Uttar Pradesh","state_code":"36","district":"Jaunpur","district_code":"194","address1":"Kerakat","address2":"","latitude":"25.5557","longitude":"82.8052","accuracy":"4"}],"222137":[{"address3":"Kumbhapur","state":"Uttar Pradesh","state_code":"36","district":"Jaunpur","district_code":"194","address1":"Mariahun","address2":"","latitude":"25.5277","longitude":"82.5906","accuracy":"4"},{"address3":"Aura","state":"Uttar Pradesh","state_code":"36","district":"Jaunpur","district_code":"194","address1":"Mariahu","address2":"","latitude":"25.746","longitude":"82.5759","accuracy":"3"},{"address3":"Chhangapur","state":"Uttar Pradesh","state_code":"36","district":"Jaunpur","district_code":"194","address1":"Mariahun","address2":"","latitude":"25.7525","longitude":"82.2915","accuracy":"4"},{"address3":"Jamalapur","state":"Uttar Pradesh","state_code":"36","district":"Jaunpur","district_code":"194","address1":"Mariahu","address2":"","latitude":"25.5464","longitude":"82.5843","accuracy":"4"},{"address3":"Sukhlalganj","state":"Uttar Pradesh","state_code":"36","district":"Jaunpur","district_code":"194","address1":"Mariahu","address2":"","latitude":"25.5685","longitude":"82.5421","accuracy":"4"},{"address3":"Damodara","state":"Uttar Pradesh","state_code":"36","district":"Jaunpur","district_code":"194","address1":"Mariahun","address2":"","latitude":"25.746","longitude":"82.5759","accuracy":"4"},{"address3":"Gopalapur","state":"Uttar Pradesh","state_code":"36","district":"Jaunpur","district_code":"194","address1":"Mariahun","address2":"","latitude":"25.7813","longitude":"82.5616","accuracy":"4"},{"address3":"Tejgarh","state":"Uttar Pradesh","state_code":"36","district":"Jaunpur","district_code":"194","address1":"Mariahun","address2":"","latitude":"25.5654","longitude":"82.57","accuracy":"4"}],"222138":[{"address3":"Gopipur","state":"Uttar Pradesh","state_code":"36","district":"Jaunpur","district_code":"194","address1":"Jaunpur","address2":"","latitude":"25.6579","longitude":"82.7028","accuracy":"4"},{"address3":"Pariyawan","state":"Uttar Pradesh","state_code":"36","district":"Jaunpur","district_code":"194","address1":"NA","address2":"","latitude":"25.6579","longitude":"82.7028","accuracy":"3"},{"address3":"Kajgaon (Jaunpur)","state":"Uttar Pradesh","state_code":"36","district":"Jaunpur","district_code":"194","address1":"Jaunpur","address2":"","latitude":"25.6579","longitude":"82.7028","accuracy":"3"}],"222139":[{"address3":"Guraini","state":"Uttar Pradesh","state_code":"36","district":"Jaunpur","district_code":"194","address1":"Shahganj","address2":"","latitude":"25.9202","longitude":"82.6807","accuracy":"4"},{"address3":"Arand","state":"Uttar Pradesh","state_code":"36","district":"Jaunpur","district_code":"194","address1":"Shahganj","address2":"","latitude":"25.9988","longitude":"82.7168","accuracy":"4"},{"address3":"Ranimau","state":"Uttar Pradesh","state_code":"36","district":"Jaunpur","district_code":"194","address1":"Shahganj","address2":"","latitude":"25.9975","longitude":"82.6499","accuracy":"4"},{"address3":"Manikala","state":"Uttar Pradesh","state_code":"36","district":"Jaunpur","district_code":"194","address1":"JAUNPUR","address2":"","latitude":"25.9339","longitude":"82.6751","accuracy":"3"},{"address3":"Jaigahan","state":"Uttar Pradesh","state_code":"36","district":"Jaunpur","district_code":"194","address1":"Shahganj","address2":"","latitude":"25.9496","longitude":"82.7408","accuracy":"4"},{"address3":"Songar","state":"Uttar Pradesh","state_code":"36","district":"Jaunpur","district_code":"194","address1":"Shahganj","address2":"","latitude":"25.9059","longitude":"82.7375","accuracy":"4"},{"address3":"Kalapur","state":"Uttar Pradesh","state_code":"36","district":"Jaunpur","district_code":"194","address1":"Shahganj","address2":"","latitude":"25.946","longitude":"82.6324","accuracy":"4"},{"address3":"Gulalpur","state":"Uttar Pradesh","state_code":"36","district":"Jaunpur","district_code":"194","address1":"Shahganj","address2":"","latitude":"25.8835","longitude":"82.619","accuracy":"4"},{"address3":"Potaria","state":"Uttar Pradesh","state_code":"36","district":"Jaunpur","district_code":"194","address1":"Shahganj","address2":"","latitude":"25.9025","longitude":"82.6292","accuracy":"4"},{"address3":"Khodauli","state":"Uttar Pradesh","state_code":"36","district":"Jaunpur","district_code":"194","address1":"Shahganj","address2":"","latitude":"25.9339","longitude":"82.6751","accuracy":"3"},{"address3":"Japtapur","state":"Uttar Pradesh","state_code":"36","district":"Jaunpur","district_code":"194","address1":"Shahganj","address2":"","latitude":"25.9009","longitude":"82.6697","accuracy":"4"},{"address3":"Lapari","state":"Uttar Pradesh","state_code":"36","district":"Jaunpur","district_code":"194","address1":"Shahganj","address2":"","latitude":"25.9339","longitude":"82.6751","accuracy":"3"},{"address3":"Khetasarai","state":"Uttar Pradesh","state_code":"36","district":"Jaunpur","district_code":"194","address1":"Shahganj","address2":"","latitude":"25.9339","longitude":"82.6751","accuracy":"3"},{"address3":"Jamdahan","state":"Uttar Pradesh","state_code":"36","district":"Jaunpur","district_code":"194","address1":"Shahganj","address2":"","latitude":"25.9339","longitude":"82.6751","accuracy":"3"},{"address3":"Ayurved Vishwavidyalay","state":"Uttar Pradesh","state_code":"36","district":"Jaunpur","district_code":"194","address1":"Shahganj","address2":"","latitude":"25.9339","longitude":"82.6751","accuracy":"3"},{"address3":"Parakamal","state":"Uttar Pradesh","state_code":"36","district":"Jaunpur","district_code":"194","address1":"Shahganj","address2":"","latitude":"25.9339","longitude":"82.6751","accuracy":"3"}],"222141":[{"address3":"Agraura","state":"Uttar Pradesh","state_code":"36","district":"Jaunpur","district_code":"194","address1":"Badalapur","address2":"","latitude":"25.8544","longitude":"82.5244","accuracy":"4"},{"address3":"Badalapur Khurd","state":"Uttar Pradesh","state_code":"36","district":"Jaunpur","district_code":"194","address1":"Badalapur","address2":"","latitude":"25.8299","longitude":"82.5043","accuracy":"3"},{"address3":"Khunsapur","state":"Uttar Pradesh","state_code":"36","district":"Jaunpur","district_code":"194","address1":"Badalapur","address2":"","latitude":"25.8053","longitude":"82.4841","accuracy":"4"},{"address3":"Khalishpur","state":"Uttar Pradesh","state_code":"36","district":"Jaunpur","district_code":"194","address1":"Badlapur","address2":"","latitude":"25.8299","longitude":"82.5043","accuracy":"3"},{"address3":"Tezi Bazar","state":"Uttar Pradesh","state_code":"36","district":"Jaunpur","district_code":"194","address1":"Badlapur","address2":"","latitude":"25.8299","longitude":"82.5043","accuracy":"3"},{"address3":"Saraiharakhu","state":"Uttar Pradesh","state_code":"36","district":"Jaunpur","district_code":"194","address1":"Jaunpur","address2":"","latitude":"25.8299","longitude":"82.5043","accuracy":"3"},{"address3":"Kandhikala","state":"Uttar Pradesh","state_code":"36","district":"Jaunpur","district_code":"194","address1":"Badlapur","address2":"","latitude":"25.8299","longitude":"82.5043","accuracy":"3"}],"222142":[{"address3":"Amahit","state":"Uttar Pradesh","state_code":"36","district":"Jaunpur","district_code":"194","address1":"Kerakat","address2":"","latitude":"25.6783","longitude":"82.9022","accuracy":"3"},{"address3":"Pasewa","state":"Uttar Pradesh","state_code":"36","district":"Jaunpur","district_code":"194","address1":"Kerakat","address2":"","latitude":"25.6463","longitude":"82.8466","accuracy":"4"},{"address3":"Deokali","state":"Uttar Pradesh","state_code":"36","district":"Jaunpur","district_code":"194","address1":"Kerakat","address2":"","latitude":"25.836","longitude":"82.6716","accuracy":"4"},{"address3":"Dilla Ka Pura","state":"Uttar Pradesh","state_code":"36","district":"Jaunpur","district_code":"194","address1":"Kerakat","address2":"","latitude":"25.6783","longitude":"82.9022","accuracy":"3"},{"address3":"Dehari","state":"Uttar Pradesh","state_code":"36","district":"Jaunpur","district_code":"194","address1":"Kerakat","address2":"","latitude":"25.746","longitude":"82.5759","accuracy":"3"},{"address3":"Belhari","state":"Uttar Pradesh","state_code":"36","district":"Jaunpur","district_code":"194","address1":"Kerakat","address2":"","latitude":"25.746","longitude":"82.5759","accuracy":"4"},{"address3":"Kusaila","state":"Uttar Pradesh","state_code":"36","district":"Jaunpur","district_code":"194","address1":"Kerakat","address2":"","latitude":"25.6598","longitude":"82.9471","accuracy":"4"},{"address3":"Kerakat","state":"Uttar Pradesh","state_code":"36","district":"Jaunpur","district_code":"194","address1":"Kerakat","address2":"","latitude":"25.6783","longitude":"82.9022","accuracy":"3"},{"address3":"Brahmanpur","state":"Uttar Pradesh","state_code":"36","district":"Jaunpur","district_code":"194","address1":"Kerakat","address2":"","latitude":"25.6864","longitude":"82.9038","accuracy":"4"},{"address3":"Narhan","state":"Uttar Pradesh","state_code":"36","district":"Jaunpur","district_code":"194","address1":"Kerakat","address2":"","latitude":"25.6357","longitude":"82.9229","accuracy":"4"},{"address3":"Pesara","state":"Uttar Pradesh","state_code":"36","district":"Jaunpur","district_code":"194","address1":"Kerakat","address2":"","latitude":"25.6783","longitude":"82.9022","accuracy":"3"},{"address3":"Murki","state":"Uttar Pradesh","state_code":"36","district":"Jaunpur","district_code":"194","address1":"Kerakat","address2":"","latitude":"25.6968","longitude":"82.9259","accuracy":"4"},{"address3":"Sarauni","state":"Uttar Pradesh","state_code":"36","district":"Jaunpur","district_code":"194","address1":"Kerakat","address2":"","latitude":"25.6783","longitude":"82.9022","accuracy":"3"},{"address3":"Jaigopalganj","state":"Uttar Pradesh","state_code":"36","district":"Jaunpur","district_code":"194","address1":"Kerakat","address2":"","latitude":"25.6783","longitude":"82.9022","accuracy":"3"},{"address3":"Deduana","state":"Uttar Pradesh","state_code":"36","district":"Jaunpur","district_code":"194","address1":"Kerakat","address2":"","latitude":"25.6783","longitude":"82.9022","accuracy":"3"}],"222143":[{"address3":"Khajurahat","state":"Uttar Pradesh","state_code":"36","district":"Jaunpur","district_code":"194","address1":"Machhali Shahar","address2":"","latitude":"25.746","longitude":"82.5759","accuracy":"4"},{"address3":"Kotwa","state":"Uttar Pradesh","state_code":"36","district":"Jaunpur","district_code":"194","address1":"Machhali Shahar","address2":"","latitude":"25.8247","longitude":"82.4715","accuracy":"4"},{"address3":"Mathura","state":"Uttar Pradesh","state_code":"36","district":"Jaunpur","district_code":"194","address1":"Machhali Shahar","address2":"","latitude":"25.711","longitude":"82.3705","accuracy":"4"},{"address3":"Machhali Shahar","state":"Uttar Pradesh","state_code":"36","district":"Jaunpur","district_code":"194","address1":"Machhali Shahar","address2":"","latitude":"25.6926","longitude":"82.4858","accuracy":"3"},{"address3":"Bhikhpur Kala","state":"Uttar Pradesh","state_code":"36","district":"Jaunpur","district_code":"194","address1":"Machhali Shahar","address2":"","latitude":"25.6926","longitude":"82.4858","accuracy":"3"},{"address3":"Mustafabad","state":"Uttar Pradesh","state_code":"36","district":"Jaunpur","district_code":"194","address1":"Machhali Shahar","address2":"","latitude":"25.747","longitude":"82.3364","accuracy":"4"},{"address3":"Bami","state":"Uttar Pradesh","state_code":"36","district":"Jaunpur","district_code":"194","address1":"Machhali Shahar","address2":"","latitude":"25.632","longitude":"82.3278","accuracy":"4"},{"address3":"Ghagharia","state":"Uttar Pradesh","state_code":"36","district":"Jaunpur","district_code":"194","address1":"Machhali Shahar","address2":"","latitude":"25.6926","longitude":"82.4858","accuracy":"3"},{"address3":"Barawan","state":"Uttar Pradesh","state_code":"36","district":"Jaunpur","district_code":"194","address1":"Machhali Shahar","address2":"","latitude":"25.6118","longitude":"82.3684","accuracy":"4"},{"address3":"Karaura","state":"Uttar Pradesh","state_code":"36","district":"Jaunpur","district_code":"194","address1":"Machhali Shahar","address2":"","latitude":"25.7658","longitude":"82.3649","accuracy":"4"},{"address3":"Belasin","state":"Uttar Pradesh","state_code":"36","district":"Jaunpur","district_code":"194","address1":"Machhali Shahar","address2":"","latitude":"25.635","longitude":"82.4234","accuracy":"4"},{"address3":"Tilora","state":"Uttar Pradesh","state_code":"36","district":"Jaunpur","district_code":"194","address1":"Machhali Shahar","address2":"","latitude":"25.6926","longitude":"82.4858","accuracy":"3"}],"222144":[{"address3":"Gonapur","state":"Uttar Pradesh","state_code":"36","district":"Jaunpur","district_code":"194","address1":"Machhlishahr","address2":"","latitude":"26.0502","longitude":"82.631","accuracy":"3"},{"address3":"Itaha","state":"Uttar Pradesh","state_code":"36","district":"Jaunpur","district_code":"194","address1":"Machhali Shahar","address2":"","latitude":"25.7735","longitude":"82.3855","accuracy":"4"},{"address3":"Baraipar","state":"Uttar Pradesh","state_code":"36","district":"Jaunpur","district_code":"194","address1":"Machhalishahar","address2":"","latitude":"25.7719","longitude":"82.43","accuracy":"4"},{"address3":"Barhata","state":"Uttar Pradesh","state_code":"36","district":"Jaunpur","district_code":"194","address1":"Machhali Shahar","address2":"","latitude":"25.746","longitude":"82.5759","accuracy":"4"},{"address3":"Sonahita","state":"Uttar Pradesh","state_code":"36","district":"Jaunpur","district_code":"194","address1":"Machhali Shahar","address2":"","latitude":"26.0502","longitude":"82.631","accuracy":"3"},{"address3":"Katahit","state":"Uttar Pradesh","state_code":"36","district":"Jaunpur","district_code":"194","address1":"Machhali Shshar","address2":"","latitude":"25.7227","longitude":"82.4301","accuracy":"4"}],"222145":[{"address3":"Kolhua","state":"Uttar Pradesh","state_code":"36","district":"Jaunpur","district_code":"194","address1":"Machhlishahr","address2":"","latitude":"25.8223","longitude":"82.3587","accuracy":"4"},{"address3":"Barji","state":"Uttar Pradesh","state_code":"36","district":"Jaunpur","district_code":"194","address1":"Badalapur","address2":"","latitude":"25.8029","longitude":"82.4614","accuracy":"4"},{"address3":"Gareriha","state":"Uttar Pradesh","state_code":"36","district":"Jaunpur","district_code":"194","address1":"Badlapur","address2":"","latitude":"25.8091","longitude":"82.4844","accuracy":"3"},{"address3":"Lohinda","state":"Uttar Pradesh","state_code":"36","district":"Jaunpur","district_code":"194","address1":"Badlapur","address2":"","latitude":"25.8483","longitude":"82.2828","accuracy":"4"},{"address3":"Rajapur","state":"Uttar Pradesh","state_code":"36","district":"Jaunpur","district_code":"194","address1":"Badlapur","address2":"","latitude":"25.8667","longitude":"82.695","accuracy":"4"},{"address3":"Bhatauli","state":"Uttar Pradesh","state_code":"36","district":"Jaunpur","district_code":"194","address1":"Badalapur","address2":"","latitude":"25.8155","longitude":"82.4018","accuracy":"4"},{"address3":"Shekhpur Khutahani","state":"Uttar Pradesh","state_code":"36","district":"Jaunpur","district_code":"194","address1":"Badalapur","address2":"","latitude":"25.8091","longitude":"82.4844","accuracy":"3"},{"address3":"Mahraj Ganj","state":"Uttar Pradesh","state_code":"36","district":"Jaunpur","district_code":"194","address1":"Badlapur","address2":"","latitude":"25.8091","longitude":"82.4844","accuracy":"3"},{"address3":"Shankarganj","state":"Uttar Pradesh","state_code":"36","district":"Jaunpur","district_code":"194","address1":"Machhlishahr","address2":"","latitude":"25.6988","longitude":"82.7067","accuracy":"4"},{"address3":"Mitawa","state":"Uttar Pradesh","state_code":"36","district":"Jaunpur","district_code":"194","address1":"Badlapur","address2":"","latitude":"25.8091","longitude":"82.4844","accuracy":"3"},{"address3":"Asaropur","state":"Uttar Pradesh","state_code":"36","district":"Jaunpur","district_code":"194","address1":"Badalapur","address2":"","latitude":"25.8091","longitude":"82.4844","accuracy":"3"}],"222146":[{"address3":"Kanuani","state":"Uttar Pradesh","state_code":"36","district":"Jaunpur","district_code":"194","address1":"Kerakat","address2":"","latitude":"25.7789","longitude":"82.6108","accuracy":"3"},{"address3":"Kheosipur","state":"Uttar Pradesh","state_code":"36","district":"Jaunpur","district_code":"194","address1":"Kerakat","address2":"","latitude":"25.5695","longitude":"82.8414","accuracy":"4"},{"address3":"Oina","state":"Uttar Pradesh","state_code":"36","district":"Jaunpur","district_code":"194","address1":"Kerakat","address2":"","latitude":"25.995","longitude":"82.5286","accuracy":"4"},{"address3":"Kutir Chakkey","state":"Uttar Pradesh","state_code":"36","district":"Jaunpur","district_code":"194","address1":"Kerakat","address2":"","latitude":"25.7789","longitude":"82.6108","accuracy":"3"},{"address3":"Majhgawan","state":"Uttar Pradesh","state_code":"36","district":"Jaunpur","district_code":"194","address1":"Kerakat","address2":"","latitude":"25.8593","longitude":"82.3157","accuracy":"4"},{"address3":"Haripur","state":"Uttar Pradesh","state_code":"36","district":"Jaunpur","district_code":"194","address1":"Kerakat","address2":"","latitude":"25.6167","longitude":"82.8049","accuracy":"4"},{"address3":"Mai","state":"Uttar Pradesh","state_code":"36","district":"Jaunpur","district_code":"194","address1":"Kerakat","address2":"","latitude":"25.8541","longitude":"82.5635","accuracy":"4"}],"222148":[{"address3":"Verdiha","state":"Uttar Pradesh","state_code":"36","district":"Jaunpur","district_code":"194","address1":"Kerakat","address2":"","latitude":"25.6714","longitude":"82.9687","accuracy":"3"},{"address3":"Leorua","state":"Uttar Pradesh","state_code":"36","district":"Jaunpur","district_code":"194","address1":"Kerakat","address2":"","latitude":"25.6714","longitude":"82.9687","accuracy":"3"},{"address3":"Koilari","state":"Uttar Pradesh","state_code":"36","district":"Jaunpur","district_code":"194","address1":"Kerakat","address2":"","latitude":"25.6635","longitude":"83.0325","accuracy":"4"},{"address3":"Brahmanpur","state":"Uttar Pradesh","state_code":"36","district":"Jaunpur","district_code":"194","address1":"Kerakat","address2":"","latitude":"25.6864","longitude":"82.9038","accuracy":"4"},{"address3":"Senapur","state":"Uttar Pradesh","state_code":"36","district":"Jaunpur","district_code":"194","address1":"Kerakat","address2":"","latitude":"25.6643","longitude":"82.9699","accuracy":"4"}],"222149":[{"address3":"Kusarana","state":"Uttar Pradesh","state_code":"36","district":"Jaunpur","district_code":"194","address1":"Kerakat","address2":"","latitude":"26.2088","longitude":"83.4198","accuracy":"3"},{"address3":"Sgrd College Dobhi","state":"Uttar Pradesh","state_code":"36","district":"Jaunpur","district_code":"194","address1":"Kerakat","address2":"","latitude":"26.2088","longitude":"83.4198","accuracy":"3"},{"address3":"Kachhawan","state":"Uttar Pradesh","state_code":"36","district":"Jaunpur","district_code":"194","address1":"Kerakat","address2":"","latitude":"26.2088","longitude":"83.4198","accuracy":"3"},{"address3":"Pokhara","state":"Uttar Pradesh","state_code":"36","district":"Jaunpur","district_code":"194","address1":"Kerakat","address2":"","latitude":"25.746","longitude":"82.5759","accuracy":"4"},{"address3":"Chakara","state":"Uttar Pradesh","state_code":"36","district":"Jaunpur","district_code":"194","address1":"Kerakat","address2":"","latitude":"26.2088","longitude":"83.4198","accuracy":"3"},{"address3":"Taraon","state":"Uttar Pradesh","state_code":"36","district":"Jaunpur","district_code":"194","address1":"Kerakat","address2":"","latitude":"25.6411","longitude":"83.059","accuracy":"4"},{"address3":"Bodari","state":"Uttar Pradesh","state_code":"36","district":"Jaunpur","district_code":"194","address1":"Kerakat","address2":"","latitude":"26.2088","longitude":"83.4198","accuracy":"3"}],"222161":[{"address3":"Belgahan","state":"Uttar Pradesh","state_code":"36","district":"Jaunpur","district_code":"194","address1":"Mariahun","address2":"","latitude":"25.7007","longitude":"82.5579","accuracy":"4"},{"address3":"Belawa Bazar","state":"Uttar Pradesh","state_code":"36","district":"Jaunpur","district_code":"194","address1":"Mariahu","address2":"","latitude":"25.6135","longitude":"82.5735","accuracy":"3"},{"address3":"Ramnagar Vidhmauwa","state":"Uttar Pradesh","state_code":"36","district":"Jaunpur","district_code":"194","address1":"Mariahu","address2":"","latitude":"25.6135","longitude":"82.5735","accuracy":"3"},{"address3":"Jagarnathpur","state":"Uttar Pradesh","state_code":"36","district":"Jaunpur","district_code":"194","address1":"Mariahun","address2":"","latitude":"25.6364","longitude":"82.5711","accuracy":"4"},{"address3":"Mokalpur","state":"Uttar Pradesh","state_code":"36","district":"Jaunpur","district_code":"194","address1":"Mariahun","address2":"","latitude":"25.6745","longitude":"82.5873","accuracy":"4"},{"address3":"Sudanipur","state":"Uttar Pradesh","state_code":"36","district":"Jaunpur","district_code":"194","address1":"Mariahun","address2":"","latitude":"25.6135","longitude":"82.5735","accuracy":"3"},{"address3":"Seur","state":"Uttar Pradesh","state_code":"36","district":"Jaunpur","district_code":"194","address1":"Mariahu","address2":"","latitude":"25.746","longitude":"82.5759","accuracy":"4"},{"address3":"Kishunpur","state":"Uttar Pradesh","state_code":"36","district":"Jaunpur","district_code":"194","address1":"Mariahu","address2":"","latitude":"25.7613","longitude":"82.4196","accuracy":"4"},{"address3":"Mariahun Bazar","state":"Uttar Pradesh","state_code":"36","district":"Jaunpur","district_code":"194","address1":"Mariahu","address2":"","latitude":"25.6135","longitude":"82.5735","accuracy":"3"},{"address3":"Bujurga","state":"Uttar Pradesh","state_code":"36","district":"Jaunpur","district_code":"194","address1":"Mariahun","address2":"","latitude":"25.6135","longitude":"82.5735","accuracy":"3"},{"address3":"Kuttupur","state":"Uttar Pradesh","state_code":"36","district":"Jaunpur","district_code":"194","address1":"Mariahu","address2":"","latitude":"25.5565","longitude":"82.6032","accuracy":"4"},{"address3":"Chorari","state":"Uttar Pradesh","state_code":"36","district":"Jaunpur","district_code":"194","address1":"Mariahu","address2":"","latitude":"25.5905","longitude":"82.6443","accuracy":"4"},{"address3":"Shitalganj","state":"Uttar Pradesh","state_code":"36","district":"Jaunpur","district_code":"194","address1":"Badlapur","address2":"","latitude":"25.647","longitude":"82.6252","accuracy":"4"},{"address3":"Itaye","state":"Uttar Pradesh","state_code":"36","district":"Jaunpur","district_code":"194","address1":"Mariahu","address2":"","latitude":"25.6135","longitude":"82.5735","accuracy":"3"},{"address3":"Mariahun","state":"Uttar Pradesh","state_code":"36","district":"Jaunpur","district_code":"194","address1":"Mariahun","address2":"","latitude":"25.6135","longitude":"82.5735","accuracy":"3"},{"address3":"Jiaramau","state":"Uttar Pradesh","state_code":"36","district":"Jaunpur","district_code":"194","address1":"Mariahun","address2":"","latitude":"25.6106","longitude":"82.6417","accuracy":"4"},{"address3":"Daudi","state":"Uttar Pradesh","state_code":"36","district":"Jaunpur","district_code":"194","address1":"Mariahu","address2":"","latitude":"25.6135","longitude":"82.5735","accuracy":"3"},{"address3":"Mithepar","state":"Uttar Pradesh","state_code":"36","district":"Jaunpur","district_code":"194","address1":"Mariahun","address2":"","latitude":"25.6878","longitude":"82.5506","accuracy":"4"},{"address3":"Ajoshi","state":"Uttar Pradesh","state_code":"36","district":"Jaunpur","district_code":"194","address1":"Mariahun","address2":"","latitude":"25.6135","longitude":"82.5735","accuracy":"3"},{"address3":"Mainpur","state":"Uttar Pradesh","state_code":"36","district":"Jaunpur","district_code":"194","address1":"Mariahu","address2":"","latitude":"25.6029","longitude":"82.5703","accuracy":"4"},{"address3":"Barigaon Newada","state":"Uttar Pradesh","state_code":"36","district":"Jaunpur","district_code":"194","address1":"Mariahu","address2":"","latitude":"25.6135","longitude":"82.5735","accuracy":"3"},{"address3":"Khajurahawa","state":"Uttar Pradesh","state_code":"36","district":"Jaunpur","district_code":"194","address1":"Mariahun","address2":"","latitude":"25.6135","longitude":"82.5735","accuracy":"3"}],"222162":[{"address3":"Manapur","state":"Uttar Pradesh","state_code":"36","district":"Jaunpur","district_code":"194","address1":"Mariahu","address2":"","latitude":"25.5176","longitude":"82.5579","accuracy":"4"},{"address3":"Mangara","state":"Uttar Pradesh","state_code":"36","district":"Jaunpur","district_code":"194","address1":"Mariahu","address2":"","latitude":"25.746","longitude":"82.5759","accuracy":"4"},{"address3":"Kusa","state":"Uttar Pradesh","state_code":"36","district":"Jaunpur","district_code":"194","address1":"Mariahu","address2":"","latitude":"25.4981","longitude":"82.4609","accuracy":"4"},{"address3":"Bhannaur","state":"Uttar Pradesh","state_code":"36","district":"Jaunpur","district_code":"194","address1":"Mariahu","address2":"","latitude":"25.4972","longitude":"82.4717","accuracy":"3"},{"address3":"Pilkathua","state":"Uttar Pradesh","state_code":"36","district":"Jaunpur","district_code":"194","address1":"Mariahu","address2":"","latitude":"25.5794","longitude":"82.4443","accuracy":"4"},{"address3":"Alamganj","state":"Uttar Pradesh","state_code":"36","district":"Jaunpur","district_code":"194","address1":"Mariahu","address2":"","latitude":"25.498","longitude":"82.474","accuracy":"4"},{"address3":"Sotipur","state":"Uttar Pradesh","state_code":"36","district":"Jaunpur","district_code":"194","address1":"Mariahu","address2":"","latitude":"25.5994","longitude":"82.4555","accuracy":"4"},{"address3":"Belaunakala","state":"Uttar Pradesh","state_code":"36","district":"Jaunpur","district_code":"194","address1":"Mariahu","address2":"","latitude":"25.4972","longitude":"82.4717","accuracy":"3"},{"address3":"Malai","state":"Uttar Pradesh","state_code":"36","district":"Jaunpur","district_code":"194","address1":"Mariahu","address2":"","latitude":"25.5159","longitude":"82.4688","accuracy":"4"},{"address3":"Pariyat","state":"Uttar Pradesh","state_code":"36","district":"Jaunpur","district_code":"194","address1":"Mariahu","address2":"","latitude":"25.5373","longitude":"82.5009","accuracy":"4"},{"address3":"Barsathi","state":"Uttar Pradesh","state_code":"36","district":"Jaunpur","district_code":"194","address1":"Mariahu","address2":"","latitude":"25.5763","longitude":"82.5082","accuracy":"4"},{"address3":"Gothaon","state":"Uttar Pradesh","state_code":"36","district":"Jaunpur","district_code":"194","address1":"Mariahu","address2":"","latitude":"25.5597","longitude":"82.4908","accuracy":"4"},{"address3":"Sarsara","state":"Uttar Pradesh","state_code":"36","district":"Jaunpur","district_code":"194","address1":"Mariahu","address2":"","latitude":"25.8024","longitude":"82.425","accuracy":"4"},{"address3":"Nigoh","state":"Uttar Pradesh","state_code":"36","district":"Jaunpur","district_code":"194","address1":"Mariahu","address2":"","latitude":"25.5459","longitude":"82.4692","accuracy":"4"},{"address3":"Paltupur","state":"Uttar Pradesh","state_code":"36","district":"Jaunpur","district_code":"194","address1":"Mariahu","address2":"","latitude":"25.5887","longitude":"82.5325","accuracy":"4"},{"address3":"Gaurapatti","state":"Uttar Pradesh","state_code":"36","district":"Jaunpur","district_code":"194","address1":"Mariahu","address2":"","latitude":"25.4981","longitude":"82.489","accuracy":"4"}],"222165":[{"address3":"Bhiduna","state":"Uttar Pradesh","state_code":"36","district":"Jaunpur","district_code":"194","address1":"Machhlishahr","address2":"","latitude":"25.6657","longitude":"82.3585","accuracy":"3"},{"address3":"Barigaondih","state":"Uttar Pradesh","state_code":"36","district":"Jaunpur","district_code":"194","address1":"Mariahu","address2":"","latitude":"25.6657","longitude":"82.3585","accuracy":"3"},{"address3":"Meerganj (Jaunpur)","state":"Uttar Pradesh","state_code":"36","district":"Jaunpur","district_code":"194","address1":"Mariahu","address2":"","latitude":"25.6657","longitude":"82.3585","accuracy":"3"},{"address3":"Mahuari","state":"Uttar Pradesh","state_code":"36","district":"Jaunpur","district_code":"194","address1":"Mariahun","address2":"","latitude":"25.746","longitude":"82.5759","accuracy":"4"},{"address3":"Amai","state":"Uttar Pradesh","state_code":"36","district":"Jaunpur","district_code":"194","address1":"Mariahun","address2":"","latitude":"25.5435","longitude":"82.3377","accuracy":"4"},{"address3":"Babhaniyaw","state":"Uttar Pradesh","state_code":"36","district":"Jaunpur","district_code":"194","address1":"Machhlishahr","address2":"","latitude":"25.6657","longitude":"82.3585","accuracy":"3"},{"address3":"Kaserawa","state":"Uttar Pradesh","state_code":"36","district":"Jaunpur","district_code":"194","address1":"Machhlishahr","address2":"","latitude":"25.6657","longitude":"82.3585","accuracy":"3"},{"address3":"Manikapur","state":"Uttar Pradesh","state_code":"36","district":"Jaunpur","district_code":"194","address1":"Mariahu","address2":"","latitude":"25.746","longitude":"82.5759","accuracy":"4"},{"address3":"Bhathar","state":"Uttar Pradesh","state_code":"36","district":"Jaunpur","district_code":"194","address1":"Machhlishahr","address2":"","latitude":"25.5651","longitude":"82.3719","accuracy":"4"},{"address3":"Sirauli","state":"Uttar Pradesh","state_code":"36","district":"Jaunpur","district_code":"194","address1":"Machhali Shahar","address2":"","latitude":"25.5408","longitude":"82.4062","accuracy":"4"},{"address3":"Karobankat","state":"Uttar Pradesh","state_code":"36","district":"Jaunpur","district_code":"194","address1":"Mariahun","address2":"","latitude":"25.6657","longitude":"82.3585","accuracy":"3"},{"address3":"Katwar","state":"Uttar Pradesh","state_code":"36","district":"Jaunpur","district_code":"194","address1":"Mariahun","address2":"","latitude":"25.5551","longitude":"82.4376","accuracy":"4"}],"222170":[{"address3":"Vijayeepur","state":"Uttar Pradesh","state_code":"36","district":"Jaunpur","district_code":"194","address1":"Kerakat","address2":"","latitude":"25.7154","longitude":"82.6533","accuracy":"3"},{"address3":"Muftiganj","state":"Uttar Pradesh","state_code":"36","district":"Jaunpur","district_code":"194","address1":"Kerakat","address2":"","latitude":"25.7024","longitude":"82.8247","accuracy":"4"},{"address3":"Kudda","state":"Uttar Pradesh","state_code":"36","district":"Jaunpur","district_code":"194","address1":"Kerakat","address2":"","latitude":"25.7154","longitude":"82.6533","accuracy":"3"},{"address3":"Gaddopur","state":"Uttar Pradesh","state_code":"36","district":"Jaunpur","district_code":"194","address1":"Jaunpur","address2":"","latitude":"25.8688","longitude":"82.3594","accuracy":"4"},{"address3":"Beerampur","state":"Uttar Pradesh","state_code":"36","district":"Jaunpur","district_code":"194","address1":"Kerakat","address2":"","latitude":"25.7154","longitude":"82.6533","accuracy":"3"},{"address3":"Amara","state":"Uttar Pradesh","state_code":"36","district":"Jaunpur","district_code":"194","address1":"Kerakat","address2":"","latitude":"25.6293","longitude":"82.3975","accuracy":"4"},{"address3":"Murara","state":"Uttar Pradesh","state_code":"36","district":"Jaunpur","district_code":"194","address1":"Kerakat","address2":"","latitude":"25.7003","longitude":"82.8702","accuracy":"4"},{"address3":"Belaon","state":"Uttar Pradesh","state_code":"36","district":"Jaunpur","district_code":"194","address1":"Kerakat","address2":"","latitude":"25.6763","longitude":"82.8149","accuracy":"4"}],"222175":[{"address3":"Thakurganj","state":"Uttar Pradesh","state_code":"36","district":"Jaunpur","district_code":"194","address1":"Badlapur","address2":"","latitude":"25.954","longitude":"82.3568","accuracy":"4"},{"address3":"Kumarpatti","state":"Uttar Pradesh","state_code":"36","district":"Jaunpur","district_code":"194","address1":"Badlapur","address2":"","latitude":"25.9768","longitude":"82.3761","accuracy":"4"},{"address3":"Singramau","state":"Uttar Pradesh","state_code":"36","district":"Jaunpur","district_code":"194","address1":"Badlapur","address2":"","latitude":"25.945","longitude":"82.3989","accuracy":"4"},{"address3":"Baharipur","state":"Uttar Pradesh","state_code":"36","district":"Jaunpur","district_code":"194","address1":"Badalapur","address2":"","latitude":"25.9781","longitude":"82.4372","accuracy":"4"},{"address3":"Kilai","state":"Uttar Pradesh","state_code":"36","district":"Jaunpur","district_code":"194","address1":"Badlapur","address2":"","latitude":"25.9544","longitude":"82.3997","accuracy":"3"},{"address3":"Gonauli","state":"Uttar Pradesh","state_code":"36","district":"Jaunpur","district_code":"194","address1":"Badalapur","address2":"","latitude":"25.9467","longitude":"82.4395","accuracy":"4"},{"address3":"Nakahara","state":"Uttar Pradesh","state_code":"36","district":"Jaunpur","district_code":"194","address1":"Badlapur","address2":"","latitude":"25.9544","longitude":"82.3997","accuracy":"3"},{"address3":"Sirkina","state":"Uttar Pradesh","state_code":"36","district":"Jaunpur","district_code":"194","address1":"Badlapur","address2":"","latitude":"25.9258","longitude":"82.3899","accuracy":"4"},{"address3":"Pahetiapur","state":"Uttar Pradesh","state_code":"36","district":"Jaunpur","district_code":"194","address1":"Badlapur","address2":"","latitude":"25.9544","longitude":"82.3997","accuracy":"3"}],"222180":[{"address3":"Kabulpur","state":"Uttar Pradesh","state_code":"36","district":"Jaunpur","district_code":"194","address1":"Jaunpur","address2":"","latitude":"25.746","longitude":"82.5759","accuracy":"4"},{"address3":"Maharupur","state":"Uttar Pradesh","state_code":"36","district":"Jaunpur","district_code":"194","address1":"Jaunpur","address2":"","latitude":"25.746","longitude":"82.5759","accuracy":"4"},{"address3":"Ahmadpur","state":"Uttar Pradesh","state_code":"36","district":"Jaunpur","district_code":"194","address1":"Jaunpur","address2":"","latitude":"25.6762","longitude":"82.3913","accuracy":"4"},{"address3":"Zamaitha","state":"Uttar Pradesh","state_code":"36","district":"Jaunpur","district_code":"194","address1":"Jaunpur","address2":"","latitude":"26.0787","longitude":"82.4224","accuracy":"3"},{"address3":"Hauz","state":"Uttar Pradesh","state_code":"36","district":"Jaunpur","district_code":"194","address1":"Jaunpur","address2":"","latitude":"25.6833","longitude":"82.7305","accuracy":"4"},{"address3":"Bibipur","state":"Uttar Pradesh","state_code":"36","district":"Jaunpur","district_code":"194","address1":"Jaunpur","address2":"","latitude":"25.9504","longitude":"82.5333","accuracy":"4"},{"address3":"Zafarabad","state":"Uttar Pradesh","state_code":"36","district":"Jaunpur","district_code":"194","address1":"Jaunpur","address2":"","latitude":"25.6987","longitude":"82.7335","accuracy":"4"},{"address3":"Imalo","state":"Uttar Pradesh","state_code":"36","district":"Jaunpur","district_code":"194","address1":"Jaunpur","address2":"","latitude":"26.0787","longitude":"82.4224","accuracy":"3"}],"222181":[{"address3":"Thanagaddi","state":"Uttar Pradesh","state_code":"36","district":"Jaunpur","district_code":"194","address1":"Kerakat","address2":"","latitude":"25.627","longitude":"82.4378","accuracy":"3"},{"address3":"Barain","state":"Uttar Pradesh","state_code":"36","district":"Jaunpur","district_code":"194","address1":"Kerakat","address2":"","latitude":"25.5938","longitude":"82.7057","accuracy":"4"},{"address3":"Sohani","state":"Uttar Pradesh","state_code":"36","district":"Jaunpur","district_code":"194","address1":"Kerakat","address2":"","latitude":"25.746","longitude":"82.5759","accuracy":"4"},{"address3":"Udaichandpur","state":"Uttar Pradesh","state_code":"36","district":"Jaunpur","district_code":"194","address1":"Kerakat","address2":"","latitude":"25.746","longitude":"82.5759","accuracy":"4"},{"address3":"Behra","state":"Uttar Pradesh","state_code":"36","district":"Jaunpur","district_code":"194","address1":"Kerakat","address2":"","latitude":"25.746","longitude":"82.5759","accuracy":"4"},{"address3":"Ratnupur","state":"Uttar Pradesh","state_code":"36","district":"Jaunpur","district_code":"194","address1":"Kerakat","address2":"","latitude":"25.5742","longitude":"82.9421","accuracy":"4"}],"222201":[{"address3":"Rampur Kundaha","state":"Uttar Pradesh","state_code":"36","district":"Jaunpur","district_code":"194","address1":"Machhali Shahar","address2":"","latitude":"25.9037","longitude":"82.6044","accuracy":"3"},{"address3":"Ghuripur","state":"Uttar Pradesh","state_code":"36","district":"Jaunpur","district_code":"194","address1":"Machhlishahr","address2":"","latitude":"26.157","longitude":"82.6196","accuracy":"4"},{"address3":"Balwarganj","state":"Uttar Pradesh","state_code":"36","district":"Jaunpur","district_code":"194","address1":"Badlapur","address2":"","latitude":"25.7706","longitude":"82.2919","accuracy":"4"},{"address3":"Alaiya","state":"Uttar Pradesh","state_code":"36","district":"Jaunpur","district_code":"194","address1":"Machhali Shahar","address2":"","latitude":"25.8024","longitude":"82.3157","accuracy":"4"},{"address3":"Kushmaul","state":"Uttar Pradesh","state_code":"36","district":"Jaunpur","district_code":"194","address1":"Machhali Shahar","address2":"","latitude":"25.9037","longitude":"82.6044","accuracy":"3"},{"address3":"Belwar","state":"Uttar Pradesh","state_code":"36","district":"Jaunpur","district_code":"194","address1":"Machhali Shahar","address2":"","latitude":"25.7887","longitude":"82.2271","accuracy":"4"},{"address3":"Neoraha","state":"Uttar Pradesh","state_code":"36","district":"Jaunpur","district_code":"194","address1":"Machhlishahr","address2":"","latitude":"25.746","longitude":"82.5759","accuracy":"4"},{"address3":"Sultanpur","state":"Uttar Pradesh","state_code":"36","district":"Jaunpur","district_code":"194","address1":"Machhali Shahar","address2":"","latitude":"25.8875","longitude":"82.478","accuracy":"4"},{"address3":"Premkapura","state":"Uttar Pradesh","state_code":"36","district":"Jaunpur","district_code":"194","address1":"Badlapur","address2":"","latitude":"25.9037","longitude":"82.6044","accuracy":"3"},{"address3":"Bhilampur","state":"Uttar Pradesh","state_code":"36","district":"Jaunpur","district_code":"194","address1":"Machhali Shahar","address2":"","latitude":"25.7548","longitude":"82.4711","accuracy":"4"},{"address3":"Khujhidih","state":"Uttar Pradesh","state_code":"36","district":"Jaunpur","district_code":"194","address1":"Badlapur","address2":"","latitude":"25.9037","longitude":"82.6044","accuracy":"3"},{"address3":"Unchgaon","state":"Uttar Pradesh","state_code":"36","district":"Jaunpur","district_code":"194","address1":"Machhali Shahar","address2":"","latitude":"25.7309","longitude":"82.3007","accuracy":"4"},{"address3":"Saraibhogi","state":"Uttar Pradesh","state_code":"36","district":"Jaunpur","district_code":"194","address1":"Machhali Shahar","address2":"","latitude":"25.9037","longitude":"82.6044","accuracy":"3"}],"222202":[{"address3":"Bhikhpur","state":"Uttar Pradesh","state_code":"36","district":"Jaunpur","district_code":"194","address1":"Machhali Shahar","address2":"","latitude":"25.746","longitude":"82.5759","accuracy":"4"},{"address3":"Mungra Badshahpur","state":"Uttar Pradesh","state_code":"36","district":"Jaunpur","district_code":"194","address1":"Machhali Shahar","address2":"","latitude":"25.6592","longitude":"82.1914","accuracy":"4"},{"address3":"Ramnagar","state":"Uttar Pradesh","state_code":"36","district":"Jaunpur","district_code":"194","address1":"Machhlishahr","address2":"","latitude":"25.7223","longitude":"82.6883","accuracy":"4"},{"address3":"Saraibika","state":"Uttar Pradesh","state_code":"36","district":"Jaunpur","district_code":"194","address1":"Machhali Shahar","address2":"","latitude":"25.7729","longitude":"82.4312","accuracy":"3"},{"address3":"Raipur","state":"Uttar Pradesh","state_code":"36","district":"Jaunpur","district_code":"194","address1":"Badlapur","address2":"","latitude":"25.7525","longitude":"82.4349","accuracy":"4"},{"address3":"Batnahit","state":"Uttar Pradesh","state_code":"36","district":"Jaunpur","district_code":"194","address1":"Machhali Shahar","address2":"","latitude":"25.6899","longitude":"82.3438","accuracy":"4"},{"address3":"Pawara","state":"Uttar Pradesh","state_code":"36","district":"Jaunpur","district_code":"194","address1":"Machhali Shahar","address2":"","latitude":"25.7729","longitude":"82.4312","accuracy":"3"},{"address3":"Kunwarpur","state":"Uttar Pradesh","state_code":"36","district":"Jaunpur","district_code":"194","address1":"Machhali Shahar","address2":"","latitude":"25.746","longitude":"82.5759","accuracy":"4"},{"address3":"Ukani","state":"Uttar Pradesh","state_code":"36","district":"Jaunpur","district_code":"194","address1":"Machhali Shahar","address2":"","latitude":"25.7729","longitude":"82.4312","accuracy":"3"},{"address3":"Dan","state":"Uttar Pradesh","state_code":"36","district":"Jaunpur","district_code":"194","address1":"Machhali Shahar","address2":"","latitude":"25.7352","longitude":"82.2157","accuracy":"4"},{"address3":"Madhupur","state":"Uttar Pradesh","state_code":"36","district":"Jaunpur","district_code":"194","address1":"Machhali Shahar","address2":"","latitude":"25.501","longitude":"82.6678","accuracy":"4"},{"address3":"Rajjupur","state":"Uttar Pradesh","state_code":"36","district":"Jaunpur","district_code":"194","address1":"Machhali Shahar","address2":"","latitude":"25.7069","longitude":"82.2948","accuracy":"4"}],"222203":[{"address3":"Banidih","state":"Uttar Pradesh","state_code":"36","district":"Jaunpur","district_code":"194","address1":"Mariahun","address2":"","latitude":"25.6436","longitude":"82.5944","accuracy":"3"},{"address3":"Rampur (Jaunpur)","state":"Uttar Pradesh","state_code":"36","district":"Jaunpur","district_code":"194","address1":"Mariahun","address2":"","latitude":"25.6436","longitude":"82.5944","accuracy":"3"},{"address3":"Hariharpur","state":"Uttar Pradesh","state_code":"36","district":"Jaunpur","district_code":"194","address1":"Mariahun","address2":"","latitude":"25.6021","longitude":"82.6557","accuracy":"4"},{"address3":"Marikpur","state":"Uttar Pradesh","state_code":"36","district":"Jaunpur","district_code":"194","address1":"NA","address2":"","latitude":"25.475","longitude":"82.6409","accuracy":"4"},{"address3":"Bharathipur","state":"Uttar Pradesh","state_code":"36","district":"Jaunpur","district_code":"194","address1":"Mariahun","address2":"","latitude":"25.6436","longitude":"82.5944","accuracy":"3"},{"address3":"Badkhin","state":"Uttar Pradesh","state_code":"36","district":"Jaunpur","district_code":"194","address1":"Mariahun","address2":"","latitude":"25.6436","longitude":"82.5944","accuracy":"3"},{"address3":"Sureri","state":"Uttar Pradesh","state_code":"36","district":"Jaunpur","district_code":"194","address1":"Mariahun","address2":"","latitude":"25.4177","longitude":"82.6519","accuracy":"4"},{"address3":"Ashawan","state":"Uttar Pradesh","state_code":"36","district":"Jaunpur","district_code":"194","address1":"Mariahun","address2":"","latitude":"25.6436","longitude":"82.5944","accuracy":"3"},{"address3":"Ashapur","state":"Uttar Pradesh","state_code":"36","district":"Jaunpur","district_code":"194","address1":"Mariahun","address2":"","latitude":"25.6348","longitude":"82.2226","accuracy":"4"},{"address3":"Adiar","state":"Uttar Pradesh","state_code":"36","district":"Jaunpur","district_code":"194","address1":"Mariahu","address2":"","latitude":"25.6436","longitude":"82.5944","accuracy":"3"},{"address3":"Gandhauna","state":"Uttar Pradesh","state_code":"36","district":"Jaunpur","district_code":"194","address1":"Mariahun","address2":"","latitude":"25.6436","longitude":"82.5944","accuracy":"3"},{"address3":"Bhiura","state":"Uttar Pradesh","state_code":"36","district":"Jaunpur","district_code":"194","address1":"Mariahu","address2":"","latitude":"25.746","longitude":"82.5759","accuracy":"4"},{"address3":"Pachawal","state":"Uttar Pradesh","state_code":"36","district":"Jaunpur","district_code":"194","address1":"Mariahun","address2":"","latitude":"25.6436","longitude":"82.5944","accuracy":"3"},{"address3":"Prithvipur","state":"Uttar Pradesh","state_code":"36","district":"Jaunpur","district_code":"194","address1":"Mariahun","address2":"","latitude":"25.746","longitude":"82.5759","accuracy":"3"},{"address3":"Wazidpur","state":"Uttar Pradesh","state_code":"36","district":"Jaunpur","district_code":"194","address1":"Mariahun","address2":"","latitude":"25.7309","longitude":"82.6883","accuracy":"4"},{"address3":"Bhanpur","state":"Uttar Pradesh","state_code":"36","district":"Jaunpur","district_code":"194","address1":"Mariahun","address2":"","latitude":"25.4405","longitude":"82.6249","accuracy":"4"}],"222204":[{"address3":"Kilhapur","state":"Uttar Pradesh","state_code":"36","district":"Jaunpur","district_code":"194","address1":"Shahganj","address2":"","latitude":"25.5863","longitude":"82.1894","accuracy":"4"},{"address3":"Unchdih","state":"Uttar Pradesh","state_code":"36","district":"Jaunpur","district_code":"194","address1":"Machali Shahar","address2":"","latitude":"25.746","longitude":"82.5759","accuracy":"4"},{"address3":"Gariaon","state":"Uttar Pradesh","state_code":"36","district":"Jaunpur","district_code":"194","address1":"Machali Shahar","address2":"","latitude":"25.575","longitude":"82.2727","accuracy":"4"},{"address3":"Nibhapur","state":"Uttar Pradesh","state_code":"36","district":"Jaunpur","district_code":"194","address1":"Machhali Shahar","address2":"","latitude":"25.6166","longitude":"82.2381","accuracy":"4"},{"address3":"Tikara","state":"Uttar Pradesh","state_code":"36","district":"Jaunpur","district_code":"194","address1":"Machali Shahar","address2":"","latitude":"25.6069","longitude":"82.2789","accuracy":"4"},{"address3":"Sohansa","state":"Uttar Pradesh","state_code":"36","district":"Jaunpur","district_code":"194","address1":"Machali Shahar","address2":"","latitude":"25.619","longitude":"82.1851","accuracy":"4"}],"222301":[{"address3":"Ramganj Bazar","state":"Uttar Pradesh","state_code":"36","district":"Pratapgarh","district_code":"173","address1":"Patti","address2":"","latitude":"26.0489","longitude":"82.0256","accuracy":"4"},{"address3":"Bainti Kalan","state":"Uttar Pradesh","state_code":"36","district":"Sultanpur","district_code":"179","address1":"Lambhua","address2":"","latitude":"26.3274","longitude":"82.2394","accuracy":"3"},{"address3":"Koiripur","state":"Uttar Pradesh","state_code":"36","district":"Sultanpur","district_code":"179","address1":"Lambhua","address2":"","latitude":"26.2749","longitude":"82.0201","accuracy":"4"},{"address3":"Malhipur","state":"Uttar Pradesh","state_code":"36","district":"Sultanpur","district_code":"179","address1":"Lambhua","address2":"","latitude":"26.0433","longitude":"82.3907","accuracy":"4"},{"address3":"Sonawan","state":"Uttar Pradesh","state_code":"36","district":"Sultanpur","district_code":"179","address1":"Lambhua","address2":"","latitude":"26.0279","longitude":"82.3499","accuracy":"4"}],"222302":[{"address3":"Barsara","state":"Uttar Pradesh","state_code":"36","district":"Sultanpur","district_code":"179","address1":"Lambhua","address2":"","latitude":"26.1493","longitude":"81.8813","accuracy":"4"},{"address3":"Barua","state":"Uttar Pradesh","state_code":"36","district":"Sultanpur","district_code":"179","address1":"Lambhua","address2":"","latitude":"26.2749","longitude":"82.0201","accuracy":"4"},{"address3":"Misirpur","state":"Uttar Pradesh","state_code":"36","district":"Sultanpur","district_code":"179","address1":"Lambhua","address2":"","latitude":"26.2749","longitude":"82.0201","accuracy":"4"},{"address3":"Lambhua","state":"Uttar Pradesh","state_code":"36","district":"Sultanpur","district_code":"179","address1":"Lambhua","address2":"","latitude":"26.138","longitude":"82.2272","accuracy":"4"},{"address3":"Hardaspur","state":"Uttar Pradesh","state_code":"36","district":"Sultanpur","district_code":"179","address1":"Lambhua","address2":"","latitude":"26.066","longitude":"82.2455","accuracy":"4"},{"address3":"Tato Muraini","state":"Uttar Pradesh","state_code":"36","district":"Sultanpur","district_code":"179","address1":"Lambhua","address2":"","latitude":"26.0997","longitude":"82.3037","accuracy":"3"},{"address3":"Narendapur","state":"Uttar Pradesh","state_code":"36","district":"Sultanpur","district_code":"179","address1":"Lambhua","address2":"","latitude":"26.2749","longitude":"82.0201","accuracy":"3"},{"address3":"Raipur","state":"Uttar Pradesh","state_code":"36","district":"Sultanpur","district_code":"179","address1":"Lambhua","address2":"","latitude":"26.1591","longitude":"82.2137","accuracy":"4"},{"address3":"Jamkhuri","state":"Uttar Pradesh","state_code":"36","district":"Sultanpur","district_code":"179","address1":"Lambhua","address2":"","latitude":"26.2749","longitude":"82.0201","accuracy":"4"},{"address3":"Narharpur","state":"Uttar Pradesh","state_code":"36","district":"Sultanpur","district_code":"179","address1":"Kadipur","address2":"","latitude":"26.1827","longitude":"82.112","accuracy":"4"},{"address3":"Belahi","state":"Uttar Pradesh","state_code":"36","district":"Sultanpur","district_code":"179","address1":"Lambhua","address2":"","latitude":"26.2749","longitude":"82.0201","accuracy":"4"},{"address3":"Ramgarh","state":"Uttar Pradesh","state_code":"36","district":"Sultanpur","district_code":"179","address1":"Lambhua","address2":"","latitude":"26.1446","longitude":"82.1324","accuracy":"4"},{"address3":"Mahdeva","state":"Uttar Pradesh","state_code":"36","district":"Sultanpur","district_code":"179","address1":"Lambhua","address2":"","latitude":"26.2749","longitude":"82.0201","accuracy":"4"},{"address3":"Shahpur Harbansh","state":"Uttar Pradesh","state_code":"36","district":"Sultanpur","district_code":"179","address1":"Lambhua","address2":"","latitude":"26.0997","longitude":"82.3037","accuracy":"3"},{"address3":"Chaukia","state":"Uttar Pradesh","state_code":"36","district":"Sultanpur","district_code":"179","address1":"Lambhua","address2":"","latitude":"26.1414","longitude":"82.1816","accuracy":"4"},{"address3":"Waini","state":"Uttar Pradesh","state_code":"36","district":"Sultanpur","district_code":"179","address1":"Lambhua","address2":"","latitude":"26.1565","longitude":"82.1826","accuracy":"4"},{"address3":"Budhapur","state":"Uttar Pradesh","state_code":"36","district":"Sultanpur","district_code":"179","address1":"Lambhua","address2":"","latitude":"26.0342","longitude":"82.4183","accuracy":"4"},{"address3":"Raja Umari","state":"Uttar Pradesh","state_code":"36","district":"Sultanpur","district_code":"179","address1":"Lambhua","address2":"","latitude":"26.0997","longitude":"82.3037","accuracy":"3"},{"address3":"Bahrauli","state":"Uttar Pradesh","state_code":"36","district":"Sultanpur","district_code":"179","address1":"Lambhua","address2":"","latitude":"26.0615","longitude":"82.2018","accuracy":"4"},{"address3":"Bhadaiyan","state":"Uttar Pradesh","state_code":"36","district":"Sultanpur","district_code":"179","address1":"Lambhua","address2":"","latitude":"26.175","longitude":"82.1721","accuracy":"4"},{"address3":"Garabpur","state":"Uttar Pradesh","state_code":"36","district":"Sultanpur","district_code":"179","address1":"Lambhua","address2":"","latitude":"26.0725","longitude":"82.2268","accuracy":"4"},{"address3":"Parasurampur","state":"Uttar Pradesh","state_code":"36","district":"Sultanpur","district_code":"179","address1":"Lambhua","address2":"","latitude":"26.0997","longitude":"82.3037","accuracy":"3"},{"address3":"Rikhpur","state":"Uttar Pradesh","state_code":"36","district":"Sultanpur","district_code":"179","address1":"Lambhua","address2":"","latitude":"26.145","longitude":"82.3017","accuracy":"4"},{"address3":"Sheshanpur","state":"Uttar Pradesh","state_code":"36","district":"Sultanpur","district_code":"179","address1":"Lambhua","address2":"","latitude":"26.0997","longitude":"82.3037","accuracy":"3"},{"address3":"Ghatampur","state":"Uttar Pradesh","state_code":"36","district":"Sultanpur","district_code":"179","address1":"Lambhua","address2":"","latitude":"26.1356","longitude":"82.2124","accuracy":"4"},{"address3":"Maksudan","state":"Uttar Pradesh","state_code":"36","district":"Sultanpur","district_code":"179","address1":"Lambhua","address2":"","latitude":"26.1768","longitude":"82.2336","accuracy":"4"},{"address3":"Shankarpur","state":"Uttar Pradesh","state_code":"36","district":"Sultanpur","district_code":"179","address1":"Lambhua","address2":"","latitude":"26.2159","longitude":"82.1356","accuracy":"4"}],"222303":[{"address3":"Safipur","state":"Uttar Pradesh","state_code":"36","district":"Sultanpur","district_code":"179","address1":"Lambhua","address2":"","latitude":"26.2749","longitude":"82.0201","accuracy":"4"},{"address3":"Sukul Umari","state":"Uttar Pradesh","state_code":"36","district":"Sultanpur","district_code":"179","address1":"Lambhua","address2":"","latitude":"26.2345","longitude":"82.1807","accuracy":"3"},{"address3":"Rampur","state":"Uttar Pradesh","state_code":"36","district":"Sultanpur","district_code":"179","address1":"Lambhua","address2":"","latitude":"26.1605","longitude":"82.2356","accuracy":"4"},{"address3":"Maharani Pachchhim","state":"Uttar Pradesh","state_code":"36","district":"Sultanpur","district_code":"179","address1":"Lambhua","address2":"","latitude":"26.2345","longitude":"82.1807","accuracy":"3"},{"address3":"Dewarh","state":"Uttar Pradesh","state_code":"36","district":"Sultanpur","district_code":"179","address1":"Lambhua","address2":"","latitude":"26.107","longitude":"82.3521","accuracy":"4"},{"address3":"Kothara Khurd","state":"Uttar Pradesh","state_code":"36","district":"Sultanpur","district_code":"179","address1":"Lambhua","address2":"","latitude":"26.2345","longitude":"82.1807","accuracy":"3"},{"address3":"Khanpur","state":"Uttar Pradesh","state_code":"36","district":"Sultanpur","district_code":"179","address1":"Lambhua","address2":"","latitude":"26.1159","longitude":"82.0687","accuracy":"4"},{"address3":"Bhua Pathkauli","state":"Uttar Pradesh","state_code":"36","district":"Sultanpur","district_code":"179","address1":"Lambhua","address2":"","latitude":"26.2345","longitude":"82.1807","accuracy":"3"},{"address3":"Tamarsepur","state":"Uttar Pradesh","state_code":"36","district":"Sultanpur","district_code":"179","address1":"Lambhua","address2":"","latitude":"26.0482","longitude":"82.3386","accuracy":"4"},{"address3":"Sadarpur","state":"Uttar Pradesh","state_code":"36","district":"Sultanpur","district_code":"179","address1":"Lambhua","address2":"","latitude":"26.2773","longitude":"82.252","accuracy":"4"},{"address3":"Chhapar","state":"Uttar Pradesh","state_code":"36","district":"Sultanpur","district_code":"179","address1":"Lambhua","address2":"","latitude":"26.125","longitude":"82.3247","accuracy":"4"}],"credits":[{"name":"geonames","url":"https://www.geonames.org"}],"last_update":"2019-03-01T09:01:39.302Z"}