{"223101":[{"address3":"Chhatai Kala","state":"Uttar Pradesh","state_code":"36","district":"Jaunpur","district_code":"194","address1":"Shahganj","address2":"","latitude":"26.0571","longitude":"82.6934","accuracy":"3"},{"address3":"Shahganj (Jaunpur)","state":"Uttar Pradesh","state_code":"36","district":"Jaunpur","district_code":"194","address1":"Shahganj","address2":"","latitude":"26.0497","longitude":"82.6842","accuracy":"4"},{"address3":"Takha","state":"Uttar Pradesh","state_code":"36","district":"Jaunpur","district_code":"194","address1":"Shahganj","address2":"","latitude":"26.0883","longitude":"82.6901","accuracy":"4"},{"address3":"Suris","state":"Uttar Pradesh","state_code":"36","district":"Jaunpur","district_code":"194","address1":"Shahganj","address2":"","latitude":"26.0571","longitude":"82.6934","accuracy":"3"},{"address3":"Bakuchi","state":"Uttar Pradesh","state_code":"36","district":"Jaunpur","district_code":"194","address1":"Shahganj","address2":"","latitude":"26.0334","longitude":"82.706","accuracy":"4"},{"address3":"Shahganj Sugar Mill","state":"Uttar Pradesh","state_code":"36","district":"Jaunpur","district_code":"194","address1":"Shahganj","address2":"","latitude":"26.0571","longitude":"82.6934","accuracy":"3"},{"address3":"Sabarhad","state":"Uttar Pradesh","state_code":"36","district":"Jaunpur","district_code":"194","address1":"Shahganj","address2":"","latitude":"26.0571","longitude":"82.6934","accuracy":"3"}],"223102":[{"address3":"Adhanpur","state":"Uttar Pradesh","state_code":"36","district":"Jaunpur","district_code":"194","address1":"Shahganj","address2":"","latitude":"26.0625","longitude":"82.5563","accuracy":"4"},{"address3":"Rasulpur","state":"Uttar Pradesh","state_code":"36","district":"Jaunpur","district_code":"194","address1":"Shahganj","address2":"","latitude":"26.0129","longitude":"82.5535","accuracy":"4"},{"address3":"Unchgaon","state":"Uttar Pradesh","state_code":"36","district":"Jaunpur","district_code":"194","address1":"Shahganj","address2":"","latitude":"25.7309","longitude":"82.3007","accuracy":"4"},{"address3":"Ishapur","state":"Uttar Pradesh","state_code":"36","district":"Jaunpur","district_code":"194","address1":"Shahganj","address2":"","latitude":"25.746","longitude":"82.5759","accuracy":"3"},{"address3":"Samodhpur","state":"Uttar Pradesh","state_code":"36","district":"Jaunpur","district_code":"194","address1":"Shahganj","address2":"","latitude":"25.879","longitude":"82.3624","accuracy":"4"},{"address3":"Bhagasa","state":"Uttar Pradesh","state_code":"36","district":"Jaunpur","district_code":"194","address1":"Shahganj","address2":"","latitude":"26.0554","longitude":"82.5395","accuracy":"4"},{"address3":"Pataila","state":"Uttar Pradesh","state_code":"36","district":"Jaunpur","district_code":"194","address1":"Shahganj","address2":"","latitude":"26.03","longitude":"82.5521","accuracy":"4"},{"address3":"Basauli","state":"Uttar Pradesh","state_code":"36","district":"Jaunpur","district_code":"194","address1":"Shahganj","address2":"","latitude":"25.746","longitude":"82.5759","accuracy":"4"},{"address3":"Patti Narendra","state":"Uttar Pradesh","state_code":"36","district":"Jaunpur","district_code":"194","address1":"Shahganj","address2":"","latitude":"25.9631","longitude":"82.4329","accuracy":"3"}],"223103":[{"address3":"Bishunpur","state":"Uttar Pradesh","state_code":"36","district":"Jaunpur","district_code":"194","address1":"Shahganj","address2":"","latitude":"26.0325","longitude":"82.597","accuracy":"4"},{"address3":"Dehari","state":"Uttar Pradesh","state_code":"36","district":"Jaunpur","district_code":"194","address1":"Shahganj","address2":"","latitude":"25.746","longitude":"82.5759","accuracy":"3"},{"address3":"Bazar Arasia","state":"Uttar Pradesh","state_code":"36","district":"Jaunpur","district_code":"194","address1":"Shahganj","address2":"","latitude":"26.094","longitude":"82.6168","accuracy":"3"},{"address3":"Patti Chakesar","state":"Uttar Pradesh","state_code":"36","district":"Jaunpur","district_code":"194","address1":"Shahganj","address2":"","latitude":"26.094","longitude":"82.6168","accuracy":"3"},{"address3":"Gairwah","state":"Uttar Pradesh","state_code":"36","district":"Jaunpur","district_code":"194","address1":"Shahganj","address2":"","latitude":"26.094","longitude":"82.6168","accuracy":"3"},{"address3":"Gurbari","state":"Uttar Pradesh","state_code":"36","district":"Jaunpur","district_code":"194","address1":"Shahganj","address2":"","latitude":"26.147","longitude":"82.6162","accuracy":"4"},{"address3":"Saraimohiddin","state":"Uttar Pradesh","state_code":"36","district":"Jaunpur","district_code":"194","address1":"Shahganj","address2":"","latitude":"26.094","longitude":"82.6168","accuracy":"3"},{"address3":"Argupur Kala","state":"Uttar Pradesh","state_code":"36","district":"Jaunpur","district_code":"194","address1":"Shahganj","address2":"","latitude":"26.094","longitude":"82.6168","accuracy":"3"},{"address3":"Latifpur","state":"Uttar Pradesh","state_code":"36","district":"Jaunpur","district_code":"194","address1":"Shahganj","address2":"","latitude":"26.1408","longitude":"82.6475","accuracy":"4"},{"address3":"Sultanpur Ghughuri","state":"Uttar Pradesh","state_code":"36","district":"Jaunpur","district_code":"194","address1":"Shahganj","address2":"","latitude":"26.094","longitude":"82.6168","accuracy":"3"},{"address3":"Jamunia","state":"Uttar Pradesh","state_code":"36","district":"Jaunpur","district_code":"194","address1":"Shahganj","address2":"","latitude":"26.0557","longitude":"82.6065","accuracy":"4"}],"223104":[{"address3":"Bhagmalpur","state":"Uttar Pradesh","state_code":"36","district":"Jaunpur","district_code":"194","address1":"Shahganj","address2":"","latitude":"26.011","longitude":"82.6211","accuracy":"4"},{"address3":"Khuthan","state":"Uttar Pradesh","state_code":"36","district":"Jaunpur","district_code":"194","address1":"Shahganj","address2":"","latitude":"25.746","longitude":"82.5759","accuracy":"4"},{"address3":"Marhat","state":"Uttar Pradesh","state_code":"36","district":"Jaunpur","district_code":"194","address1":"Shahganj","address2":"","latitude":"25.9626","longitude":"82.6085","accuracy":"4"},{"address3":"Pilkichha","state":"Uttar Pradesh","state_code":"36","district":"Jaunpur","district_code":"194","address1":"Badalapur","address2":"","latitude":"25.9681","longitude":"82.5459","accuracy":"4"},{"address3":"Ranipur","state":"Uttar Pradesh","state_code":"36","district":"Jaunpur","district_code":"194","address1":"Shahganj","address2":"","latitude":"25.9133","longitude":"82.5981","accuracy":"4"},{"address3":"Anguli","state":"Uttar Pradesh","state_code":"36","district":"Jaunpur","district_code":"194","address1":"Shahganj","address2":"","latitude":"25.8762","longitude":"82.6827","accuracy":"3"},{"address3":"Ghanshyampur (Jaunpur)","state":"Uttar Pradesh","state_code":"36","district":"Jaunpur","district_code":"194","address1":"Badlapur","address2":"","latitude":"25.8762","longitude":"82.6827","accuracy":"3"},{"address3":"Gajendrapur","state":"Uttar Pradesh","state_code":"36","district":"Jaunpur","district_code":"194","address1":"Badlapur","address2":"","latitude":"25.746","longitude":"82.5759","accuracy":"4"},{"address3":"Sauraia","state":"Uttar Pradesh","state_code":"36","district":"Jaunpur","district_code":"194","address1":"Shahganj","address2":"","latitude":"25.8762","longitude":"82.6827","accuracy":"3"},{"address3":"Dihiya","state":"Uttar Pradesh","state_code":"36","district":"Jaunpur","district_code":"194","address1":"Shahganj","address2":"","latitude":"25.9834","longitude":"82.5301","accuracy":"4"},{"address3":"Panauli","state":"Uttar Pradesh","state_code":"36","district":"Jaunpur","district_code":"194","address1":"Shahganj","address2":"","latitude":"25.9899","longitude":"82.6009","accuracy":"4"},{"address3":"Gauspur","state":"Uttar Pradesh","state_code":"36","district":"Jaunpur","district_code":"194","address1":"Shahganj","address2":"","latitude":"25.9627","longitude":"82.5849","accuracy":"4"},{"address3":"Gopalapur","state":"Uttar Pradesh","state_code":"36","district":"Jaunpur","district_code":"194","address1":"Shahganj","address2":"","latitude":"25.9443","longitude":"82.5513","accuracy":"4"},{"address3":"Narauli","state":"Uttar Pradesh","state_code":"36","district":"Jaunpur","district_code":"194","address1":"Jaunpur","address2":"","latitude":"25.8961","longitude":"82.5785","accuracy":"4"}],"223105":[{"address3":"Ramnagar","state":"Uttar Pradesh","state_code":"36","district":"Jaunpur","district_code":"194","address1":"Shahganj","address2":"","latitude":"25.8211","longitude":"82.3439","accuracy":"4"},{"address3":"Sarijahangirpatti","state":"Uttar Pradesh","state_code":"36","district":"Jaunpur","district_code":"194","address1":"Shahganj","address2":"","latitude":"26.0165","longitude":"82.4622","accuracy":"3"},{"address3":"Dukhaipur Sambalshah","state":"Uttar Pradesh","state_code":"36","district":"Jaunpur","district_code":"194","address1":"Shahganj","address2":"","latitude":"26.0165","longitude":"82.4622","accuracy":"3"},{"address3":"Gangauli","state":"Uttar Pradesh","state_code":"36","district":"Jaunpur","district_code":"194","address1":"Shahganj","address2":"","latitude":"26.1329","longitude":"82.5292","accuracy":"4"},{"address3":"Sarpataha","state":"Uttar Pradesh","state_code":"36","district":"Jaunpur","district_code":"194","address1":"Shahganj","address2":"","latitude":"26.0955","longitude":"82.5137","accuracy":"4"},{"address3":"Kammarpur","state":"Uttar Pradesh","state_code":"36","district":"Jaunpur","district_code":"194","address1":"Shahganj","address2":"","latitude":"26.0165","longitude":"82.4622","accuracy":"3"},{"address3":"Soithakalan","state":"Uttar Pradesh","state_code":"36","district":"Jaunpur","district_code":"194","address1":"Shahganj","address2":"","latitude":"26.0165","longitude":"82.4622","accuracy":"3"}],"223221":[{"address3":"Bilari","state":"Uttar Pradesh","state_code":"36","district":"Azamgarh","district_code":"191","address1":"Budan Pur","address2":"","latitude":"26.2934","longitude":"82.903","accuracy":"4"},{"address3":"Daniyalpur","state":"Uttar Pradesh","state_code":"36","district":"Azamgarh","district_code":"191","address1":"Budan Pur","address2":"","latitude":"26.047","longitude":"83.0697","accuracy":"4"},{"address3":"Aharaula","state":"Uttar Pradesh","state_code":"36","district":"Azamgarh","district_code":"191","address1":"Budanpur","address2":"","latitude":"26.1603","longitude":"83.0111","accuracy":"3"},{"address3":"Samsabad","state":"Uttar Pradesh","state_code":"36","district":"Azamgarh","district_code":"191","address1":"Mehnagar **","address2":"","latitude":"26.047","longitude":"83.0697","accuracy":"3"},{"address3":"Edilpur","state":"Uttar Pradesh","state_code":"36","district":"Azamgarh","district_code":"191","address1":"Mehnagar **","address2":"","latitude":"26.047","longitude":"83.0697","accuracy":"4"},{"address3":"Gauri","state":"Uttar Pradesh","state_code":"36","district":"Azamgarh","district_code":"191","address1":"Budan Pur","address2":"","latitude":"25.9404","longitude":"83.038","accuracy":"4"},{"address3":"Youdhisthirpatti.","state":"Uttar Pradesh","state_code":"36","district":"Azamgarh","district_code":"191","address1":"Budan Pur","address2":"","latitude":"26.1603","longitude":"83.0111","accuracy":"3"},{"address3":"Khajuri","state":"Uttar Pradesh","state_code":"36","district":"Azamgarh","district_code":"191","address1":"Mehnagar **","address2":"","latitude":"26.2202","longitude":"82.9118","accuracy":"4"},{"address3":"Bhimal Patti","state":"Uttar Pradesh","state_code":"36","district":"Azamgarh","district_code":"191","address1":"Nizamabad","address2":"","latitude":"26.143","longitude":"82.9414","accuracy":"4"},{"address3":"Baraipur","state":"Uttar Pradesh","state_code":"36","district":"Azamgarh","district_code":"191","address1":"Budan Pur","address2":"","latitude":"25.9894","longitude":"83.0074","accuracy":"4"},{"address3":"Sukhi Pur","state":"Uttar Pradesh","state_code":"36","district":"Azamgarh","district_code":"191","address1":"Phool Pur","address2":"","latitude":"26.1603","longitude":"83.0111","accuracy":"3"},{"address3":"Chhitauna","state":"Uttar Pradesh","state_code":"36","district":"Azamgarh","district_code":"191","address1":"Mehnagar **","address2":"","latitude":"26.2295","longitude":"82.9728","accuracy":"4"},{"address3":"Vinoa Puri","state":"Uttar Pradesh","state_code":"36","district":"Azamgarh","district_code":"191","address1":"Budan Pur","address2":"","latitude":"26.1603","longitude":"83.0111","accuracy":"3"},{"address3":"Sarain","state":"Uttar Pradesh","state_code":"36","district":"Azamgarh","district_code":"191","address1":"Azamgarh","address2":"","latitude":"26.2215","longitude":"82.9376","accuracy":"4"},{"address3":"Kushmahara","state":"Uttar Pradesh","state_code":"36","district":"Azamgarh","district_code":"191","address1":"Mehnagar **","address2":"","latitude":"26.1603","longitude":"83.0111","accuracy":"3"},{"address3":"Gahaji","state":"Uttar Pradesh","state_code":"36","district":"Azamgarh","district_code":"191","address1":"Nizamabad","address2":"","latitude":"26.1603","longitude":"83.0111","accuracy":"3"}],"223222":[{"address3":"Godhana","state":"Uttar Pradesh","state_code":"36","district":"Azamgarh","district_code":"191","address1":"Phool Pur","address2":"","latitude":"26.047","longitude":"83.0697","accuracy":"4"},{"address3":"Malgaon","state":"Uttar Pradesh","state_code":"36","district":"Azamgarh","district_code":"191","address1":"Mehnagar **","address2":"","latitude":"26.0518","longitude":"82.806","accuracy":"4"},{"address3":"Ambari","state":"Uttar Pradesh","state_code":"36","district":"Azamgarh","district_code":"191","address1":"Phulpur","address2":"","latitude":"26.0936","longitude":"82.8054","accuracy":"4"},{"address3":"Nauhara","state":"Uttar Pradesh","state_code":"36","district":"Azamgarh","district_code":"191","address1":"Mehnagar **","address2":"","latitude":"26.047","longitude":"83.0697","accuracy":"3"},{"address3":"Palia Maphi","state":"Uttar Pradesh","state_code":"36","district":"Azamgarh","district_code":"191","address1":"Phool Pur","address2":"","latitude":"25.9905","longitude":"82.7716","accuracy":"3"},{"address3":"Khanjahan Pur","state":"Uttar Pradesh","state_code":"36","district":"Azamgarh","district_code":"191","address1":"Phoolpur","address2":"","latitude":"25.9905","longitude":"82.7716","accuracy":"3"},{"address3":"Oril","state":"Uttar Pradesh","state_code":"36","district":"Mau","district_code":"192","address1":"Madhuban **","address2":"","latitude":"26.0431","longitude":"83.5629","accuracy":"4"}],"223223":[{"address3":"Badaya","state":"Uttar Pradesh","state_code":"36","district":"Azamgarh","district_code":"191","address1":"Budan Pur","address2":"","latitude":"25.555","longitude":"83.1705","accuracy":"3"},{"address3":"Bansgaon","state":"Uttar Pradesh","state_code":"36","district":"Azamgarh","district_code":"191","address1":"Budan Pur","address2":"","latitude":"25.8311","longitude":"83.2816","accuracy":"4"},{"address3":"Base Pur Dandava","state":"Uttar Pradesh","state_code":"36","district":"Azamgarh","district_code":"191","address1":"Budan Pur","address2":"","latitude":"25.555","longitude":"83.1705","accuracy":"3"},{"address3":"Lohara","state":"Uttar Pradesh","state_code":"36","district":"Azamgarh","district_code":"191","address1":"Budan Pur","address2":"","latitude":"26.047","longitude":"83.0697","accuracy":"4"},{"address3":"Basahia","state":"Uttar Pradesh","state_code":"36","district":"Azamgarh","district_code":"191","address1":"Azamgarh","address2":"","latitude":"26.3284","longitude":"82.9079","accuracy":"4"},{"address3":"Govind Pur","state":"Uttar Pradesh","state_code":"36","district":"Azamgarh","district_code":"191","address1":"Burhanpur","address2":"","latitude":"25.555","longitude":"83.1705","accuracy":"3"},{"address3":"Nandana","state":"Uttar Pradesh","state_code":"36","district":"Azamgarh","district_code":"191","address1":"Budan Pur","address2":"","latitude":"26.047","longitude":"83.0697","accuracy":"4"},{"address3":"Gajendra Patti Bhidaura","state":"Uttar Pradesh","state_code":"36","district":"Azamgarh","district_code":"191","address1":"Azamgarh","address2":"","latitude":"25.555","longitude":"83.1705","accuracy":"3"},{"address3":"Ataraulia","state":"Uttar Pradesh","state_code":"36","district":"Azamgarh","district_code":"191","address1":"Budan Pur","address2":"","latitude":"25.555","longitude":"83.1705","accuracy":"3"},{"address3":"Sen Pur","state":"Uttar Pradesh","state_code":"36","district":"Azamgarh","district_code":"191","address1":"Azamgarh","address2":"","latitude":"25.555","longitude":"83.1705","accuracy":"3"},{"address3":"Deora Patti","state":"Uttar Pradesh","state_code":"36","district":"Azamgarh","district_code":"191","address1":"Azamgarh","address2":"","latitude":"25.555","longitude":"83.1705","accuracy":"3"},{"address3":"Pakar Deeha","state":"Uttar Pradesh","state_code":"36","district":"Azamgarh","district_code":"191","address1":"Azamgarh","address2":"","latitude":"25.555","longitude":"83.1705","accuracy":"3"},{"address3":"Mir Pur","state":"Uttar Pradesh","state_code":"36","district":"Azamgarh","district_code":"191","address1":"Budan Pur","address2":"","latitude":"25.555","longitude":"83.1705","accuracy":"3"},{"address3":"Bhagat Pur","state":"Uttar Pradesh","state_code":"36","district":"Azamgarh","district_code":"191","address1":"Nizamabad **","address2":"","latitude":"25.555","longitude":"83.1705","accuracy":"3"},{"address3":"Mahagu Pur","state":"Uttar Pradesh","state_code":"36","district":"Azamgarh","district_code":"191","address1":"Azamgarh","address2":"","latitude":"25.555","longitude":"83.1705","accuracy":"3"},{"address3":"Madia Par","state":"Uttar Pradesh","state_code":"36","district":"Azamgarh","district_code":"191","address1":"Godhan Pur","address2":"","latitude":"25.555","longitude":"83.1705","accuracy":"3"}],"223224":[{"address3":"Didarganj","state":"Uttar Pradesh","state_code":"36","district":"Azamgarh","district_code":"191","address1":"Phool Pur","address2":"","latitude":"25.9979","longitude":"82.7659","accuracy":"4"},{"address3":"Bhadaon","state":"Uttar Pradesh","state_code":"36","district":"Azamgarh","district_code":"191","address1":"Phool Pur.","address2":"","latitude":"26.047","longitude":"83.0697","accuracy":"4"},{"address3":"Chitara Mahamud Pur","state":"Uttar Pradesh","state_code":"36","district":"Azamgarh","district_code":"191","address1":"Nizamabad **","address2":"","latitude":"25.898","longitude":"82.5973","accuracy":"3"},{"address3":"Palthi","state":"Uttar Pradesh","state_code":"36","district":"Azamgarh","district_code":"191","address1":"Phoolpur","address2":"","latitude":"26.0279","longitude":"82.7832","accuracy":"4"},{"address3":"Kaura Gahani","state":"Uttar Pradesh","state_code":"36","district":"Azamgarh","district_code":"191","address1":"Azamgarh","address2":"","latitude":"25.898","longitude":"82.5973","accuracy":"3"},{"address3":"Karui","state":"Uttar Pradesh","state_code":"36","district":"Azamgarh","district_code":"191","address1":"Azamgarh","address2":"","latitude":"25.9613","longitude":"82.799","accuracy":"4"},{"address3":"Martin Ganj","state":"Uttar Pradesh","state_code":"36","district":"Azamgarh","district_code":"191","address1":"Burhanpur","address2":"","latitude":"25.898","longitude":"82.5973","accuracy":"3"},{"address3":"Surahan","state":"Uttar Pradesh","state_code":"36","district":"Azamgarh","district_code":"191","address1":"Phool Pur","address2":"","latitude":"26.047","longitude":"83.0697","accuracy":"4"},{"address3":"Mir Ahmedpur Sahjada","state":"Uttar Pradesh","state_code":"36","district":"Azamgarh","district_code":"191","address1":"Phool Pur","address2":"","latitude":"25.898","longitude":"82.5973","accuracy":"3"},{"address3":"Hubbi Ganj","state":"Uttar Pradesh","state_code":"36","district":"Azamgarh","district_code":"191","address1":"Azamgarh","address2":"","latitude":"25.898","longitude":"82.5973","accuracy":"3"},{"address3":"Guwai","state":"Uttar Pradesh","state_code":"36","district":"Azamgarh","district_code":"191","address1":"Azamgarh","address2":"","latitude":"25.898","longitude":"82.5973","accuracy":"3"},{"address3":"Fulesh","state":"Uttar Pradesh","state_code":"36","district":"Azamgarh","district_code":"191","address1":"Azamgarh","address2":"","latitude":"25.898","longitude":"82.5973","accuracy":"3"}],"223225":[{"address3":"Faridpur","state":"Uttar Pradesh","state_code":"36","district":"Azamgarh","district_code":"191","address1":"Phoolpur","address2":"","latitude":"26.1733","longitude":"82.8297","accuracy":"4"},{"address3":"Mahul","state":"Uttar Pradesh","state_code":"36","district":"Azamgarh","district_code":"191","address1":"Burhanpur","address2":"","latitude":"26.1314","longitude":"82.8146","accuracy":"4"},{"address3":"Raida","state":"Uttar Pradesh","state_code":"36","district":"Azamgarh","district_code":"191","address1":"Phoolpur","address2":"","latitude":"26.1839","longitude":"82.8041","accuracy":"4"},{"address3":"Rama Pur","state":"Uttar Pradesh","state_code":"36","district":"Azamgarh","district_code":"191","address1":"Phuool Pur","address2":"","latitude":"26.1567","longitude":"82.8052","accuracy":"3"},{"address3":"Naharpur","state":"Uttar Pradesh","state_code":"36","district":"Azamgarh","district_code":"191","address1":"Phoolpur","address2":"","latitude":"26.1383","longitude":"82.7726","accuracy":"4"}],"223226":[{"address3":"Ishapur","state":"Uttar Pradesh","state_code":"36","district":"Azamgarh","district_code":"191","address1":"Mehnagar **","address2":"","latitude":"26.047","longitude":"83.0697","accuracy":"3"},{"address3":"Bunda","state":"Uttar Pradesh","state_code":"36","district":"Azamgarh","district_code":"191","address1":"Phoolpur","address2":"","latitude":"26.0167","longitude":"82.821","accuracy":"4"},{"address3":"Chhittepur","state":"Uttar Pradesh","state_code":"36","district":"Azamgarh","district_code":"191","address1":"Azamgarh","address2":"","latitude":"25.9878","longitude":"82.8409","accuracy":"4"},{"address3":"Bakhara","state":"Uttar Pradesh","state_code":"36","district":"Azamgarh","district_code":"191","address1":"Phoolpur","address2":"","latitude":"26.047","longitude":"83.0697","accuracy":"3"},{"address3":"Pushpnagar","state":"Uttar Pradesh","state_code":"36","district":"Azamgarh","district_code":"191","address1":"Phul Pur","address2":"","latitude":"26.0023","longitude":"82.8309","accuracy":"3"},{"address3":"Sikaraur Sahabari","state":"Uttar Pradesh","state_code":"36","district":"Azamgarh","district_code":"191","address1":"Phoolpur","address2":"","latitude":"26.0023","longitude":"82.8309","accuracy":"3"}],"223227":[{"address3":"Fariha","state":"Uttar Pradesh","state_code":"36","district":"Azamgarh","district_code":"191","address1":"Nizamabad","address2":"","latitude":"25.9909","longitude":"82.8835","accuracy":"1"},{"address3":"Sanjar Pur","state":"Uttar Pradesh","state_code":"36","district":"Azamgarh","district_code":"191","address1":"Nizamabad","address2":"","latitude":"25.9909","longitude":"82.8835","accuracy":"1"},{"address3":"Ambarpur","state":"Uttar Pradesh","state_code":"36","district":"Azamgarh","district_code":"191","address1":"Nizamabad","address2":"","latitude":"26.047","longitude":"83.0697","accuracy":"1"},{"address3":"Kujiyari","state":"Uttar Pradesh","state_code":"36","district":"Azamgarh","district_code":"191","address1":"Mehnagar **","address2":"","latitude":"25.9909","longitude":"82.8835","accuracy":"1"},{"address3":"Badagaon","state":"Uttar Pradesh","state_code":"36","district":"Azamgarh","district_code":"191","address1":"Nizamabad","address2":"","latitude":"25.9909","longitude":"82.8835","accuracy":"1"},{"address3":"Firuddin Pur","state":"Uttar Pradesh","state_code":"36","district":"Azamgarh","district_code":"191","address1":"Mehnagar **","address2":"","latitude":"25.9909","longitude":"82.8835","accuracy":"1"},{"address3":"Gandhuai","state":"Uttar Pradesh","state_code":"36","district":"Azamgarh","district_code":"191","address1":"Mehnagar **","address2":"","latitude":"25.9909","longitude":"82.8835","accuracy":"1"},{"address3":"Badaharia","state":"Uttar Pradesh","state_code":"36","district":"Azamgarh","district_code":"191","address1":"Nizamabad","address2":"","latitude":"25.9909","longitude":"82.8835","accuracy":"1"}],"credits":[{"name":"geonames","url":"https://www.geonames.org"}],"last_update":"2019-03-01T09:01:39.705Z"}