{"241001":[{"address3":"Sikarohari","state":"Uttar Pradesh","state_code":"36","district":"Hardoi","district_code":"155","address1":"Harodi","address2":"","latitude":"27.2599","longitude":"80.243","accuracy":"3"},{"address3":"Lalpalpur","state":"Uttar Pradesh","state_code":"36","district":"Hardoi","district_code":"155","address1":"Hardoi","address2":"","latitude":"27.2599","longitude":"80.243","accuracy":"3"},{"address3":"Turtipur","state":"Uttar Pradesh","state_code":"36","district":"Hardoi","district_code":"155","address1":"Harodi","address2":"","latitude":"27.2752","longitude":"80.1062","accuracy":"4"},{"address3":"Malihamau","state":"Uttar Pradesh","state_code":"36","district":"Hardoi","district_code":"155","address1":"Hardoi","address2":"","latitude":"27.2599","longitude":"80.243","accuracy":"3"},{"address3":"Nabi Purwa","state":"Uttar Pradesh","state_code":"36","district":"Hardoi","district_code":"155","address1":"Harodi","address2":"","latitude":"27.3287","longitude":"80.1625","accuracy":"4"},{"address3":"Madara","state":"Uttar Pradesh","state_code":"36","district":"Hardoi","district_code":"155","address1":"Hardoi","address2":"","latitude":"27.287","longitude":"80.0251","accuracy":"4"},{"address3":"Rara","state":"Uttar Pradesh","state_code":"36","district":"Hardoi","district_code":"155","address1":"Hardoi","address2":"","latitude":"27.435","longitude":"80.1531","accuracy":"4"},{"address3":"Kakendi","state":"Uttar Pradesh","state_code":"36","district":"Hardoi","district_code":"155","address1":"Hardoi","address2":"","latitude":"27.2599","longitude":"80.243","accuracy":"3"},{"address3":"Sadai Behta","state":"Uttar Pradesh","state_code":"36","district":"Hardoi","district_code":"155","address1":"Hardoi","address2":"","latitude":"27.2599","longitude":"80.243","accuracy":"3"},{"address3":"Neer","state":"Uttar Pradesh","state_code":"36","district":"Hardoi","district_code":"155","address1":"Hardoi","address2":"","latitude":"27.2599","longitude":"80.243","accuracy":"3"},{"address3":"Sursa","state":"Uttar Pradesh","state_code":"36","district":"Hardoi","district_code":"155","address1":"Hardoi","address2":"","latitude":"27.2857","longitude":"80.1276","accuracy":"4"},{"address3":"Kurria","state":"Uttar Pradesh","state_code":"36","district":"Hardoi","district_code":"155","address1":"Hardoi","address2":"","latitude":"27.2599","longitude":"80.243","accuracy":"3"},{"address3":"Sathara","state":"Uttar Pradesh","state_code":"36","district":"Hardoi","district_code":"155","address1":"Hardoi","address2":"","latitude":"27.3287","longitude":"80.1625","accuracy":"4"},{"address3":"Naya Gaon Mubarakpur","state":"Uttar Pradesh","state_code":"36","district":"Hardoi","district_code":"155","address1":"Hardoi","address2":"","latitude":"27.2599","longitude":"80.243","accuracy":"3"},{"address3":"Bhadaicha","state":"Uttar Pradesh","state_code":"36","district":"Hardoi","district_code":"155","address1":"Hardoi","address2":"","latitude":"27.3273","longitude":"80.0969","accuracy":"4"},{"address3":"Kutuwapur","state":"Uttar Pradesh","state_code":"36","district":"Hardoi","district_code":"155","address1":"Hardoi","address2":"","latitude":"27.2599","longitude":"80.243","accuracy":"3"},{"address3":"Uncha Thok","state":"Uttar Pradesh","state_code":"36","district":"Hardoi","district_code":"155","address1":"Hardoi","address2":"","latitude":"27.2599","longitude":"80.243","accuracy":"3"},{"address3":"Khajurahara","state":"Uttar Pradesh","state_code":"36","district":"Hardoi","district_code":"155","address1":"Hardoi","address2":"","latitude":"27.2599","longitude":"80.243","accuracy":"3"},{"address3":"Bawan","state":"Uttar Pradesh","state_code":"36","district":"Hardoi","district_code":"155","address1":"Hardoi","address2":"","latitude":"27.3955","longitude":"80.0191","accuracy":"4"},{"address3":"Maholiya Shivpar","state":"Uttar Pradesh","state_code":"36","district":"Hardoi","district_code":"155","address1":"Hardoi","address2":"","latitude":"27.2599","longitude":"80.243","accuracy":"3"},{"address3":"Vanshi Nagar","state":"Uttar Pradesh","state_code":"36","district":"Hardoi","district_code":"155","address1":"Harodi","address2":"","latitude":"27.2599","longitude":"80.243","accuracy":"3"},{"address3":"Kaudha","state":"Uttar Pradesh","state_code":"36","district":"Hardoi","district_code":"155","address1":"Hardoi","address2":"","latitude":"27.2599","longitude":"80.243","accuracy":"3"},{"address3":"Hardoi Bazar","state":"Uttar Pradesh","state_code":"36","district":"Hardoi","district_code":"155","address1":"Hardoi","address2":"","latitude":"27.2662","longitude":"79.8331","accuracy":"4"},{"address3":"Dhiar Maholiya","state":"Uttar Pradesh","state_code":"36","district":"Hardoi","district_code":"155","address1":"Hardoi","address2":"","latitude":"27.2599","longitude":"80.243","accuracy":"3"},{"address3":"White Ganj","state":"Uttar Pradesh","state_code":"36","district":"Hardoi","district_code":"155","address1":"Hardoi","address2":"","latitude":"27.2599","longitude":"80.243","accuracy":"3"},{"address3":"Nai Basti (Hardoi)","state":"Uttar Pradesh","state_code":"36","district":"Hardoi","district_code":"155","address1":"Hardoi","address2":"","latitude":"27.0464","longitude":"80.072","accuracy":"4"},{"address3":"Hardoi Kutchery","state":"Uttar Pradesh","state_code":"36","district":"Hardoi","district_code":"155","address1":"Hardoi","address2":"","latitude":"27.2599","longitude":"80.243","accuracy":"3"},{"address3":"Odra","state":"Uttar Pradesh","state_code":"36","district":"Hardoi","district_code":"155","address1":"Hardoi","address2":"","latitude":"27.3413","longitude":"79.9672","accuracy":"4"},{"address3":"Tatyora","state":"Uttar Pradesh","state_code":"36","district":"Hardoi","district_code":"155","address1":"Hardoi","address2":"","latitude":"27.2599","longitude":"80.243","accuracy":"3"},{"address3":"Sakatpur","state":"Uttar Pradesh","state_code":"36","district":"Hardoi","district_code":"155","address1":"Hardoi","address2":"","latitude":"27.4237","longitude":"80.0428","accuracy":"4"},{"address3":"Eja","state":"Uttar Pradesh","state_code":"36","district":"Hardoi","district_code":"155","address1":"Hardoi","address2":"","latitude":"27.2599","longitude":"80.243","accuracy":"3"},{"address3":"Bahar","state":"Uttar Pradesh","state_code":"36","district":"Hardoi","district_code":"155","address1":"Hardoi","address2":"","latitude":"27.3868","longitude":"80.1819","accuracy":"4"},{"address3":"Hardoi H.O","state":"Uttar Pradesh","state_code":"36","district":"Hardoi","district_code":"155","address1":"Hardoi","address2":"","latitude":"27.2599","longitude":"80.243","accuracy":"3"},{"address3":"Civil Lines (Hardoi)","state":"Uttar Pradesh","state_code":"36","district":"Hardoi","district_code":"155","address1":"Hardoi","address2":"","latitude":"27.2599","longitude":"80.243","accuracy":"3"},{"address3":"Hardoi R. S.","state":"Uttar Pradesh","state_code":"36","district":"Hardoi","district_code":"155","address1":"Harodi","address2":"","latitude":"27.2599","longitude":"80.243","accuracy":"3"},{"address3":"Lucknow Road","state":"Uttar Pradesh","state_code":"36","district":"Hardoi","district_code":"155","address1":"Harodi","address2":"","latitude":"27.2599","longitude":"80.243","accuracy":"3"},{"address3":"Munney Miyan Ka Chauraha","state":"Uttar Pradesh","state_code":"36","district":"Hardoi","district_code":"155","address1":"Hardoi","address2":"","latitude":"27.2599","longitude":"80.243","accuracy":"3"},{"address3":"Sakara","state":"Uttar Pradesh","state_code":"36","district":"Hardoi","district_code":"155","address1":"Hardoi","address2":"","latitude":"27.2599","longitude":"80.243","accuracy":"3"},{"address3":"Saitiyapur","state":"Uttar Pradesh","state_code":"36","district":"Hardoi","district_code":"155","address1":"Hardoi","address2":"","latitude":"27.2599","longitude":"80.243","accuracy":"3"},{"address3":"Poora Bahadur","state":"Uttar Pradesh","state_code":"36","district":"Hardoi","district_code":"155","address1":"Hardoi","address2":"","latitude":"27.2599","longitude":"80.243","accuracy":"3"},{"address3":"Babnapur","state":"Uttar Pradesh","state_code":"36","district":"Hardoi","district_code":"155","address1":"Hardoi","address2":"","latitude":"27.4284","longitude":"80.0188","accuracy":"4"}],"241121":[{"address3":"Kalika","state":"Uttar Pradesh","state_code":"36","district":"Hardoi","district_code":"155","address1":"Hardoi","address2":"","latitude":"27.1843","longitude":"79.8314","accuracy":"4"},{"address3":"Mangolapur","state":"Uttar Pradesh","state_code":"36","district":"Hardoi","district_code":"155","address1":"Hardoi","address2":"","latitude":"27.3357","longitude":"80.2273","accuracy":"4"},{"address3":"Bhitha Maha Singh","state":"Uttar Pradesh","state_code":"36","district":"Hardoi","district_code":"155","address1":"Hardoi","address2":"","latitude":"27.26","longitude":"80.0293","accuracy":"3"},{"address3":"Atwa Kataiya","state":"Uttar Pradesh","state_code":"36","district":"Hardoi","district_code":"155","address1":"Hardoi","address2":"","latitude":"27.26","longitude":"80.0293","accuracy":"3"},{"address3":"Barkherwa","state":"Uttar Pradesh","state_code":"36","district":"Hardoi","district_code":"155","address1":"Hardoi","address2":"","latitude":"27.26","longitude":"80.0293","accuracy":"3"},{"address3":"Aihrori","state":"Uttar Pradesh","state_code":"36","district":"Hardoi","district_code":"155","address1":"Hardoi","address2":"","latitude":"27.26","longitude":"80.0293","accuracy":"3"},{"address3":"Bharayal","state":"Uttar Pradesh","state_code":"36","district":"Hardoi","district_code":"155","address1":"Hardoi","address2":"","latitude":"27.26","longitude":"80.0293","accuracy":"3"},{"address3":"Gadeora","state":"Uttar Pradesh","state_code":"36","district":"Hardoi","district_code":"155","address1":"Hardoi","address2":"","latitude":"27.26","longitude":"80.0293","accuracy":"3"},{"address3":"Thok Bandho","state":"Uttar Pradesh","state_code":"36","district":"Hardoi","district_code":"155","address1":"Hardoi","address2":"","latitude":"27.26","longitude":"80.0293","accuracy":"3"}],"241122":[{"address3":"Baghauli","state":"Uttar Pradesh","state_code":"36","district":"Hardoi","district_code":"155","address1":"Hardoi","address2":"","latitude":"27.3287","longitude":"80.1625","accuracy":"4"},{"address3":"Mahri","state":"Uttar Pradesh","state_code":"36","district":"Hardoi","district_code":"155","address1":"Hardoi","address2":"","latitude":"27.3287","longitude":"80.1625","accuracy":"4"},{"address3":"Kaimau","state":"Uttar Pradesh","state_code":"36","district":"Hardoi","district_code":"155","address1":"Hardoi","address2":"","latitude":"27.2318","longitude":"79.9579","accuracy":"4"},{"address3":"Bhithadan","state":"Uttar Pradesh","state_code":"36","district":"Hardoi","district_code":"155","address1":"Hardoi","address2":"","latitude":"27.369","longitude":"80.1623","accuracy":"3"},{"address3":"Faridapur","state":"Uttar Pradesh","state_code":"36","district":"Hardoi","district_code":"155","address1":"Hardoi","address2":"","latitude":"27.3384","longitude":"80.1122","accuracy":"4"},{"address3":"Victoriyaganj","state":"Uttar Pradesh","state_code":"36","district":"Hardoi","district_code":"155","address1":"Hardoi","address2":"","latitude":"27.369","longitude":"80.1623","accuracy":"3"},{"address3":"Masit","state":"Uttar Pradesh","state_code":"36","district":"Hardoi","district_code":"155","address1":"Hardoi","address2":"","latitude":"27.4472","longitude":"80.2056","accuracy":"4"},{"address3":"Pachkohara","state":"Uttar Pradesh","state_code":"36","district":"Hardoi","district_code":"155","address1":"Hardoi","address2":"","latitude":"27.369","longitude":"80.1623","accuracy":"3"},{"address3":"Meoni","state":"Uttar Pradesh","state_code":"36","district":"Hardoi","district_code":"155","address1":"Hardoi","address2":"","latitude":"27.2815","longitude":"80.1656","accuracy":"4"},{"address3":"Bamhna Khera","state":"Uttar Pradesh","state_code":"36","district":"Hardoi","district_code":"155","address1":"Hardoi","address2":"","latitude":"27.369","longitude":"80.1623","accuracy":"3"}],"241123":[{"address3":"Babarpur","state":"Uttar Pradesh","state_code":"36","district":"Hardoi","district_code":"155","address1":"Sawayajpur","address2":"","latitude":"27.5592","longitude":"79.8393","accuracy":"4"},{"address3":"Kamalpur","state":"Uttar Pradesh","state_code":"36","district":"Hardoi","district_code":"155","address1":"Sawayajpur","address2":"","latitude":"27.417","longitude":"80.0016","accuracy":"4"},{"address3":"Amirta","state":"Uttar Pradesh","state_code":"36","district":"Hardoi","district_code":"155","address1":"Sawayajpur","address2":"","latitude":"27.5111","longitude":"79.9501","accuracy":"4"},{"address3":"Sawaijpur","state":"Uttar Pradesh","state_code":"36","district":"Hardoi","district_code":"155","address1":"Sawayajpur","address2":"","latitude":"27.3287","longitude":"80.1625","accuracy":"4"},{"address3":"Khitauli","state":"Uttar Pradesh","state_code":"36","district":"Hardoi","district_code":"155","address1":"Sawayajpur","address2":"","latitude":"27.4431","longitude":"79.7818","accuracy":"4"},{"address3":"Lakhmapur","state":"Uttar Pradesh","state_code":"36","district":"Hardoi","district_code":"155","address1":"Sawayajpur","address2":"","latitude":"27.3287","longitude":"80.1625","accuracy":"3"},{"address3":"Pachdeora","state":"Uttar Pradesh","state_code":"36","district":"Hardoi","district_code":"155","address1":"Sawayajpur","address2":"","latitude":"27.6581","longitude":"79.762","accuracy":"4"},{"address3":"Dhani Nagla","state":"Uttar Pradesh","state_code":"36","district":"Hardoi","district_code":"155","address1":"Sawayajpur","address2":"","latitude":"27.3287","longitude":"80.1625","accuracy":"4"},{"address3":"Sahjanpur","state":"Uttar Pradesh","state_code":"36","district":"Hardoi","district_code":"155","address1":"Sawayajpur","address2":"","latitude":"27.4891","longitude":"79.8353","accuracy":"4"},{"address3":"Baruwara","state":"Uttar Pradesh","state_code":"36","district":"Hardoi","district_code":"155","address1":"Sawayajpur","address2":"","latitude":"27.5213","longitude":"79.826","accuracy":"3"},{"address3":"Bilsari","state":"Uttar Pradesh","state_code":"36","district":"Hardoi","district_code":"155","address1":"Sawayajpur","address2":"","latitude":"27.5768","longitude":"79.762","accuracy":"4"},{"address3":"Daultpur","state":"Uttar Pradesh","state_code":"36","district":"Hardoi","district_code":"155","address1":"Sawayajpur","address2":"","latitude":"27.5213","longitude":"79.826","accuracy":"3"},{"address3":"Baijupur","state":"Uttar Pradesh","state_code":"36","district":"Hardoi","district_code":"155","address1":"Sawayajpur","address2":"","latitude":"27.5165","longitude":"79.8753","accuracy":"4"},{"address3":"Aliganj Nankheria","state":"Uttar Pradesh","state_code":"36","district":"Hardoi","district_code":"155","address1":"Sawayajpur","address2":"","latitude":"27.5213","longitude":"79.826","accuracy":"3"},{"address3":"Munder","state":"Uttar Pradesh","state_code":"36","district":"Hardoi","district_code":"155","address1":"Sawayajpur","address2":"","latitude":"27.5036","longitude":"79.7806","accuracy":"4"},{"address3":"Aamtara","state":"Uttar Pradesh","state_code":"36","district":"Hardoi","district_code":"155","address1":"Sawayajpur","address2":"","latitude":"27.5213","longitude":"79.826","accuracy":"3"},{"address3":"Maikpur","state":"Uttar Pradesh","state_code":"36","district":"Hardoi","district_code":"155","address1":"Sawayajpur","address2":"","latitude":"27.3287","longitude":"80.1625","accuracy":"4"},{"address3":"Anangpur","state":"Uttar Pradesh","state_code":"36","district":"Hardoi","district_code":"155","address1":"Sawayajpur","address2":"","latitude":"27.5213","longitude":"79.826","accuracy":"3"},{"address3":"Pali (Hardoi)","state":"Uttar Pradesh","state_code":"36","district":"Hardoi","district_code":"155","address1":"Sawayajpur","address2":"","latitude":"27.5317","longitude":"79.8436","accuracy":"4"},{"address3":"Jeora","state":"Uttar Pradesh","state_code":"36","district":"Hardoi","district_code":"155","address1":"Sawayajpur","address2":"","latitude":"27.5471","longitude":"79.7844","accuracy":"4"},{"address3":"Sarai Raghav","state":"Uttar Pradesh","state_code":"36","district":"Hardoi","district_code":"155","address1":"Sawayajpur","address2":"","latitude":"27.5213","longitude":"79.826","accuracy":"3"},{"address3":"Bharakhani","state":"Uttar Pradesh","state_code":"36","district":"Hardoi","district_code":"155","address1":"Sawayajpur","address2":"","latitude":"27.5213","longitude":"79.826","accuracy":"3"},{"address3":"Harha Malikapur","state":"Uttar Pradesh","state_code":"36","district":"Hardoi","district_code":"155","address1":"Sawayajpur","address2":"","latitude":"27.5213","longitude":"79.826","accuracy":"3"}],"241124":[{"address3":"Kakarghata","state":"Uttar Pradesh","state_code":"36","district":"Hardoi","district_code":"155","address1":"Sawayajpur","address2":"","latitude":"27.6073","longitude":"79.9777","accuracy":"4"},{"address3":"Harrai","state":"Uttar Pradesh","state_code":"36","district":"Hardoi","district_code":"155","address1":"Sawayajpur","address2":"","latitude":"27.6297","longitude":"80.2195","accuracy":"4"},{"address3":"Udharanpur","state":"Uttar Pradesh","state_code":"36","district":"Hardoi","district_code":"155","address1":"Sawayajpur","address2":"","latitude":"27.3287","longitude":"80.1625","accuracy":"4"},{"address3":"Jamura","state":"Uttar Pradesh","state_code":"36","district":"Hardoi","district_code":"155","address1":"Sawayajpur","address2":"","latitude":"27.7261","longitude":"80.037","accuracy":"4"},{"address3":"Fatehpur Gayand","state":"Uttar Pradesh","state_code":"36","district":"Hardoi","district_code":"155","address1":"Sawayajpur","address2":"","latitude":"27.5945","longitude":"79.926","accuracy":"3"},{"address3":"Pareli","state":"Uttar Pradesh","state_code":"36","district":"Hardoi","district_code":"155","address1":"Sawayajpur","address2":"","latitude":"27.5757","longitude":"79.8757","accuracy":"4"},{"address3":"Sarsawan","state":"Uttar Pradesh","state_code":"36","district":"Hardoi","district_code":"155","address1":"Sawayajpur","address2":"","latitude":"27.3287","longitude":"80.1625","accuracy":"4"},{"address3":"Shahabad (Hardoi)","state":"Uttar Pradesh","state_code":"36","district":"Hardoi","district_code":"155","address1":"Shahabad","address2":"","latitude":"27.6431","longitude":"79.9402","accuracy":"4"},{"address3":"Fatehpur Gazi","state":"Uttar Pradesh","state_code":"36","district":"Hardoi","district_code":"155","address1":"Sawayajpur","address2":"","latitude":"27.5945","longitude":"79.926","accuracy":"3"},{"address3":"Kundi","state":"Uttar Pradesh","state_code":"36","district":"Hardoi","district_code":"155","address1":"Sawayajpur","address2":"","latitude":"27.6384","longitude":"79.8405","accuracy":"4"},{"address3":"Nagla Lothu","state":"Uttar Pradesh","state_code":"36","district":"Hardoi","district_code":"155","address1":"Sawayajpur","address2":"","latitude":"27.5945","longitude":"79.926","accuracy":"3"},{"address3":"Kodra Saraiya","state":"Uttar Pradesh","state_code":"36","district":"Hardoi","district_code":"155","address1":"Sawayajpur","address2":"","latitude":"27.5945","longitude":"79.926","accuracy":"3"},{"address3":"Basit Nagar","state":"Uttar Pradesh","state_code":"36","district":"Hardoi","district_code":"155","address1":"Sawayajpur","address2":"","latitude":"27.5945","longitude":"79.926","accuracy":"3"},{"address3":"Anjhi Gaon","state":"Uttar Pradesh","state_code":"36","district":"Hardoi","district_code":"155","address1":"Sawayajpur","address2":"","latitude":"27.5945","longitude":"79.926","accuracy":"3"},{"address3":"Shahabad B.S.","state":"Uttar Pradesh","state_code":"36","district":"Hardoi","district_code":"155","address1":"Sawayajpur","address2":"","latitude":"27.5945","longitude":"79.926","accuracy":"3"},{"address3":"Singulapur","state":"Uttar Pradesh","state_code":"36","district":"Hardoi","district_code":"155","address1":"Sawayajpur","address2":"","latitude":"27.5986","longitude":"79.8618","accuracy":"4"},{"address3":"Tumurkee","state":"Uttar Pradesh","state_code":"36","district":"Hardoi","district_code":"155","address1":"Sawayajpur","address2":"","latitude":"27.5945","longitude":"79.926","accuracy":"3"},{"address3":"Siroman Nagar","state":"Uttar Pradesh","state_code":"36","district":"Hardoi","district_code":"155","address1":"Sawayajpur","address2":"","latitude":"27.5945","longitude":"79.926","accuracy":"3"},{"address3":"Sikandarpu Narkatara","state":"Uttar Pradesh","state_code":"36","district":"Hardoi","district_code":"155","address1":"Sawayajpur","address2":"","latitude":"27.5945","longitude":"79.926","accuracy":"3"},{"address3":"Anjhi R S","state":"Uttar Pradesh","state_code":"36","district":"Hardoi","district_code":"155","address1":"Sawayajpur","address2":"","latitude":"27.5945","longitude":"79.926","accuracy":"3"}],"241125":[{"address3":"Allipur","state":"Uttar Pradesh","state_code":"36","district":"Hardoi","district_code":"155","address1":"Hardoi","address2":"","latitude":"27.3287","longitude":"80.1625","accuracy":"4"},{"address3":"Majhila","state":"Uttar Pradesh","state_code":"36","district":"Hardoi","district_code":"155","address1":"Hardoi","address2":"","latitude":"27.3287","longitude":"80.1625","accuracy":"4"},{"address3":"Manpur","state":"Uttar Pradesh","state_code":"36","district":"Hardoi","district_code":"155","address1":"Hardoi","address2":"","latitude":"27.4881","longitude":"79.9873","accuracy":"4"},{"address3":"Bijgawan","state":"Uttar Pradesh","state_code":"36","district":"Hardoi","district_code":"155","address1":"Hardoi","address2":"","latitude":"27.5427","longitude":"80.0827","accuracy":"4"},{"address3":"Todarpur R S","state":"Uttar Pradesh","state_code":"36","district":"Hardoi","district_code":"155","address1":"Hardoi","address2":"","latitude":"27.1637","longitude":"79.987","accuracy":"3"},{"address3":"Kaimi","state":"Uttar Pradesh","state_code":"36","district":"Hardoi","district_code":"155","address1":"Hardoi","address2":"","latitude":"27.6106","longitude":"80.0659","accuracy":"4"},{"address3":"Behta Gokul","state":"Uttar Pradesh","state_code":"36","district":"Hardoi","district_code":"155","address1":"Hardoi","address2":"","latitude":"27.5173","longitude":"80.0176","accuracy":"4"},{"address3":"Mawaiya","state":"Uttar Pradesh","state_code":"36","district":"Hardoi","district_code":"155","address1":"Hardoi","address2":"","latitude":"27.0532","longitude":"80.0575","accuracy":"4"},{"address3":"Tolwa Aat Danpur","state":"Uttar Pradesh","state_code":"36","district":"Hardoi","district_code":"155","address1":"Hardoi","address2":"","latitude":"27.1637","longitude":"79.987","accuracy":"3"},{"address3":"Sakaha","state":"Uttar Pradesh","state_code":"36","district":"Hardoi","district_code":"155","address1":"Hardoi","address2":"","latitude":"27.4902","longitude":"80.0267","accuracy":"4"},{"address3":"Umrauli","state":"Uttar Pradesh","state_code":"36","district":"Hardoi","district_code":"155","address1":"Hardoi","address2":"","latitude":"27.1799","longitude":"79.8886","accuracy":"4"},{"address3":"Todarpur Gaon","state":"Uttar Pradesh","state_code":"36","district":"Hardoi","district_code":"155","address1":"Hardoi","address2":"","latitude":"27.1637","longitude":"79.987","accuracy":"3"},{"address3":"Sharma Fatehpur","state":"Uttar Pradesh","state_code":"36","district":"Hardoi","district_code":"155","address1":"Hardoi","address2":"","latitude":"27.1637","longitude":"79.987","accuracy":"3"},{"address3":"Chathia Dhanwar","state":"Uttar Pradesh","state_code":"36","district":"Hardoi","district_code":"155","address1":"Hardoi","address2":"","latitude":"27.1637","longitude":"79.987","accuracy":"3"},{"address3":"Bahera Rasoolpur","state":"Uttar Pradesh","state_code":"36","district":"Hardoi","district_code":"155","address1":"Hardoi","address2":"","latitude":"27.1637","longitude":"79.987","accuracy":"3"}],"241126":[{"address3":"Balamau Village","state":"Uttar Pradesh","state_code":"36","district":"Hardoi","district_code":"155","address1":"Sandila","address2":"","latitude":"27.1459","longitude":"80.2879","accuracy":"3"},{"address3":"Kalauli","state":"Uttar Pradesh","state_code":"36","district":"Hardoi","district_code":"155","address1":"Sandila","address2":"","latitude":"27.3287","longitude":"80.1625","accuracy":"3"},{"address3":"Kachhauna","state":"Uttar Pradesh","state_code":"36","district":"Hardoi","district_code":"155","address1":"Sandila","address2":"","latitude":"27.1609","longitude":"80.3438","accuracy":"4"},{"address3":"Atwa Ali Mardanpur","state":"Uttar Pradesh","state_code":"36","district":"Hardoi","district_code":"155","address1":"Sandila","address2":"","latitude":"27.131","longitude":"80.232","accuracy":"4"},{"address3":"Lonhra","state":"Uttar Pradesh","state_code":"36","district":"Hardoi","district_code":"155","address1":"Sandila","address2":"","latitude":"27.1459","longitude":"80.2879","accuracy":"3"},{"address3":"Samspur","state":"Uttar Pradesh","state_code":"36","district":"Hardoi","district_code":"155","address1":"Sandila","address2":"","latitude":"27.1459","longitude":"80.2879","accuracy":"3"},{"address3":"Kursath","state":"Uttar Pradesh","state_code":"36","district":"Hardoi","district_code":"155","address1":"Sandila","address2":"","latitude":"27.1459","longitude":"80.2879","accuracy":"3"},{"address3":"Hathaura Raj","state":"Uttar Pradesh","state_code":"36","district":"Hardoi","district_code":"155","address1":"Sandila","address2":"","latitude":"27.1459","longitude":"80.2879","accuracy":"3"},{"address3":"Gajoo","state":"Uttar Pradesh","state_code":"36","district":"Hardoi","district_code":"155","address1":"Sandila","address2":"","latitude":"27.1459","longitude":"80.2879","accuracy":"3"},{"address3":"Barwa Sarsand","state":"Uttar Pradesh","state_code":"36","district":"Hardoi","district_code":"155","address1":"Sandila","address2":"","latitude":"27.1459","longitude":"80.2879","accuracy":"3"}],"241127":[{"address3":"Sandila I. Estate","state":"Uttar Pradesh","state_code":"36","district":"Hardoi","district_code":"155","address1":"Sandila","address2":"","latitude":"27.4083","longitude":"79.9617","accuracy":"1"}],"241201":[{"address3":"Dewari","state":"Uttar Pradesh","state_code":"36","district":"Hardoi","district_code":"155","address1":"Sandila","address2":"","latitude":"27.3287","longitude":"80.1625","accuracy":"4"},{"address3":"Birauli","state":"Uttar Pradesh","state_code":"36","district":"Hardoi","district_code":"155","address1":"Sandila","address2":"","latitude":"27.3287","longitude":"80.1625","accuracy":"4"},{"address3":"Bhatoli","state":"Uttar Pradesh","state_code":"36","district":"Hardoi","district_code":"155","address1":"Sandila","address2":"","latitude":"27.3287","longitude":"80.1625","accuracy":"4"},{"address3":"Madar","state":"Uttar Pradesh","state_code":"36","district":"Hardoi","district_code":"155","address1":"Sandila","address2":"","latitude":"27.3287","longitude":"80.1625","accuracy":"4"},{"address3":"Bahlolpur","state":"Uttar Pradesh","state_code":"36","district":"Hardoi","district_code":"155","address1":"Sandila","address2":"","latitude":"27.3287","longitude":"80.1625","accuracy":"4"},{"address3":"Kudauni","state":"Uttar Pradesh","state_code":"36","district":"Hardoi","district_code":"155","address1":"Sandila","address2":"","latitude":"26.0996","longitude":"81.833","accuracy":"3"},{"address3":"Jarha","state":"Uttar Pradesh","state_code":"36","district":"Hardoi","district_code":"155","address1":"Sandila","address2":"","latitude":"27.3287","longitude":"80.1625","accuracy":"4"},{"address3":"Hiya","state":"Uttar Pradesh","state_code":"36","district":"Hardoi","district_code":"155","address1":"Sandila","address2":"","latitude":"26.0996","longitude":"81.833","accuracy":"3"},{"address3":"Bara Gaon","state":"Uttar Pradesh","state_code":"36","district":"Hardoi","district_code":"155","address1":"Sandila","address2":"","latitude":"26.0996","longitude":"81.833","accuracy":"3"},{"address3":"Behander","state":"Uttar Pradesh","state_code":"36","district":"Hardoi","district_code":"155","address1":"Sandila","address2":"","latitude":"26.0996","longitude":"81.833","accuracy":"3"},{"address3":"Behendar Khurd","state":"Uttar Pradesh","state_code":"36","district":"Hardoi","district_code":"155","address1":"Sandila","address2":"","latitude":"26.0996","longitude":"81.833","accuracy":"3"},{"address3":"Jahidpur","state":"Uttar Pradesh","state_code":"36","district":"Hardoi","district_code":"155","address1":"Sandila","address2":"","latitude":"26.0996","longitude":"81.833","accuracy":"3"},{"address3":"Gauri Dayampur","state":"Uttar Pradesh","state_code":"36","district":"Hardoi","district_code":"155","address1":"Sandila","address2":"","latitude":"26.0996","longitude":"81.833","accuracy":"3"}],"241202":[{"address3":"Hazipur","state":"Uttar Pradesh","state_code":"36","district":"Hardoi","district_code":"155","address1":"Sandila","address2":"","latitude":"27.3287","longitude":"80.1625","accuracy":"4"},{"address3":"Bani","state":"Uttar Pradesh","state_code":"36","district":"Hardoi","district_code":"155","address1":"Sandila","address2":"","latitude":"27.1579","longitude":"80.7258","accuracy":"4"},{"address3":"Pawayan","state":"Uttar Pradesh","state_code":"36","district":"Hardoi","district_code":"155","address1":"Sandila","address2":"","latitude":"26.4759","longitude":"81.3662","accuracy":"3"},{"address3":"Bharawan","state":"Uttar Pradesh","state_code":"36","district":"Hardoi","district_code":"155","address1":"Sandila","address2":"","latitude":"27.1583","longitude":"80.706","accuracy":"4"},{"address3":"Majhigawan","state":"Uttar Pradesh","state_code":"36","district":"Hardoi","district_code":"155","address1":"Sandila","address2":"","latitude":"27.3287","longitude":"80.1625","accuracy":"4"},{"address3":"Bhatpur","state":"Uttar Pradesh","state_code":"36","district":"Hardoi","district_code":"155","address1":"Sandila","address2":"","latitude":"27.3287","longitude":"80.1625","accuracy":"4"},{"address3":"Mahitha","state":"Uttar Pradesh","state_code":"36","district":"Hardoi","district_code":"155","address1":"Sandila","address2":"","latitude":"26.4759","longitude":"81.3662","accuracy":"3"},{"address3":"Chhawan","state":"Uttar Pradesh","state_code":"36","district":"Hardoi","district_code":"155","address1":"Sandila","address2":"","latitude":"27.1272","longitude":"80.6465","accuracy":"4"},{"address3":"Kaudiya","state":"Uttar Pradesh","state_code":"36","district":"Hardoi","district_code":"155","address1":"Sandila","address2":"","latitude":"26.4759","longitude":"81.3662","accuracy":"3"},{"address3":"Chhatia Rampur","state":"Uttar Pradesh","state_code":"36","district":"Hardoi","district_code":"155","address1":"Sandila","address2":"","latitude":"26.4759","longitude":"81.3662","accuracy":"3"},{"address3":"Ajamatpur","state":"Uttar Pradesh","state_code":"36","district":"Hardoi","district_code":"155","address1":"Sandila","address2":"","latitude":"26.4759","longitude":"81.3662","accuracy":"3"}],"241203":[{"address3":"Tikra Khurd","state":"Uttar Pradesh","state_code":"36","district":"Hardoi","district_code":"155","address1":"Sandila","address2":"","latitude":"27.0896","longitude":"80.6608","accuracy":"4"},{"address3":"Jangaon","state":"Uttar Pradesh","state_code":"36","district":"Hardoi","district_code":"155","address1":"Sandila","address2":"","latitude":"27.0896","longitude":"80.6608","accuracy":"3"},{"address3":"Kashipur Baheria","state":"Uttar Pradesh","state_code":"36","district":"Hardoi","district_code":"155","address1":"Sandila","address2":"","latitude":"27.0896","longitude":"80.6608","accuracy":"3"},{"address3":"Sarva","state":"Uttar Pradesh","state_code":"36","district":"Hardoi","district_code":"155","address1":"Sandila","address2":"","latitude":"27.0896","longitude":"80.6608","accuracy":"3"},{"address3":"Bahuti","state":"Uttar Pradesh","state_code":"36","district":"Hardoi","district_code":"155","address1":"Sandila","address2":"","latitude":"27.3287","longitude":"80.1625","accuracy":"3"},{"address3":"Goni Gondwa","state":"Uttar Pradesh","state_code":"36","district":"Hardoi","district_code":"155","address1":"Sandila","address2":"","latitude":"27.0896","longitude":"80.6608","accuracy":"3"},{"address3":"Dhikunni","state":"Uttar Pradesh","state_code":"36","district":"Hardoi","district_code":"155","address1":"Sandila","address2":"","latitude":"27.0896","longitude":"80.6608","accuracy":"3"},{"address3":"Majhigawan","state":"Uttar Pradesh","state_code":"36","district":"Hardoi","district_code":"155","address1":"Sandila","address2":"","latitude":"27.3287","longitude":"80.1625","accuracy":"3"},{"address3":"Erka Bherka","state":"Uttar Pradesh","state_code":"36","district":"Hardoi","district_code":"155","address1":"Sandila","address2":"","latitude":"27.0896","longitude":"80.6608","accuracy":"3"},{"address3":"Sikrori","state":"Uttar Pradesh","state_code":"36","district":"Hardoi","district_code":"155","address1":"Sandila","address2":"","latitude":"27.0896","longitude":"80.6608","accuracy":"3"},{"address3":"Majhigawan Gadeora","state":"Uttar Pradesh","state_code":"36","district":"Hardoi","district_code":"155","address1":"Sandila","address2":"","latitude":"27.0896","longitude":"80.6608","accuracy":"3"},{"address3":"Mohammadpur Belwaran","state":"Uttar Pradesh","state_code":"36","district":"Hardoi","district_code":"155","address1":"Sandila","address2":"","latitude":"27.0896","longitude":"80.6608","accuracy":"3"},{"address3":"Atsaliya","state":"Uttar Pradesh","state_code":"36","district":"Hardoi","district_code":"155","address1":"Sandila","address2":"","latitude":"27.0896","longitude":"80.6608","accuracy":"3"}],"241204":[{"address3":"Loomamau","state":"Uttar Pradesh","state_code":"36","district":"Hardoi","district_code":"155","address1":"NA","address2":"","latitude":"26.1176","longitude":"80.5631","accuracy":"3"},{"address3":"Sandila","state":"Uttar Pradesh","state_code":"36","district":"Hardoi","district_code":"155","address1":"Sandila","address2":"","latitude":"27.0699","longitude":"80.515","accuracy":"4"},{"address3":"Malaiya","state":"Uttar Pradesh","state_code":"36","district":"Hardoi","district_code":"155","address1":"NA","address2":"","latitude":"26.1176","longitude":"80.5631","accuracy":"3"},{"address3":"Malehra","state":"Uttar Pradesh","state_code":"36","district":"Hardoi","district_code":"155","address1":"NA","address2":"","latitude":"27.3287","longitude":"80.1625","accuracy":"4"},{"address3":"Meer Nagar Ajigawan","state":"Uttar Pradesh","state_code":"36","district":"Hardoi","district_code":"155","address1":"NA","address2":"","latitude":"26.1176","longitude":"80.5631","accuracy":"3"},{"address3":"Dalelnagar","state":"Uttar Pradesh","state_code":"36","district":"Hardoi","district_code":"155","address1":"NA","address2":"","latitude":"26.1176","longitude":"80.5631","accuracy":"3"},{"address3":"Rainso","state":"Uttar Pradesh","state_code":"36","district":"Hardoi","district_code":"155","address1":"NA","address2":"","latitude":"26.1176","longitude":"80.5631","accuracy":"3"},{"address3":"Saank","state":"Uttar Pradesh","state_code":"36","district":"Hardoi","district_code":"155","address1":"NA","address2":"","latitude":"26.1176","longitude":"80.5631","accuracy":"3"},{"address3":"Sandila Town","state":"Uttar Pradesh","state_code":"36","district":"Hardoi","district_code":"155","address1":"NA","address2":"","latitude":"26.1176","longitude":"80.5631","accuracy":"3"},{"address3":"Atrauli","state":"Uttar Pradesh","state_code":"36","district":"Hardoi","district_code":"155","address1":"NA","address2":"","latitude":"27.1319","longitude":"80.7691","accuracy":"4"},{"address3":"Atia Sahpur","state":"Uttar Pradesh","state_code":"36","district":"Hardoi","district_code":"155","address1":"NA","address2":"","latitude":"26.1176","longitude":"80.5631","accuracy":"3"},{"address3":"Chhanoiya","state":"Uttar Pradesh","state_code":"36","district":"Hardoi","district_code":"155","address1":"NA","address2":"","latitude":"27.3287","longitude":"80.1625","accuracy":"4"},{"address3":"Atwa Bhasen","state":"Uttar Pradesh","state_code":"36","district":"Hardoi","district_code":"155","address1":"NA","address2":"","latitude":"26.1176","longitude":"80.5631","accuracy":"3"},{"address3":"Teriya","state":"Uttar Pradesh","state_code":"36","district":"Hardoi","district_code":"155","address1":"NA","address2":"","latitude":"26.1176","longitude":"80.5631","accuracy":"3"},{"address3":"Sarve","state":"Uttar Pradesh","state_code":"36","district":"Hardoi","district_code":"155","address1":"NA","address2":"","latitude":"26.1176","longitude":"80.5631","accuracy":"3"}],"241301":[{"address3":"Dabha","state":"Uttar Pradesh","state_code":"36","district":"Hardoi","district_code":"155","address1":"Bilgram","address2":"","latitude":"27.25","longitude":"80.022","accuracy":"4"},{"address3":"Parsola","state":"Uttar Pradesh","state_code":"36","district":"Hardoi","district_code":"155","address1":"Bilgram","address2":"","latitude":"27.072","longitude":"80.0124","accuracy":"4"},{"address3":"Bilgram","state":"Uttar Pradesh","state_code":"36","district":"Hardoi","district_code":"155","address1":"Bilgram","address2":"","latitude":"27.1751","longitude":"80.032","accuracy":"4"},{"address3":"Durgaganj","state":"Uttar Pradesh","state_code":"36","district":"Hardoi","district_code":"155","address1":"Bilgram","address2":"","latitude":"27.2322","longitude":"79.9944","accuracy":"4"},{"address3":"Bilgram B.S.","state":"Uttar Pradesh","state_code":"36","district":"Hardoi","district_code":"155","address1":"Bilgram","address2":"","latitude":"27.187","longitude":"80.0164","accuracy":"3"},{"address3":"Chhibaramau","state":"Uttar Pradesh","state_code":"36","district":"Hardoi","district_code":"155","address1":"Bilgram","address2":"","latitude":"27.187","longitude":"80.0164","accuracy":"3"},{"address3":"Pasner","state":"Uttar Pradesh","state_code":"36","district":"Hardoi","district_code":"155","address1":"Bilgram","address2":"","latitude":"27.2057","longitude":"80.0211","accuracy":"4"},{"address3":"Sugwan","state":"Uttar Pradesh","state_code":"36","district":"Hardoi","district_code":"155","address1":"Bilgram","address2":"","latitude":"27.187","longitude":"80.0164","accuracy":"3"},{"address3":"Tundwal","state":"Uttar Pradesh","state_code":"36","district":"Hardoi","district_code":"155","address1":"Bilgram","address2":"","latitude":"27.187","longitude":"80.0164","accuracy":"3"},{"address3":"Jareuli Sherpur","state":"Uttar Pradesh","state_code":"36","district":"Hardoi","district_code":"155","address1":"Bilgram","address2":"","latitude":"27.187","longitude":"80.0164","accuracy":"3"},{"address3":"Noorpur  Hathaura","state":"Uttar Pradesh","state_code":"36","district":"Hardoi","district_code":"155","address1":"Bilgram","address2":"","latitude":"27.187","longitude":"80.0164","accuracy":"3"},{"address3":"Andharra","state":"Uttar Pradesh","state_code":"36","district":"Hardoi","district_code":"155","address1":"Bilgram","address2":"","latitude":"27.187","longitude":"80.0164","accuracy":"3"},{"address3":"Dahigawan","state":"Uttar Pradesh","state_code":"36","district":"Hardoi","district_code":"155","address1":"Bilgram","address2":"","latitude":"27.187","longitude":"80.0164","accuracy":"3"}],"241302":[{"address3":"Sadarpur","state":"Uttar Pradesh","state_code":"36","district":"Hardoi","district_code":"155","address1":"Sandila","address2":"","latitude":"27.0428","longitude":"80.5037","accuracy":"4"},{"address3":"Selapur","state":"Uttar Pradesh","state_code":"36","district":"Hardoi","district_code":"155","address1":"Sandila","address2":"","latitude":"27.0954","longitude":"80.1193","accuracy":"4"},{"address3":"Gaura","state":"Uttar Pradesh","state_code":"36","district":"Hardoi","district_code":"155","address1":"Sandila","address2":"","latitude":"27.1386","longitude":"80.7121","accuracy":"4"},{"address3":"Parcha Rasoolpur","state":"Uttar Pradesh","state_code":"36","district":"Hardoi","district_code":"155","address1":"Sandila","address2":"","latitude":"27.0923","longitude":"80.445","accuracy":"3"},{"address3":"Sautera","state":"Uttar Pradesh","state_code":"36","district":"Hardoi","district_code":"155","address1":"Sandila","address2":"","latitude":"27.0923","longitude":"80.445","accuracy":"3"},{"address3":"Pahuntera","state":"Uttar Pradesh","state_code":"36","district":"Hardoi","district_code":"155","address1":"Sandila","address2":"","latitude":"27.0923","longitude":"80.445","accuracy":"3"},{"address3":"Shahbda","state":"Uttar Pradesh","state_code":"36","district":"Hardoi","district_code":"155","address1":"Sandila","address2":"","latitude":"27.0923","longitude":"80.445","accuracy":"3"},{"address3":"Shahpur Basudeo","state":"Uttar Pradesh","state_code":"36","district":"Hardoi","district_code":"155","address1":"Sandila","address2":"","latitude":"27.0923","longitude":"80.445","accuracy":"3"},{"address3":"Shuklapur Bhagat","state":"Uttar Pradesh","state_code":"36","district":"Hardoi","district_code":"155","address1":"Sandila","address2":"","latitude":"27.0923","longitude":"80.445","accuracy":"3"},{"address3":"Madhoganj (Hardoi)","state":"Uttar Pradesh","state_code":"36","district":"Hardoi","district_code":"155","address1":"Sandila","address2":"","latitude":"27.0923","longitude":"80.445","accuracy":"3"},{"address3":"Odra Pachlai","state":"Uttar Pradesh","state_code":"36","district":"Hardoi","district_code":"155","address1":"Sandila","address2":"","latitude":"27.0923","longitude":"80.445","accuracy":"3"},{"address3":"Gauntra","state":"Uttar Pradesh","state_code":"36","district":"Hardoi","district_code":"155","address1":"Sandila","address2":"","latitude":"27.0923","longitude":"80.445","accuracy":"3"}],"241303":[{"address3":"Babatmau","state":"Uttar Pradesh","state_code":"36","district":"Hardoi","district_code":"155","address1":"Sandila","address2":"","latitude":"27.0528","longitude":"80.0252","accuracy":"4"},{"address3":"Raghopur","state":"Uttar Pradesh","state_code":"36","district":"Hardoi","district_code":"155","address1":"Sandila","address2":"","latitude":"27.3287","longitude":"80.1625","accuracy":"4"},{"address3":"Shahpur Ganga","state":"Uttar Pradesh","state_code":"36","district":"Hardoi","district_code":"155","address1":"Sandila","address2":"","latitude":"27.0903","longitude":"80.3838","accuracy":"3"},{"address3":"Barauna","state":"Uttar Pradesh","state_code":"36","district":"Hardoi","district_code":"155","address1":"Sandila","address2":"","latitude":"27.0191","longitude":"80.2046","accuracy":"4"},{"address3":"Barahuwan","state":"Uttar Pradesh","state_code":"36","district":"Hardoi","district_code":"155","address1":"Sandila","address2":"","latitude":"27.0903","longitude":"80.3838","accuracy":"3"},{"address3":"Goswa","state":"Uttar Pradesh","state_code":"36","district":"Hardoi","district_code":"155","address1":"Sandila","address2":"","latitude":"27.1056","longitude":"80.6331","accuracy":"4"},{"address3":"Bhithai","state":"Uttar Pradesh","state_code":"36","district":"Hardoi","district_code":"155","address1":"Sandila","address2":"","latitude":"27.0903","longitude":"80.3838","accuracy":"3"},{"address3":"Bakhaura","state":"Uttar Pradesh","state_code":"36","district":"Hardoi","district_code":"155","address1":"Sandila","address2":"","latitude":"27.0152","longitude":"80.2399","accuracy":"4"},{"address3":"Daru Kuinwa","state":"Uttar Pradesh","state_code":"36","district":"Hardoi","district_code":"155","address1":"Sandila","address2":"","latitude":"27.0903","longitude":"80.3838","accuracy":"3"},{"address3":"Bansa","state":"Uttar Pradesh","state_code":"36","district":"Hardoi","district_code":"155","address1":"Sandila","address2":"","latitude":"27.0805","longitude":"80.2053","accuracy":"4"},{"address3":"Mallawan","state":"Uttar Pradesh","state_code":"36","district":"Hardoi","district_code":"155","address1":"Sandila","address2":"","latitude":"27.0903","longitude":"80.3838","accuracy":"3"},{"address3":"Ishwarpur Sain","state":"Uttar Pradesh","state_code":"36","district":"Hardoi","district_code":"155","address1":"Sandila","address2":"","latitude":"27.0903","longitude":"80.3838","accuracy":"3"},{"address3":"Matiyamau","state":"Uttar Pradesh","state_code":"36","district":"Hardoi","district_code":"155","address1":"Sandila","address2":"","latitude":"27.0903","longitude":"80.3838","accuracy":"3"},{"address3":"Phulai","state":"Uttar Pradesh","state_code":"36","district":"Hardoi","district_code":"155","address1":"Sandila","address2":"","latitude":"27.0903","longitude":"80.3838","accuracy":"3"},{"address3":"Purwawan","state":"Uttar Pradesh","state_code":"36","district":"Hardoi","district_code":"155","address1":"Sandila","address2":"","latitude":"27.0903","longitude":"80.3838","accuracy":"3"},{"address3":"Shahpur Pawar","state":"Uttar Pradesh","state_code":"36","district":"Hardoi","district_code":"155","address1":"Sandila","address2":"","latitude":"27.0903","longitude":"80.3838","accuracy":"3"},{"address3":"Bhagwant Nagar","state":"Uttar Pradesh","state_code":"36","district":"Hardoi","district_code":"155","address1":"Mallawan","address2":"","latitude":"27.0903","longitude":"80.3838","accuracy":"3"}],"241304":[{"address3":"Harraiya","state":"Uttar Pradesh","state_code":"36","district":"Hardoi","district_code":"155","address1":"Sandila","address2":"","latitude":"27.3287","longitude":"80.1625","accuracy":"4"},{"address3":"Chathia","state":"Uttar Pradesh","state_code":"36","district":"Hardoi","district_code":"155","address1":"Sandila","address2":"","latitude":"27.0899","longitude":"80.7172","accuracy":"4"},{"address3":"Kalyanmal","state":"Uttar Pradesh","state_code":"36","district":"Hardoi","district_code":"155","address1":"Sandila","address2":"","latitude":"27.2354","longitude":"80.5349","accuracy":"4"},{"address3":"Raipur","state":"Uttar Pradesh","state_code":"36","district":"Hardoi","district_code":"155","address1":"Sandila","address2":"","latitude":"27.2368","longitude":"80.6331","accuracy":"4"},{"address3":"Kuniya","state":"Uttar Pradesh","state_code":"36","district":"Hardoi","district_code":"155","address1":"Sandila","address2":"","latitude":"27.3287","longitude":"80.1625","accuracy":"4"},{"address3":"Beruwa","state":"Uttar Pradesh","state_code":"36","district":"Hardoi","district_code":"155","address1":"Sandila","address2":"","latitude":"26.9915","longitude":"81.0506","accuracy":"3"},{"address3":"Kothawan","state":"Uttar Pradesh","state_code":"36","district":"Hardoi","district_code":"155","address1":"Sandila","address2":"","latitude":"26.9915","longitude":"81.0506","accuracy":"3"},{"address3":"Beniganj","state":"Uttar Pradesh","state_code":"36","district":"Hardoi","district_code":"155","address1":"Sandila","address2":"","latitude":"27.2929","longitude":"80.4436","accuracy":"4"},{"address3":"Nagwa","state":"Uttar Pradesh","state_code":"36","district":"Hardoi","district_code":"155","address1":"Sandila","address2":"","latitude":"27.3287","longitude":"80.1625","accuracy":"4"},{"address3":"Jarauwa","state":"Uttar Pradesh","state_code":"36","district":"Hardoi","district_code":"155","address1":"Sandila","address2":"","latitude":"27.3287","longitude":"80.1625","accuracy":"4"},{"address3":"Tikari","state":"Uttar Pradesh","state_code":"36","district":"Hardoi","district_code":"155","address1":"Sandila","address2":"","latitude":"27.3287","longitude":"80.1625","accuracy":"4"},{"address3":"Bhikpur Aima","state":"Uttar Pradesh","state_code":"36","district":"Hardoi","district_code":"155","address1":"Sandila","address2":"","latitude":"26.9915","longitude":"81.0506","accuracy":"3"},{"address3":"Jairajpur","state":"Uttar Pradesh","state_code":"36","district":"Hardoi","district_code":"155","address1":"Sandila","address2":"","latitude":"27.3287","longitude":"80.1625","accuracy":"4"},{"address3":"Hans Barauli","state":"Uttar Pradesh","state_code":"36","district":"Hardoi","district_code":"155","address1":"Sandila","address2":"","latitude":"26.9915","longitude":"81.0506","accuracy":"3"},{"address3":"Ugpur","state":"Uttar Pradesh","state_code":"36","district":"Hardoi","district_code":"155","address1":"Sandila","address2":"","latitude":"27.3287","longitude":"80.1625","accuracy":"4"},{"address3":"Gondarao","state":"Uttar Pradesh","state_code":"36","district":"Hardoi","district_code":"155","address1":"Sandila","address2":"","latitude":"26.9915","longitude":"81.0506","accuracy":"3"},{"address3":"Majhigawan","state":"Uttar Pradesh","state_code":"36","district":"Hardoi","district_code":"155","address1":"Sandila","address2":"","latitude":"27.3287","longitude":"80.1625","accuracy":"3"},{"address3":"Karim Nagar Sunauwa","state":"Uttar Pradesh","state_code":"36","district":"Hardoi","district_code":"155","address1":"Sandila","address2":"","latitude":"26.9915","longitude":"81.0506","accuracy":"3"},{"address3":"Umrari","state":"Uttar Pradesh","state_code":"36","district":"Hardoi","district_code":"155","address1":"Sandila","address2":"","latitude":"26.9915","longitude":"81.0506","accuracy":"3"}],"241305":[{"address3":"Nayagaon","state":"Uttar Pradesh","state_code":"36","district":"Hardoi","district_code":"155","address1":"Sandila","address2":"","latitude":"27.0776","longitude":"80.2364","accuracy":"4"},{"address3":"Subhan Khera","state":"Uttar Pradesh","state_code":"36","district":"Hardoi","district_code":"155","address1":"Sandila","address2":"","latitude":"27.3287","longitude":"80.1625","accuracy":"4"},{"address3":"Behsar","state":"Uttar Pradesh","state_code":"36","district":"Hardoi","district_code":"155","address1":"Sandila","address2":"","latitude":"27.3287","longitude":"80.1625","accuracy":"4"},{"address3":"Terwa Dahigawan","state":"Uttar Pradesh","state_code":"36","district":"Hardoi","district_code":"155","address1":"Sandila","address2":"","latitude":"26.2483","longitude":"80.5941","accuracy":"3"},{"address3":"Ashi Azampur","state":"Uttar Pradesh","state_code":"36","district":"Hardoi","district_code":"155","address1":"Sandila","address2":"","latitude":"26.2483","longitude":"80.5941","accuracy":"3"},{"address3":"Khajohana","state":"Uttar Pradesh","state_code":"36","district":"Hardoi","district_code":"155","address1":"Sandila","address2":"","latitude":"26.2483","longitude":"80.5941","accuracy":"3"},{"address3":"Khurda Madarpur","state":"Uttar Pradesh","state_code":"36","district":"Hardoi","district_code":"155","address1":"Sandila","address2":"","latitude":"26.2483","longitude":"80.5941","accuracy":"3"},{"address3":"Gaus Ganj","state":"Uttar Pradesh","state_code":"36","district":"Hardoi","district_code":"155","address1":"Sandila","address2":"","latitude":"26.2483","longitude":"80.5941","accuracy":"3"}],"241401":[{"address3":"Barwan (Hardoi)","state":"Uttar Pradesh","state_code":"36","district":"Hardoi","district_code":"155","address1":"NA","address2":"","latitude":"27.3868","longitude":"79.9082","accuracy":"4"},{"address3":"Bamtapur","state":"Uttar Pradesh","state_code":"36","district":"Hardoi","district_code":"155","address1":"Hardoi","address2":"","latitude":"27.3356","longitude":"79.9347","accuracy":"4"},{"address3":"Simariya","state":"Uttar Pradesh","state_code":"36","district":"Hardoi","district_code":"155","address1":"Hardoi","address2":"","latitude":"27.3287","longitude":"80.1625","accuracy":"4"},{"address3":"Lonar","state":"Uttar Pradesh","state_code":"36","district":"Hardoi","district_code":"155","address1":"Hardoi","address2":"","latitude":"27.4044","longitude":"79.9138","accuracy":"4"},{"address3":"Naseoli Gopal","state":"Uttar Pradesh","state_code":"36","district":"Hardoi","district_code":"155","address1":"Hardoi","address2":"","latitude":"27.0832","longitude":"79.8311","accuracy":"3"},{"address3":"Bhailamau","state":"Uttar Pradesh","state_code":"36","district":"Hardoi","district_code":"155","address1":"Hardoi","address2":"","latitude":"27.4318","longitude":"79.8529","accuracy":"4"},{"address3":"Sahpur Nau","state":"Uttar Pradesh","state_code":"36","district":"Hardoi","district_code":"155","address1":"Hardoi","address2":"","latitude":"27.0832","longitude":"79.8311","accuracy":"3"},{"address3":"Bootamau","state":"Uttar Pradesh","state_code":"36","district":"Hardoi","district_code":"155","address1":"Hardoi","address2":"","latitude":"27.0832","longitude":"79.8311","accuracy":"3"},{"address3":"Khanigaon Khurd","state":"Uttar Pradesh","state_code":"36","district":"Hardoi","district_code":"155","address1":"Hardoi","address2":"","latitude":"27.0832","longitude":"79.8311","accuracy":"3"}],"241402":[{"address3":"Barsohiya","state":"Uttar Pradesh","state_code":"36","district":"Hardoi","district_code":"155","address1":"Hardoi","address2":"","latitude":"27.374","longitude":"79.9753","accuracy":"3"},{"address3":"Harpalpur (Hardoi)","state":"Uttar Pradesh","state_code":"36","district":"Hardoi","district_code":"155","address1":"Hardoi","address2":"","latitude":"27.374","longitude":"79.9753","accuracy":"3"},{"address3":"Behta Rampura","state":"Uttar Pradesh","state_code":"36","district":"Hardoi","district_code":"155","address1":"Hardoi","address2":"","latitude":"27.3462","longitude":"79.741","accuracy":"4"},{"address3":"Baran","state":"Uttar Pradesh","state_code":"36","district":"Hardoi","district_code":"155","address1":"Hardoi","address2":"","latitude":"27.2813","longitude":"79.7513","accuracy":"4"},{"address3":"Malautha","state":"Uttar Pradesh","state_code":"36","district":"Hardoi","district_code":"155","address1":"Hardoi","address2":"","latitude":"27.374","longitude":"79.9753","accuracy":"3"},{"address3":"Semaria","state":"Uttar Pradesh","state_code":"36","district":"Hardoi","district_code":"155","address1":"Hardoi","address2":"","latitude":"27.3287","longitude":"80.1625","accuracy":"4"},{"address3":"Lamkan","state":"Uttar Pradesh","state_code":"36","district":"Hardoi","district_code":"155","address1":"Hardoi","address2":"","latitude":"27.303","longitude":"79.8951","accuracy":"4"},{"address3":"Pithanapur Nagariya","state":"Uttar Pradesh","state_code":"36","district":"Hardoi","district_code":"155","address1":"Hardoi","address2":"","latitude":"27.374","longitude":"79.9753","accuracy":"3"},{"address3":"Palia","state":"Uttar Pradesh","state_code":"36","district":"Hardoi","district_code":"155","address1":"Hardoi","address2":"","latitude":"27.4761","longitude":"80.0513","accuracy":"4"},{"address3":"Uncha Gaon","state":"Uttar Pradesh","state_code":"36","district":"Hardoi","district_code":"155","address1":"Hardoi","address2":"","latitude":"27.374","longitude":"79.9753","accuracy":"3"},{"address3":"Arjunpur","state":"Uttar Pradesh","state_code":"36","district":"Hardoi","district_code":"155","address1":"Hardoi","address2":"","latitude":"27.3604","longitude":"79.7006","accuracy":"4"},{"address3":"Chanadapur","state":"Uttar Pradesh","state_code":"36","district":"Hardoi","district_code":"155","address1":"Hardoi","address2":"","latitude":"27.374","longitude":"79.9753","accuracy":"3"},{"address3":"Khasaura","state":"Uttar Pradesh","state_code":"36","district":"Hardoi","district_code":"155","address1":"Hardoi","address2":"","latitude":"27.3446","longitude":"79.786","accuracy":"4"},{"address3":"Daheliya","state":"Uttar Pradesh","state_code":"36","district":"Hardoi","district_code":"155","address1":"Hardoi","address2":"","latitude":"27.374","longitude":"79.9753","accuracy":"3"},{"address3":"Tikar","state":"Uttar Pradesh","state_code":"36","district":"Hardoi","district_code":"155","address1":"Hardoi","address2":"","latitude":"27.2708","longitude":"79.785","accuracy":"4"},{"address3":"Barnai Chatarkha","state":"Uttar Pradesh","state_code":"36","district":"Hardoi","district_code":"155","address1":"Hardoi","address2":"","latitude":"27.374","longitude":"79.9753","accuracy":"3"},{"address3":"Arwal","state":"Uttar Pradesh","state_code":"36","district":"Hardoi","district_code":"155","address1":"Hardoi","address2":"","latitude":"27.2264","longitude":"79.7909","accuracy":"4"},{"address3":"Satautha","state":"Uttar Pradesh","state_code":"36","district":"Hardoi","district_code":"155","address1":"Hardoi","address2":"","latitude":"27.3437","longitude":"79.8388","accuracy":"4"}],"241403":[{"address3":"Adampur","state":"Uttar Pradesh","state_code":"36","district":"Hardoi","district_code":"155","address1":"Harodi","address2":"","latitude":"27.2037","longitude":"80.5221","accuracy":"4"},{"address3":"Mansoorpur","state":"Uttar Pradesh","state_code":"36","district":"Hardoi","district_code":"155","address1":"Harodi","address2":"","latitude":"27.2574","longitude":"80.0397","accuracy":"3"},{"address3":"Sarhiapur","state":"Uttar Pradesh","state_code":"36","district":"Hardoi","district_code":"155","address1":"Harodi","address2":"","latitude":"27.1665","longitude":"79.9516","accuracy":"4"},{"address3":"Kuchila","state":"Uttar Pradesh","state_code":"36","district":"Hardoi","district_code":"155","address1":"Harodi","address2":"","latitude":"27.2574","longitude":"80.0397","accuracy":"3"},{"address3":"Baghrai","state":"Uttar Pradesh","state_code":"36","district":"Hardoi","district_code":"155","address1":"Harodi","address2":"","latitude":"27.3208","longitude":"80.0055","accuracy":"4"},{"address3":"Chacharapur","state":"Uttar Pradesh","state_code":"36","district":"Hardoi","district_code":"155","address1":"Harodi","address2":"","latitude":"27.2574","longitude":"80.0397","accuracy":"3"},{"address3":"Akhbelpur Malwa","state":"Uttar Pradesh","state_code":"36","district":"Hardoi","district_code":"155","address1":"Harodi","address2":"","latitude":"27.3496","longitude":"79.9472","accuracy":"4"},{"address3":"Jarauli Newada","state":"Uttar Pradesh","state_code":"36","district":"Hardoi","district_code":"155","address1":"Harodi","address2":"","latitude":"27.2574","longitude":"80.0397","accuracy":"3"},{"address3":"Srimau","state":"Uttar Pradesh","state_code":"36","district":"Hardoi","district_code":"155","address1":"Harodi","address2":"","latitude":"27.2155","longitude":"79.8597","accuracy":"4"},{"address3":"Sandi","state":"Uttar Pradesh","state_code":"36","district":"Hardoi","district_code":"155","address1":"Harodi","address2":"","latitude":"27.2887","longitude":"79.9519","accuracy":"4"}],"241404":[{"address3":"Bhainsari","state":"Uttar Pradesh","state_code":"36","district":"Hardoi","district_code":"155","address1":"Hardoi","address2":"","latitude":"27.3287","longitude":"80.1625","accuracy":"4"},{"address3":"Thamarawa","state":"Uttar Pradesh","state_code":"36","district":"Hardoi","district_code":"155","address1":"Hardoi","address2":"","latitude":"27.4631","longitude":"80.234","accuracy":"3"},{"address3":"Bahorwa","state":"Uttar Pradesh","state_code":"36","district":"Hardoi","district_code":"155","address1":"Hardoi","address2":"","latitude":"27.3287","longitude":"80.1625","accuracy":"4"},{"address3":"Tadiyawan","state":"Uttar Pradesh","state_code":"36","district":"Hardoi","district_code":"155","address1":"Hardoi","address2":"","latitude":"27.4631","longitude":"80.234","accuracy":"3"},{"address3":"Lilwal","state":"Uttar Pradesh","state_code":"36","district":"Hardoi","district_code":"155","address1":"Hardoi","address2":"","latitude":"27.4705","longitude":"80.2055","accuracy":"4"},{"address3":"Sadila","state":"Uttar Pradesh","state_code":"36","district":"Hardoi","district_code":"155","address1":"Hardoi","address2":"","latitude":"27.4631","longitude":"80.234","accuracy":"3"},{"address3":"Deoria","state":"Uttar Pradesh","state_code":"36","district":"Hardoi","district_code":"155","address1":"Hardoi","address2":"","latitude":"27.321","longitude":"80.1194","accuracy":"4"},{"address3":"Teni","state":"Uttar Pradesh","state_code":"36","district":"Hardoi","district_code":"155","address1":"Hardoi","address2":"","latitude":"27.5048","longitude":"80.2327","accuracy":"4"},{"address3":"Hariharpur","state":"Uttar Pradesh","state_code":"36","district":"Hardoi","district_code":"155","address1":"Hardoi","address2":"","latitude":"27.1794","longitude":"80.1787","accuracy":"4"},{"address3":"Harrai","state":"Uttar Pradesh","state_code":"36","district":"Hardoi","district_code":"155","address1":"Hardoi","address2":"","latitude":"27.6297","longitude":"80.2195","accuracy":"4"},{"address3":"Gopamau","state":"Uttar Pradesh","state_code":"36","district":"Hardoi","district_code":"155","address1":"Hardoi","address2":"","latitude":"27.5347","longitude":"80.2851","accuracy":"4"}],"241405":[{"address3":"Hariyawan","state":"Uttar Pradesh","state_code":"36","district":"Hardoi","district_code":"155","address1":"Hardoi","address2":"","latitude":"27.545","longitude":"80.1533","accuracy":"3"},{"address3":"Uchawal","state":"Uttar Pradesh","state_code":"36","district":"Hardoi","district_code":"155","address1":"Hardoi","address2":"","latitude":"27.545","longitude":"80.1533","accuracy":"3"},{"address3":"Kurseli","state":"Uttar Pradesh","state_code":"36","district":"Hardoi","district_code":"155","address1":"Hardoi","address2":"","latitude":"27.5334","longitude":"80.139","accuracy":"4"},{"address3":"Mansoor Nagar","state":"Uttar Pradesh","state_code":"36","district":"Hardoi","district_code":"155","address1":"Hardoi","address2":"","latitude":"27.545","longitude":"80.1533","accuracy":"3"},{"address3":"Chandeli","state":"Uttar Pradesh","state_code":"36","district":"Hardoi","district_code":"155","address1":"Hardoi","address2":"","latitude":"27.5963","longitude":"80.1192","accuracy":"4"},{"address3":"Pila Mahuwa","state":"Uttar Pradesh","state_code":"36","district":"Hardoi","district_code":"155","address1":"Hardoi","address2":"","latitude":"27.545","longitude":"80.1533","accuracy":"3"},{"address3":"Bhadeora","state":"Uttar Pradesh","state_code":"36","district":"Hardoi","district_code":"155","address1":"Hardoi","address2":"","latitude":"27.5053","longitude":"80.2018","accuracy":"4"}],"241406":[{"address3":"Sirsa","state":"Uttar Pradesh","state_code":"36","district":"Hardoi","district_code":"155","address1":"Hardoi","address2":"","latitude":"27.3709","longitude":"79.771","accuracy":"4"},{"address3":"Bijgawan","state":"Uttar Pradesh","state_code":"36","district":"Hardoi","district_code":"155","address1":"Hardoi","address2":"","latitude":"27.5427","longitude":"80.0827","accuracy":"4"},{"address3":"Jareli","state":"Uttar Pradesh","state_code":"36","district":"Hardoi","district_code":"155","address1":"Hardoi","address2":"","latitude":"27.3287","longitude":"80.1625","accuracy":"4"},{"address3":"Para","state":"Uttar Pradesh","state_code":"36","district":"Hardoi","district_code":"155","address1":"Hardoi","address2":"","latitude":"27.5652","longitude":"80.1358","accuracy":"4"},{"address3":"Banjariya","state":"Uttar Pradesh","state_code":"36","district":"Hardoi","district_code":"155","address1":"Hardoi","address2":"","latitude":"27.5163","longitude":"80.4362","accuracy":"3"},{"address3":"Pihani","state":"Uttar Pradesh","state_code":"36","district":"Hardoi","district_code":"155","address1":"Hardoi","address2":"","latitude":"27.6199","longitude":"80.2034","accuracy":"4"},{"address3":"Khateli","state":"Uttar Pradesh","state_code":"36","district":"Hardoi","district_code":"155","address1":"Hardoi","address2":"","latitude":"27.3287","longitude":"80.1625","accuracy":"4"},{"address3":"Itara","state":"Uttar Pradesh","state_code":"36","district":"Hardoi","district_code":"155","address1":"Hardoi","address2":"","latitude":"27.6411","longitude":"80.1714","accuracy":"4"},{"address3":"Pandarawa Kot","state":"Uttar Pradesh","state_code":"36","district":"Hardoi","district_code":"155","address1":"Hardoi","address2":"","latitude":"27.5163","longitude":"80.4362","accuracy":"3"},{"address3":"Karim Nagar","state":"Uttar Pradesh","state_code":"36","district":"Hardoi","district_code":"155","address1":"Hardoi","address2":"","latitude":"27.3287","longitude":"80.1625","accuracy":"4"},{"address3":"Majhiya","state":"Uttar Pradesh","state_code":"36","district":"Hardoi","district_code":"155","address1":"Hardoi","address2":"","latitude":"27.5163","longitude":"80.4362","accuracy":"3"},{"address3":"Burhagaon","state":"Uttar Pradesh","state_code":"36","district":"Hardoi","district_code":"155","address1":"Hardoi","address2":"","latitude":"27.5163","longitude":"80.4362","accuracy":"3"},{"address3":"Kusuma","state":"Uttar Pradesh","state_code":"36","district":"Hardoi","district_code":"155","address1":"Hardoi","address2":"","latitude":"27.5163","longitude":"80.4362","accuracy":"3"}],"241407":[{"address3":"Rabha","state":"Uttar Pradesh","state_code":"36","district":"Hardoi","district_code":"155","address1":"Hardoi","address2":"","latitude":"27.6911","longitude":"80.2108","accuracy":"4"},{"address3":"Bhogiyapur","state":"Uttar Pradesh","state_code":"36","district":"Hardoi","district_code":"155","address1":"Hardoi","address2":"","latitude":"27.481","longitude":"79.7073","accuracy":"3"},{"address3":"Saadat Nagar","state":"Uttar Pradesh","state_code":"36","district":"Hardoi","district_code":"155","address1":"Hardoi","address2":"","latitude":"27.3287","longitude":"80.1625","accuracy":"4"},{"address3":"Kunwarpur Basith","state":"Uttar Pradesh","state_code":"36","district":"Hardoi","district_code":"155","address1":"Hardoi","address2":"","latitude":"27.7279","longitude":"80.1958","accuracy":"4"},{"address3":"Bandaraha","state":"Uttar Pradesh","state_code":"36","district":"Hardoi","district_code":"155","address1":"Hardoi","address2":"","latitude":"27.481","longitude":"79.7073","accuracy":"3"},{"address3":"Jahani Khera","state":"Uttar Pradesh","state_code":"36","district":"Hardoi","district_code":"155","address1":"Hardoi","address2":"","latitude":"27.481","longitude":"79.7073","accuracy":"3"},{"address3":"Sahijana","state":"Uttar Pradesh","state_code":"36","district":"Hardoi","district_code":"155","address1":"Hardoi","address2":"","latitude":"27.3287","longitude":"80.1625","accuracy":"4"},{"address3":"Abdulla Nagar","state":"Uttar Pradesh","state_code":"36","district":"Hardoi","district_code":"155","address1":"Hardoi","address2":"","latitude":"27.481","longitude":"79.7073","accuracy":"3"},{"address3":"Daheliya Rampur","state":"Uttar Pradesh","state_code":"36","district":"Hardoi","district_code":"155","address1":"Hardoi","address2":"","latitude":"27.481","longitude":"79.7073","accuracy":"3"},{"address3":"Alam Nagar","state":"Uttar Pradesh","state_code":"36","district":"Hardoi","district_code":"155","address1":"Hardoi","address2":"","latitude":"27.3287","longitude":"80.1625","accuracy":"4"},{"address3":"Rasoolpur","state":"Uttar Pradesh","state_code":"36","district":"Hardoi","district_code":"155","address1":"Hardoi","address2":"","latitude":"27.481","longitude":"79.7073","accuracy":"3"},{"address3":"Chaina","state":"Uttar Pradesh","state_code":"36","district":"Hardoi","district_code":"155","address1":"Hardoi","address2":"","latitude":"27.3287","longitude":"80.1625","accuracy":"4"},{"address3":"Mahmoodpur Saraiya","state":"Uttar Pradesh","state_code":"36","district":"Hardoi","district_code":"155","address1":"Hardoi","address2":"","latitude":"27.481","longitude":"79.7073","accuracy":"3"},{"address3":"Manikapur","state":"Uttar Pradesh","state_code":"36","district":"Hardoi","district_code":"155","address1":"Hardoi","address2":"","latitude":"27.3287","longitude":"80.1625","accuracy":"4"},{"address3":"Raingai","state":"Uttar Pradesh","state_code":"36","district":"Hardoi","district_code":"155","address1":"Hardoi","address2":"","latitude":"27.481","longitude":"79.7073","accuracy":"3"}],"credits":[{"name":"geonames","url":"https://www.geonames.org"}],"last_update":"2019-03-01T09:01:38.933Z"}