{"242001":[{"address3":"Mohanganj","state":"Uttar Pradesh","state_code":"36","district":"Shahjahanpur","district_code":"152","address1":"Shahjahanpur","address2":"","latitude":"27.9757","longitude":"79.8449","accuracy":"4"},{"address3":"Shahjahanpur City","state":"Uttar Pradesh","state_code":"36","district":"Shahjahanpur","district_code":"152","address1":"Shahjahanpur","address2":"","latitude":"27.8446","longitude":"79.7773","accuracy":"3"},{"address3":"Ghusgawan","state":"Uttar Pradesh","state_code":"36","district":"Shahjahanpur","district_code":"152","address1":"Sadar","address2":"","latitude":"27.9615","longitude":"79.8641","accuracy":"4"},{"address3":"Sindhauli","state":"Uttar Pradesh","state_code":"36","district":"Shahjahanpur","district_code":"152","address1":"Sadar","address2":"","latitude":"27.9692","longitude":"79.9718","accuracy":"4"},{"address3":"Niyamatpur","state":"Uttar Pradesh","state_code":"36","district":"Shahjahanpur","district_code":"152","address1":"Sadar","address2":"","latitude":"27.9757","longitude":"79.8449","accuracy":"4"},{"address3":"Shahjahanpur R S","state":"Uttar Pradesh","state_code":"36","district":"Shahjahanpur","district_code":"152","address1":"Shahjahanpur","address2":"","latitude":"27.8446","longitude":"79.7773","accuracy":"3"},{"address3":"Tera","state":"Uttar Pradesh","state_code":"36","district":"Shahjahanpur","district_code":"152","address1":"Sadar","address2":"","latitude":"27.9635","longitude":"79.9218","accuracy":"4"},{"address3":"Garrah Road","state":"Uttar Pradesh","state_code":"36","district":"Shahjahanpur","district_code":"152","address1":"Shahjahanpur","address2":"","latitude":"27.8446","longitude":"79.7773","accuracy":"3"},{"address3":"Hadaf","state":"Uttar Pradesh","state_code":"36","district":"Shahjahanpur","district_code":"152","address1":"Shahjahanpur","address2":"","latitude":"27.8446","longitude":"79.7773","accuracy":"3"},{"address3":"Chankhanbayi","state":"Uttar Pradesh","state_code":"36","district":"Shahjahanpur","district_code":"152","address1":"shahjahanpur","address2":"","latitude":"27.8446","longitude":"79.7773","accuracy":"3"},{"address3":"Tikri","state":"Uttar Pradesh","state_code":"36","district":"Shahjahanpur","district_code":"152","address1":"Sadar","address2":"","latitude":"27.9903","longitude":"79.8888","accuracy":"4"},{"address3":"Conewganj","state":"Uttar Pradesh","state_code":"36","district":"Shahjahanpur","district_code":"152","address1":"Shahjahanpur","address2":"","latitude":"27.8446","longitude":"79.7773","accuracy":"3"},{"address3":"Dalelganj","state":"Uttar Pradesh","state_code":"36","district":"Shahjahanpur","district_code":"152","address1":"Shahjahanpur","address2":"","latitude":"27.9757","longitude":"79.8449","accuracy":"4"},{"address3":"Shahjahanpur H.O","state":"Uttar Pradesh","state_code":"36","district":"Shahjahanpur","district_code":"152","address1":"Shahjahanpur","address2":"","latitude":"27.8446","longitude":"79.7773","accuracy":"3"},{"address3":"Mahasir","state":"Uttar Pradesh","state_code":"36","district":"Shahjahanpur","district_code":"152","address1":"Sadar","address2":"","latitude":"27.9457","longitude":"80.0636","accuracy":"4"},{"address3":"Ghantaghar","state":"Uttar Pradesh","state_code":"36","district":"Shahjahanpur","district_code":"152","address1":"Shahjahanpur","address2":"","latitude":"27.8446","longitude":"79.7773","accuracy":"3"},{"address3":"Krishnanagar","state":"Uttar Pradesh","state_code":"36","district":"Shahjahanpur","district_code":"152","address1":"Shahjahanpur","address2":"","latitude":"27.9757","longitude":"79.8449","accuracy":"3"},{"address3":"H Road","state":"Uttar Pradesh","state_code":"36","district":"Shahjahanpur","district_code":"152","address1":"Shahjahanpur","address2":"","latitude":"27.8446","longitude":"79.7773","accuracy":"3"},{"address3":"Basulia","state":"Uttar Pradesh","state_code":"36","district":"Shahjahanpur","district_code":"152","address1":"Sadar","address2":"","latitude":"27.9002","longitude":"79.9519","accuracy":"4"},{"address3":"Jajal Nagar","state":"Uttar Pradesh","state_code":"36","district":"Shahjahanpur","district_code":"152","address1":"Shahjahanpur","address2":"","latitude":"27.8446","longitude":"79.7773","accuracy":"3"},{"address3":"Banuzai","state":"Uttar Pradesh","state_code":"36","district":"Shahjahanpur","district_code":"152","address1":"Shahjahanpur","address2":"","latitude":"27.8446","longitude":"79.7773","accuracy":"3"},{"address3":"Sadan Bazar","state":"Uttar Pradesh","state_code":"36","district":"Shahjahanpur","district_code":"152","address1":"Shahjahanpur","address2":"","latitude":"27.8446","longitude":"79.7773","accuracy":"3"},{"address3":"Murchha","state":"Uttar Pradesh","state_code":"36","district":"Shahjahanpur","district_code":"152","address1":"Sadar","address2":"","latitude":"27.9625","longitude":"79.9538","accuracy":"4"},{"address3":"Katia Tola","state":"Uttar Pradesh","state_code":"36","district":"Shahjahanpur","district_code":"152","address1":"Shahjahanpur","address2":"","latitude":"27.8446","longitude":"79.7773","accuracy":"3"},{"address3":"Gora Raipur","state":"Uttar Pradesh","state_code":"36","district":"Shahjahanpur","district_code":"152","address1":"Sadar","address2":"","latitude":"27.8446","longitude":"79.7773","accuracy":"3"},{"address3":"Khiria Rasoolpur","state":"Uttar Pradesh","state_code":"36","district":"Shahjahanpur","district_code":"152","address1":"Sadar","address2":"","latitude":"27.8446","longitude":"79.7773","accuracy":"3"},{"address3":"Keeeratpur","state":"Uttar Pradesh","state_code":"36","district":"Shahjahanpur","district_code":"152","address1":"Sadar","address2":"","latitude":"27.8446","longitude":"79.7773","accuracy":"3"},{"address3":"Mudia Pamar","state":"Uttar Pradesh","state_code":"36","district":"Shahjahanpur","district_code":"152","address1":"Sadar","address2":"","latitude":"27.8446","longitude":"79.7773","accuracy":"3"},{"address3":"Paina Buzurg","state":"Uttar Pradesh","state_code":"36","district":"Shahjahanpur","district_code":"152","address1":"Sadar","address2":"","latitude":"27.8446","longitude":"79.7773","accuracy":"3"},{"address3":"Pingri Pingra","state":"Uttar Pradesh","state_code":"36","district":"Shahjahanpur","district_code":"152","address1":"Sadar","address2":"","latitude":"27.8446","longitude":"79.7773","accuracy":"3"},{"address3":"Subhash Nagar","state":"Uttar Pradesh","state_code":"36","district":"Shahjahanpur","district_code":"152","address1":"Sadar","address2":"","latitude":"27.8446","longitude":"79.7773","accuracy":"3"},{"address3":"A C Factory","state":"Uttar Pradesh","state_code":"36","district":"Shahjahanpur","district_code":"152","address1":"Shahjahanpur","address2":"","latitude":"27.8446","longitude":"79.7773","accuracy":"3"},{"address3":"Shahjahanpur Chawk","state":"Uttar Pradesh","state_code":"36","district":"Shahjahanpur","district_code":"152","address1":"Shahjahanpur","address2":"","latitude":"27.8446","longitude":"79.7773","accuracy":"3"},{"address3":"Shahjahanpur Kutchery","state":"Uttar Pradesh","state_code":"36","district":"Shahjahanpur","district_code":"152","address1":"Shahjahanpur","address2":"","latitude":"27.8446","longitude":"79.7773","accuracy":"3"},{"address3":"Bahaduganj","state":"Uttar Pradesh","state_code":"36","district":"Shahjahanpur","district_code":"152","address1":"Shahjahanpur","address2":"","latitude":"27.8446","longitude":"79.7773","accuracy":"3"},{"address3":"Chak Kanahu","state":"Uttar Pradesh","state_code":"36","district":"Shahjahanpur","district_code":"152","address1":"Sadar","address2":"","latitude":"27.8446","longitude":"79.7773","accuracy":"3"}],"242021":[{"address3":"I.A. Babrala","state":"Uttar Pradesh","state_code":"36","district":"Budaun","district_code":"149","address1":"Budaun","address2":"","latitude":"27.7764","longitude":"79.9089","accuracy":"1"},{"address3":"Mehua Hasanganj","state":"Uttar Pradesh","state_code":"36","district":"Budaun","district_code":"149","address1":"Dataganj","address2":"","latitude":"27.7764","longitude":"79.9089","accuracy":"1"}],"242042":[{"address3":"Dalelpur","state":"Uttar Pradesh","state_code":"36","district":"Shahjahanpur","district_code":"152","address1":"Powayan","address2":"","latitude":"27.9862","longitude":"79.8442","accuracy":"4"},{"address3":"Mohiuddinpur","state":"Uttar Pradesh","state_code":"36","district":"Shahjahanpur","district_code":"152","address1":"Powayan","address2":"","latitude":"27.7505","longitude":"79.8799","accuracy":"4"},{"address3":"Azmatpur","state":"Uttar Pradesh","state_code":"36","district":"Shahjahanpur","district_code":"152","address1":"Powayan","address2":"","latitude":"28.0517","longitude":"79.9028","accuracy":"4"},{"address3":"D P J Pur","state":"Uttar Pradesh","state_code":"36","district":"Shahjahanpur","district_code":"152","address1":"Powayan","address2":"","latitude":"27.64","longitude":"80.1721","accuracy":"3"},{"address3":"Dudwa","state":"Uttar Pradesh","state_code":"36","district":"Shahjahanpur","district_code":"152","address1":"Powayan","address2":"","latitude":"27.9757","longitude":"79.8449","accuracy":"4"},{"address3":"Bhambi","state":"Uttar Pradesh","state_code":"36","district":"Shahjahanpur","district_code":"152","address1":"Powayan","address2":"","latitude":"27.64","longitude":"80.1721","accuracy":"3"},{"address3":"Devkali","state":"Uttar Pradesh","state_code":"36","district":"Shahjahanpur","district_code":"152","address1":"Powayan","address2":"","latitude":"27.9757","longitude":"79.8449","accuracy":"3"},{"address3":"Gularia B Singh","state":"Uttar Pradesh","state_code":"36","district":"Shahjahanpur","district_code":"152","address1":"Powayan","address2":"","latitude":"27.64","longitude":"80.1721","accuracy":"3"},{"address3":"Ranmastpur","state":"Uttar Pradesh","state_code":"36","district":"Shahjahanpur","district_code":"152","address1":"Powayan","address2":"","latitude":"27.9757","longitude":"79.8449","accuracy":"4"},{"address3":"D Ghanshyam","state":"Uttar Pradesh","state_code":"36","district":"Shahjahanpur","district_code":"152","address1":"Powayan","address2":"","latitude":"27.64","longitude":"80.1721","accuracy":"3"},{"address3":"Rarua","state":"Uttar Pradesh","state_code":"36","district":"Shahjahanpur","district_code":"152","address1":"Powayan","address2":"","latitude":"27.64","longitude":"80.1721","accuracy":"3"},{"address3":"Jitauria","state":"Uttar Pradesh","state_code":"36","district":"Shahjahanpur","district_code":"152","address1":"Powayan","address2":"","latitude":"27.64","longitude":"80.1721","accuracy":"3"},{"address3":"Tindua Nagaria","state":"Uttar Pradesh","state_code":"36","district":"Shahjahanpur","district_code":"152","address1":"Powayan","address2":"","latitude":"27.64","longitude":"80.1721","accuracy":"3"},{"address3":"Banda (Shahjahanpur)","state":"Uttar Pradesh","state_code":"36","district":"Shahjahanpur","district_code":"152","address1":"Powayan","address2":"","latitude":"27.64","longitude":"80.1721","accuracy":"3"},{"address3":"Nabhichi","state":"Uttar Pradesh","state_code":"36","district":"Shahjahanpur","district_code":"152","address1":"Powayan","address2":"","latitude":"27.64","longitude":"80.1721","accuracy":"3"},{"address3":"Maqsoodapur","state":"Uttar Pradesh","state_code":"36","district":"Shahjahanpur","district_code":"152","address1":"Powayan","address2":"","latitude":"27.64","longitude":"80.1721","accuracy":"3"},{"address3":"Navadia Banki","state":"Uttar Pradesh","state_code":"36","district":"Shahjahanpur","district_code":"152","address1":"Powayan","address2":"","latitude":"27.64","longitude":"80.1721","accuracy":"3"}],"242123":[{"address3":"Sultanpur","state":"Uttar Pradesh","state_code":"36","district":"Shahjahanpur","district_code":"152","address1":"Powayan","address2":"","latitude":"27.7315","longitude":"79.7274","accuracy":"4"},{"address3":"Sondha","state":"Uttar Pradesh","state_code":"36","district":"Shahjahanpur","district_code":"152","address1":"Powayan","address2":"","latitude":"27.9253","longitude":"79.6226","accuracy":"4"},{"address3":"Chandpur","state":"Uttar Pradesh","state_code":"36","district":"Shahjahanpur","district_code":"152","address1":"Powayan","address2":"","latitude":"27.925","longitude":"79.7549","accuracy":"4"},{"address3":"Haripur","state":"Uttar Pradesh","state_code":"36","district":"Shahjahanpur","district_code":"152","address1":"Powayan","address2":"","latitude":"27.7495","longitude":"79.7665","accuracy":"4"},{"address3":"Mahuagundey","state":"Uttar Pradesh","state_code":"36","district":"Shahjahanpur","district_code":"152","address1":"Powayan","address2":"","latitude":"27.8328","longitude":"79.7179","accuracy":"3"},{"address3":"Jograjpur","state":"Uttar Pradesh","state_code":"36","district":"Shahjahanpur","district_code":"152","address1":"Powayan","address2":"","latitude":"27.8328","longitude":"79.7179","accuracy":"3"},{"address3":"Seramau (North)","state":"Uttar Pradesh","state_code":"36","district":"Shahjahanpur","district_code":"152","address1":"Powayan","address2":"","latitude":"27.8328","longitude":"79.7179","accuracy":"3"},{"address3":"Tulapua","state":"Uttar Pradesh","state_code":"36","district":"Shahjahanpur","district_code":"152","address1":"Powayan","address2":"","latitude":"27.8328","longitude":"79.7179","accuracy":"3"},{"address3":"Goradhanenega","state":"Uttar Pradesh","state_code":"36","district":"Shahjahanpur","district_code":"152","address1":"Powayan","address2":"","latitude":"27.8328","longitude":"79.7179","accuracy":"3"}],"242127":[{"address3":"Dasia","state":"Uttar Pradesh","state_code":"36","district":"Shahjahanpur","district_code":"152","address1":"Jalalabad","address2":"","latitude":"27.7666","longitude":"79.4154","accuracy":"4"},{"address3":"Bikrampur","state":"Uttar Pradesh","state_code":"36","district":"Shahjahanpur","district_code":"152","address1":"Jalalabad","address2":"","latitude":"27.6762","longitude":"79.3917","accuracy":"4"},{"address3":"Khajuri","state":"Uttar Pradesh","state_code":"36","district":"Shahjahanpur","district_code":"152","address1":"Jalalabad","address2":"","latitude":"27.797","longitude":"79.4108","accuracy":"4"},{"address3":"Parthipur Kuverpur","state":"Uttar Pradesh","state_code":"36","district":"Shahjahanpur","district_code":"152","address1":"Jalalabad","address2":"","latitude":"27.7097","longitude":"79.4213","accuracy":"3"},{"address3":"Jakhia","state":"Uttar Pradesh","state_code":"36","district":"Shahjahanpur","district_code":"152","address1":"Jalalabad","address2":"","latitude":"27.7214","longitude":"79.417","accuracy":"4"},{"address3":"Gundaura Daudpur","state":"Uttar Pradesh","state_code":"36","district":"Shahjahanpur","district_code":"152","address1":"Jalalabad","address2":"","latitude":"27.7042","longitude":"79.4849","accuracy":"4"},{"address3":"Dahelia","state":"Uttar Pradesh","state_code":"36","district":"Shahjahanpur","district_code":"152","address1":"Jalalabad","address2":"","latitude":"27.9757","longitude":"79.8449","accuracy":"4"},{"address3":"Pilhua","state":"Uttar Pradesh","state_code":"36","district":"Shahjahanpur","district_code":"152","address1":"Jalalabad","address2":"","latitude":"27.7097","longitude":"79.4213","accuracy":"3"},{"address3":"Paraur","state":"Uttar Pradesh","state_code":"36","district":"Shahjahanpur","district_code":"152","address1":"Jalalabad","address2":"","latitude":"27.8108","longitude":"79.4908","accuracy":"4"},{"address3":"Patna Devkali","state":"Uttar Pradesh","state_code":"36","district":"Shahjahanpur","district_code":"152","address1":"Jalalabad","address2":"","latitude":"27.7097","longitude":"79.4213","accuracy":"3"},{"address3":"Kundaria","state":"Uttar Pradesh","state_code":"36","district":"Shahjahanpur","district_code":"152","address1":"Jalalabad","address2":"","latitude":"27.8322","longitude":"79.4683","accuracy":"4"},{"address3":"Pach Deoria","state":"Uttar Pradesh","state_code":"36","district":"Shahjahanpur","district_code":"152","address1":"Jalalabad","address2":"","latitude":"27.7097","longitude":"79.4213","accuracy":"3"},{"address3":"Mai Khurd Kalan","state":"Uttar Pradesh","state_code":"36","district":"Shahjahanpur","district_code":"152","address1":"Jalalabad","address2":"","latitude":"27.7097","longitude":"79.4213","accuracy":"3"},{"address3":"Laxmanpur","state":"Uttar Pradesh","state_code":"36","district":"Shahjahanpur","district_code":"152","address1":"Jalalabad","address2":"","latitude":"27.7097","longitude":"79.4213","accuracy":"3"},{"address3":"Kunderi","state":"Uttar Pradesh","state_code":"36","district":"Shahjahanpur","district_code":"152","address1":"Jalalabad","address2":"","latitude":"27.7097","longitude":"79.4213","accuracy":"3"},{"address3":"Kilapur","state":"Uttar Pradesh","state_code":"36","district":"Shahjahanpur","district_code":"152","address1":"Jalalabad","address2":"","latitude":"27.7097","longitude":"79.4213","accuracy":"3"},{"address3":"Chaurabagerkhet","state":"Uttar Pradesh","state_code":"36","district":"Shahjahanpur","district_code":"152","address1":"Jalalabad","address2":"","latitude":"27.7097","longitude":"79.4213","accuracy":"3"},{"address3":"Bhundeli","state":"Uttar Pradesh","state_code":"36","district":"Shahjahanpur","district_code":"152","address1":"Jalalabad","address2":"","latitude":"27.7097","longitude":"79.4213","accuracy":"3"},{"address3":"Behta Jangal","state":"Uttar Pradesh","state_code":"36","district":"Shahjahanpur","district_code":"152","address1":"Jalalabad","address2":"","latitude":"27.7097","longitude":"79.4213","accuracy":"3"},{"address3":"Bamhora","state":"Uttar Pradesh","state_code":"36","district":"Shahjahanpur","district_code":"152","address1":"Jalalabad","address2":"","latitude":"27.7097","longitude":"79.4213","accuracy":"3"},{"address3":"Barakalan","state":"Uttar Pradesh","state_code":"36","district":"Shahjahanpur","district_code":"152","address1":"Jalalabad","address2":"","latitude":"27.7097","longitude":"79.4213","accuracy":"3"},{"address3":"Astoli","state":"Uttar Pradesh","state_code":"36","district":"Shahjahanpur","district_code":"152","address1":"Jalalabad","address2":"","latitude":"27.7097","longitude":"79.4213","accuracy":"3"},{"address3":"Usmanpur Sarfra","state":"Uttar Pradesh","state_code":"36","district":"Shahjahanpur","district_code":"152","address1":"Jalalabad","address2":"","latitude":"27.7097","longitude":"79.4213","accuracy":"3"},{"address3":"R B Kalan","state":"Uttar Pradesh","state_code":"36","district":"Shahjahanpur","district_code":"152","address1":"Jalalabad","address2":"","latitude":"27.7097","longitude":"79.4213","accuracy":"3"}],"242220":[{"address3":"Ashrafpur","state":"Uttar Pradesh","state_code":"36","district":"Shahjahanpur","district_code":"152","address1":"Jalalabad","address2":"","latitude":"27.9535","longitude":"80.0538","accuracy":"4"},{"address3":"Raghunathpur","state":"Uttar Pradesh","state_code":"36","district":"Shahjahanpur","district_code":"152","address1":"Jalalabad","address2":"","latitude":"27.4973","longitude":"79.7135","accuracy":"4"},{"address3":"Chilaua","state":"Uttar Pradesh","state_code":"36","district":"Shahjahanpur","district_code":"152","address1":"Jalalabad","address2":"","latitude":"27.7254","longitude":"79.8836","accuracy":"3"},{"address3":"Jearrahimpur","state":"Uttar Pradesh","state_code":"36","district":"Shahjahanpur","district_code":"152","address1":"Jalalabad","address2":"","latitude":"27.7254","longitude":"79.8836","accuracy":"3"},{"address3":"Chaurasia","state":"Uttar Pradesh","state_code":"36","district":"Shahjahanpur","district_code":"152","address1":"Jalalabad","address2":"","latitude":"27.7254","longitude":"79.8836","accuracy":"3"},{"address3":"Allaganj","state":"Uttar Pradesh","state_code":"36","district":"Shahjahanpur","district_code":"152","address1":"Jalalabad","address2":"","latitude":"27.7254","longitude":"79.8836","accuracy":"3"}],"242221":[{"address3":"Dhai","state":"Uttar Pradesh","state_code":"36","district":"Shahjahanpur","district_code":"152","address1":"Jalalabad","address2":"","latitude":"27.6226","longitude":"79.5342","accuracy":"4"},{"address3":"Pehna","state":"Uttar Pradesh","state_code":"36","district":"Shahjahanpur","district_code":"152","address1":"Jalalabad","address2":"","latitude":"27.8038","longitude":"79.5587","accuracy":"4"},{"address3":"Makrandpur","state":"Uttar Pradesh","state_code":"36","district":"Shahjahanpur","district_code":"152","address1":"Jalalabad","address2":"","latitude":"27.9994","longitude":"79.5502","accuracy":"4"},{"address3":"Mirzapur","state":"Uttar Pradesh","state_code":"36","district":"Shahjahanpur","district_code":"152","address1":"Jalalabad","address2":"","latitude":"27.957","longitude":"79.7247","accuracy":"4"},{"address3":"Khadhar","state":"Uttar Pradesh","state_code":"36","district":"Shahjahanpur","district_code":"152","address1":"Jalalabad","address2":"","latitude":"27.9757","longitude":"79.8449","accuracy":"4"},{"address3":"Gularia","state":"Uttar Pradesh","state_code":"36","district":"Shahjahanpur","district_code":"152","address1":"Jalalabad","address2":"","latitude":"28.0637","longitude":"79.6","accuracy":"4"},{"address3":"Bhaunti","state":"Uttar Pradesh","state_code":"36","district":"Shahjahanpur","district_code":"152","address1":"Jalalabad","address2":"","latitude":"27.7043","longitude":"79.5398","accuracy":"4"},{"address3":"Burhaura","state":"Uttar Pradesh","state_code":"36","district":"Shahjahanpur","district_code":"152","address1":"Jalalabad","address2":"","latitude":"27.6746","longitude":"79.8045","accuracy":"3"},{"address3":"Malupur","state":"Uttar Pradesh","state_code":"36","district":"Shahjahanpur","district_code":"152","address1":"Jalalabad","address2":"","latitude":"27.9757","longitude":"79.8449","accuracy":"4"},{"address3":"Alldadpur Baihari","state":"Uttar Pradesh","state_code":"36","district":"Shahjahanpur","district_code":"152","address1":"Jalalabad","address2":"","latitude":"27.6746","longitude":"79.8045","accuracy":"3"},{"address3":"Bangaon","state":"Uttar Pradesh","state_code":"36","district":"Shahjahanpur","district_code":"152","address1":"Jalalabad","address2":"","latitude":"27.6204","longitude":"79.5628","accuracy":"4"},{"address3":"Jalalabad (Shahjahanpur)","state":"Uttar Pradesh","state_code":"36","district":"Shahjahanpur","district_code":"152","address1":"Jalalabad","address2":"","latitude":"27.6746","longitude":"79.8045","accuracy":"3"},{"address3":"Singaha","state":"Uttar Pradesh","state_code":"36","district":"Shahjahanpur","district_code":"152","address1":"Jalalabad","address2":"","latitude":"27.9757","longitude":"79.8449","accuracy":"4"},{"address3":"Gunara","state":"Uttar Pradesh","state_code":"36","district":"Shahjahanpur","district_code":"152","address1":"Jalalabad","address2":"","latitude":"27.6746","longitude":"79.8045","accuracy":"3"},{"address3":"Barua","state":"Uttar Pradesh","state_code":"36","district":"Shahjahanpur","district_code":"152","address1":"Jalalabad","address2":"","latitude":"27.9194","longitude":"79.775","accuracy":"4"},{"address3":"Ch Bahadupur","state":"Uttar Pradesh","state_code":"36","district":"Shahjahanpur","district_code":"152","address1":"Jalalabad","address2":"","latitude":"27.6746","longitude":"79.8045","accuracy":"3"},{"address3":"Zarinpur","state":"Uttar Pradesh","state_code":"36","district":"Shahjahanpur","district_code":"152","address1":"Jalalabad","address2":"","latitude":"27.9757","longitude":"79.8449","accuracy":"3"},{"address3":"Ch Sahabganj","state":"Uttar Pradesh","state_code":"36","district":"Shahjahanpur","district_code":"152","address1":"Jalalabad","address2":"","latitude":"27.6746","longitude":"79.8045","accuracy":"3"},{"address3":"Kakrala","state":"Uttar Pradesh","state_code":"36","district":"Shahjahanpur","district_code":"152","address1":"Jalalabad","address2":"","latitude":"27.7867","longitude":"79.624","accuracy":"4"},{"address3":"Dhiaria","state":"Uttar Pradesh","state_code":"36","district":"Shahjahanpur","district_code":"152","address1":"Jalalabad","address2":"","latitude":"27.6746","longitude":"79.8045","accuracy":"3"},{"address3":"Chaukee","state":"Uttar Pradesh","state_code":"36","district":"Shahjahanpur","district_code":"152","address1":"Jalalabad","address2":"","latitude":"27.6746","longitude":"79.8045","accuracy":"3"},{"address3":"Baharia","state":"Uttar Pradesh","state_code":"36","district":"Shahjahanpur","district_code":"152","address1":"Jalalabad","address2":"","latitude":"27.6802","longitude":"79.5549","accuracy":"4"},{"address3":"Singhayousufpur","state":"Uttar Pradesh","state_code":"36","district":"Shahjahanpur","district_code":"152","address1":"Jalalabad","address2":"","latitude":"27.6746","longitude":"79.8045","accuracy":"3"},{"address3":"Shahpur","state":"Uttar Pradesh","state_code":"36","district":"Shahjahanpur","district_code":"152","address1":"Jalalabad","address2":"","latitude":"27.7688","longitude":"79.5593","accuracy":"4"},{"address3":"Sulamanpurpatti","state":"Uttar Pradesh","state_code":"36","district":"Shahjahanpur","district_code":"152","address1":"Jalalabad","address2":"","latitude":"27.6746","longitude":"79.8045","accuracy":"3"},{"address3":"Tingri","state":"Uttar Pradesh","state_code":"36","district":"Shahjahanpur","district_code":"152","address1":"Jalalabad","address2":"","latitude":"27.6746","longitude":"79.8045","accuracy":"3"},{"address3":"Udaipurbhoor","state":"Uttar Pradesh","state_code":"36","district":"Shahjahanpur","district_code":"152","address1":"Jalalabad","address2":"","latitude":"27.6746","longitude":"79.8045","accuracy":"3"},{"address3":"N G Mahsulpur","state":"Uttar Pradesh","state_code":"36","district":"Shahjahanpur","district_code":"152","address1":"Jalalabad","address2":"","latitude":"27.6746","longitude":"79.8045","accuracy":"3"},{"address3":"Chadura","state":"Uttar Pradesh","state_code":"36","district":"Shahjahanpur","district_code":"152","address1":"Jalalabad","address2":"","latitude":"27.6746","longitude":"79.8045","accuracy":"3"},{"address3":"Mangtora","state":"Uttar Pradesh","state_code":"36","district":"Shahjahanpur","district_code":"152","address1":"Jalalabad","address2":"","latitude":"27.6746","longitude":"79.8045","accuracy":"3"},{"address3":"Pirthvipurdhai","state":"Uttar Pradesh","state_code":"36","district":"Shahjahanpur","district_code":"152","address1":"Jalalabad","address2":"","latitude":"27.6746","longitude":"79.8045","accuracy":"3"},{"address3":"S Purkayasthan","state":"Uttar Pradesh","state_code":"36","district":"Shahjahanpur","district_code":"152","address1":"Jalalabad","address2":"","latitude":"27.6746","longitude":"79.8045","accuracy":"3"},{"address3":"Kateli Bmaua","state":"Uttar Pradesh","state_code":"36","district":"Shahjahanpur","district_code":"152","address1":"Jalalabad","address2":"","latitude":"27.6746","longitude":"79.8045","accuracy":"3"},{"address3":"Jam Daulatpur","state":"Uttar Pradesh","state_code":"36","district":"Shahjahanpur","district_code":"152","address1":"Jalalabad","address2":"","latitude":"27.6746","longitude":"79.8045","accuracy":"3"},{"address3":"Gurugram","state":"Uttar Pradesh","state_code":"36","district":"Shahjahanpur","district_code":"152","address1":"Jalalabad","address2":"","latitude":"27.6746","longitude":"79.8045","accuracy":"3"},{"address3":"Jamuneya","state":"Uttar Pradesh","state_code":"36","district":"Shahjahanpur","district_code":"152","address1":"Jalalabad","address2":"","latitude":"27.6746","longitude":"79.8045","accuracy":"3"},{"address3":"Bhura","state":"Uttar Pradesh","state_code":"36","district":"Shahjahanpur","district_code":"152","address1":"Jalalabad","address2":"","latitude":"28.0091","longitude":"79.5193","accuracy":"4"},{"address3":"Jalalabad Mandi","state":"Uttar Pradesh","state_code":"36","district":"Shahjahanpur","district_code":"152","address1":"Shahjahanpur","address2":"","latitude":"27.6746","longitude":"79.8045","accuracy":"3"},{"address3":"Jareenpur","state":"Uttar Pradesh","state_code":"36","district":"Shahjahanpur","district_code":"152","address1":"Jalalabad","address2":"","latitude":"27.6746","longitude":"79.8045","accuracy":"3"},{"address3":"Palharai","state":"Uttar Pradesh","state_code":"36","district":"Shahjahanpur","district_code":"152","address1":"Jalalabad","address2":"","latitude":"27.6746","longitude":"79.8045","accuracy":"3"}],"242223":[{"address3":"Lakhnaur","state":"Uttar Pradesh","state_code":"36","district":"Shahjahanpur","district_code":"152","address1":"Jalalabad","address2":"","latitude":"27.9757","longitude":"79.8449","accuracy":"4"},{"address3":"Sarthauli","state":"Uttar Pradesh","state_code":"36","district":"Shahjahanpur","district_code":"152","address1":"Sadar","address2":"","latitude":"27.7282","longitude":"79.7871","accuracy":"4"},{"address3":"Dilawarpur","state":"Uttar Pradesh","state_code":"36","district":"Shahjahanpur","district_code":"152","address1":"Sadar","address2":"","latitude":"27.8513","longitude":"80.0359","accuracy":"4"},{"address3":"Amora","state":"Uttar Pradesh","state_code":"36","district":"Shahjahanpur","district_code":"152","address1":"Sadar","address2":"","latitude":"27.9757","longitude":"79.8449","accuracy":"3"},{"address3":"Rawatpur","state":"Uttar Pradesh","state_code":"36","district":"Shahjahanpur","district_code":"152","address1":"Sadar","address2":"","latitude":"27.7984","longitude":"79.7937","accuracy":"4"},{"address3":"Babakkarpur","state":"Uttar Pradesh","state_code":"36","district":"Shahjahanpur","district_code":"152","address1":"Sadar","address2":"","latitude":"27.7802","longitude":"79.8925","accuracy":"4"},{"address3":"Barenda","state":"Uttar Pradesh","state_code":"36","district":"Shahjahanpur","district_code":"152","address1":"Jalalabad","address2":"","latitude":"27.9757","longitude":"79.8449","accuracy":"4"},{"address3":"Kamalnainpur","state":"Uttar Pradesh","state_code":"36","district":"Shahjahanpur","district_code":"152","address1":"Jalalabad","address2":"","latitude":"27.8238","longitude":"79.7881","accuracy":"4"},{"address3":"Indeypur","state":"Uttar Pradesh","state_code":"36","district":"Shahjahanpur","district_code":"152","address1":"Jalalabad","address2":"","latitude":"27.6776","longitude":"79.8133","accuracy":"3"},{"address3":"Kant","state":"Uttar Pradesh","state_code":"36","district":"Shahjahanpur","district_code":"152","address1":"Sadar","address2":"","latitude":"27.8105","longitude":"79.7919","accuracy":"4"},{"address3":"Bhainsi","state":"Uttar Pradesh","state_code":"36","district":"Shahjahanpur","district_code":"152","address1":"Sadar","address2":"","latitude":"27.9757","longitude":"79.8449","accuracy":"4"},{"address3":"Gandhar","state":"Uttar Pradesh","state_code":"36","district":"Shahjahanpur","district_code":"152","address1":"Sadar","address2":"","latitude":"27.8756","longitude":"79.794","accuracy":"4"},{"address3":"Umraha","state":"Uttar Pradesh","state_code":"36","district":"Shahjahanpur","district_code":"152","address1":"Sadar","address2":"","latitude":"27.6776","longitude":"79.8133","accuracy":"3"},{"address3":"Malhpur","state":"Uttar Pradesh","state_code":"36","district":"Shahjahanpur","district_code":"152","address1":"Sadar","address2":"","latitude":"27.7376","longitude":"79.7651","accuracy":"4"},{"address3":"Audapur","state":"Uttar Pradesh","state_code":"36","district":"Shahjahanpur","district_code":"152","address1":"Jalalabad","address2":"","latitude":"27.6776","longitude":"79.8133","accuracy":"3"},{"address3":"Deoriajhala","state":"Uttar Pradesh","state_code":"36","district":"Shahjahanpur","district_code":"152","address1":"Sadar","address2":"","latitude":"27.6776","longitude":"79.8133","accuracy":"3"},{"address3":"Hathel","state":"Uttar Pradesh","state_code":"36","district":"Shahjahanpur","district_code":"152","address1":"Jalalabad","address2":"","latitude":"27.6776","longitude":"79.8133","accuracy":"3"},{"address3":"Kurriakalan","state":"Uttar Pradesh","state_code":"36","district":"Shahjahanpur","district_code":"152","address1":"Sadar","address2":"","latitude":"27.6776","longitude":"79.8133","accuracy":"3"},{"address3":"Mp Mamarazpur","state":"Uttar Pradesh","state_code":"36","district":"Shahjahanpur","district_code":"152","address1":"Sadar","address2":"","latitude":"27.6776","longitude":"79.8133","accuracy":"3"},{"address3":"Mohdpurazmabad","state":"Uttar Pradesh","state_code":"36","district":"Shahjahanpur","district_code":"152","address1":"Sadar","address2":"","latitude":"27.6776","longitude":"79.8133","accuracy":"3"},{"address3":"Paraincha","state":"Uttar Pradesh","state_code":"36","district":"Shahjahanpur","district_code":"152","address1":"Sadar","address2":"","latitude":"27.6776","longitude":"79.8133","accuracy":"3"},{"address3":"Piprolaahmadpur","state":"Uttar Pradesh","state_code":"36","district":"Shahjahanpur","district_code":"152","address1":"Sadar","address2":"","latitude":"27.6776","longitude":"79.8133","accuracy":"3"}],"242226":[{"address3":"M Ashram","state":"Uttar Pradesh","state_code":"36","district":"Shahjahanpur","district_code":"152","address1":"Shahjahanpur","address2":"","latitude":"27.8555","longitude":"79.8681","accuracy":"3"},{"address3":"Jamaur","state":"Uttar Pradesh","state_code":"36","district":"Shahjahanpur","district_code":"152","address1":"Sadar","address2":"","latitude":"27.8413","longitude":"79.8474","accuracy":"4"},{"address3":"Dadraul","state":"Uttar Pradesh","state_code":"36","district":"Shahjahanpur","district_code":"152","address1":"Sadar","address2":"","latitude":"27.8276","longitude":"79.8681","accuracy":"4"},{"address3":"Azizganj","state":"Uttar Pradesh","state_code":"36","district":"Shahjahanpur","district_code":"152","address1":"Shahjahanpur","address2":"","latitude":"27.8616","longitude":"79.8959","accuracy":"4"},{"address3":"Raikhera","state":"Uttar Pradesh","state_code":"36","district":"Shahjahanpur","district_code":"152","address1":"Shahjahanpur","address2":"","latitude":"27.8913","longitude":"79.8609","accuracy":"4"}],"242301":[{"address3":"Miranpur Katra","state":"Uttar Pradesh","state_code":"36","district":"Shahjahanpur","district_code":"152","address1":"Tilhar","address2":"","latitude":"28.0296","longitude":"79.6678","accuracy":"4"},{"address3":"Seora","state":"Uttar Pradesh","state_code":"36","district":"Shahjahanpur","district_code":"152","address1":"Tilhar","address2":"","latitude":"27.9537","longitude":"79.8127","accuracy":"4"},{"address3":"Sikandarpurkalanan","state":"Uttar Pradesh","state_code":"36","district":"Shahjahanpur","district_code":"152","address1":"Tilhar","address2":"","latitude":"27.9196","longitude":"79.6764","accuracy":"3"},{"address3":"Kudaiya","state":"Uttar Pradesh","state_code":"36","district":"Shahjahanpur","district_code":"152","address1":"Tilhar","address2":"","latitude":"27.8228","longitude":"79.6698","accuracy":"4"},{"address3":"Ukhlinawada","state":"Uttar Pradesh","state_code":"36","district":"Shahjahanpur","district_code":"152","address1":"Tilhar","address2":"","latitude":"27.9196","longitude":"79.6764","accuracy":"3"},{"address3":"Jaitipur","state":"Uttar Pradesh","state_code":"36","district":"Shahjahanpur","district_code":"152","address1":"Tilhar","address2":"","latitude":"27.9958","longitude":"79.5702","accuracy":"4"},{"address3":"Madroli","state":"Uttar Pradesh","state_code":"36","district":"Shahjahanpur","district_code":"152","address1":"Tilhar","address2":"","latitude":"27.9196","longitude":"79.6764","accuracy":"3"},{"address3":"Kundri","state":"Uttar Pradesh","state_code":"36","district":"Shahjahanpur","district_code":"152","address1":"Tilhar","address2":"","latitude":"27.7497","longitude":"79.599","accuracy":"4"},{"address3":"Kotakhas","state":"Uttar Pradesh","state_code":"36","district":"Shahjahanpur","district_code":"152","address1":"Tilhar","address2":"","latitude":"27.9196","longitude":"79.6764","accuracy":"3"},{"address3":"Bauri","state":"Uttar Pradesh","state_code":"36","district":"Shahjahanpur","district_code":"152","address1":"Tilhar","address2":"","latitude":"27.8821","longitude":"79.6113","accuracy":"4"},{"address3":"Jarharharipur","state":"Uttar Pradesh","state_code":"36","district":"Shahjahanpur","district_code":"152","address1":"Tilhar","address2":"","latitude":"27.9196","longitude":"79.6764","accuracy":"3"},{"address3":"Budhwana","state":"Uttar Pradesh","state_code":"36","district":"Shahjahanpur","district_code":"152","address1":"Tilhar","address2":"","latitude":"27.8485","longitude":"79.582","accuracy":"4"},{"address3":"Jeorabhoor","state":"Uttar Pradesh","state_code":"36","district":"Shahjahanpur","district_code":"152","address1":"Tilhar","address2":"","latitude":"27.9196","longitude":"79.6764","accuracy":"3"},{"address3":"Madnapur","state":"Uttar Pradesh","state_code":"36","district":"Shahjahanpur","district_code":"152","address1":"Tilhar","address2":"","latitude":"27.8672","longitude":"79.6764","accuracy":"4"},{"address3":"Batlaiya","state":"Uttar Pradesh","state_code":"36","district":"Shahjahanpur","district_code":"152","address1":"Tilhar","address2":"","latitude":"27.9907","longitude":"79.6952","accuracy":"4"},{"address3":"Kakraua","state":"Uttar Pradesh","state_code":"36","district":"Shahjahanpur","district_code":"152","address1":"Tilhar","address2":"","latitude":"28.0558","longitude":"79.8798","accuracy":"4"},{"address3":"Baisaribaisra","state":"Uttar Pradesh","state_code":"36","district":"Shahjahanpur","district_code":"152","address1":"Tilhar","address2":"","latitude":"27.9196","longitude":"79.6764","accuracy":"3"},{"address3":"Barkherajaipal","state":"Uttar Pradesh","state_code":"36","district":"Shahjahanpur","district_code":"152","address1":"Tilhar","address2":"","latitude":"27.9196","longitude":"79.6764","accuracy":"3"},{"address3":"Nawadrudrapur","state":"Uttar Pradesh","state_code":"36","district":"Shahjahanpur","district_code":"152","address1":"Tilhar","address2":"","latitude":"27.9196","longitude":"79.6764","accuracy":"3"},{"address3":"Paliapatti","state":"Uttar Pradesh","state_code":"36","district":"Shahjahanpur","district_code":"152","address1":"Tilhar","address2":"","latitude":"27.9196","longitude":"79.6764","accuracy":"3"},{"address3":"Sandaamipur","state":"Uttar Pradesh","state_code":"36","district":"Shahjahanpur","district_code":"152","address1":"Tilhar","address2":"","latitude":"27.9196","longitude":"79.6764","accuracy":"3"},{"address3":"Shahpurkhitaua","state":"Uttar Pradesh","state_code":"36","district":"Shahjahanpur","district_code":"152","address1":"Tilhar","address2":"","latitude":"27.9196","longitude":"79.6764","accuracy":"3"}],"242303":[{"address3":"Govindpur","state":"Uttar Pradesh","state_code":"36","district":"Shahjahanpur","district_code":"152","address1":"Tilhar","address2":"","latitude":"27.9757","longitude":"79.8449","accuracy":"4"},{"address3":"Khamaria","state":"Uttar Pradesh","state_code":"36","district":"Shahjahanpur","district_code":"152","address1":"Tilhar","address2":"","latitude":"27.8831","longitude":"79.7817","accuracy":"4"},{"address3":"Khera Bajhera","state":"Uttar Pradesh","state_code":"36","district":"Shahjahanpur","district_code":"152","address1":"Tilhar","address2":"","latitude":"27.7941","longitude":"79.4746","accuracy":"3"},{"address3":"Sarjupur","state":"Uttar Pradesh","state_code":"36","district":"Shahjahanpur","district_code":"152","address1":"Tilhar","address2":"","latitude":"28.0094","longitude":"79.5744","accuracy":"4"},{"address3":"Barriprasidhpur","state":"Uttar Pradesh","state_code":"36","district":"Shahjahanpur","district_code":"152","address1":"Tilhar","address2":"","latitude":"27.7941","longitude":"79.4746","accuracy":"3"},{"address3":"Awa","state":"Uttar Pradesh","state_code":"36","district":"Shahjahanpur","district_code":"152","address1":"Tilhar","address2":"","latitude":"27.9742","longitude":"79.5549","accuracy":"4"},{"address3":"Umarsar","state":"Uttar Pradesh","state_code":"36","district":"Shahjahanpur","district_code":"152","address1":"Tilhar","address2":"","latitude":"27.7941","longitude":"79.4746","accuracy":"3"},{"address3":"Bhanpura","state":"Uttar Pradesh","state_code":"36","district":"Shahjahanpur","district_code":"152","address1":"Tilhar","address2":"","latitude":"28.0663","longitude":"79.6011","accuracy":"4"},{"address3":"Simariaraipur","state":"Uttar Pradesh","state_code":"36","district":"Shahjahanpur","district_code":"152","address1":"Tilhar","address2":"","latitude":"27.7941","longitude":"79.4746","accuracy":"3"},{"address3":"Marena","state":"Uttar Pradesh","state_code":"36","district":"Shahjahanpur","district_code":"152","address1":"Tilhar","address2":"","latitude":"27.7217","longitude":"79.8223","accuracy":"4"},{"address3":"Dabhora Simra","state":"Uttar Pradesh","state_code":"36","district":"Shahjahanpur","district_code":"152","address1":"Tilhar","address2":"","latitude":"27.7941","longitude":"79.4746","accuracy":"3"},{"address3":"Garhiarangeen","state":"Uttar Pradesh","state_code":"36","district":"Shahjahanpur","district_code":"152","address1":"Tilhar","address2":"","latitude":"27.7941","longitude":"79.4746","accuracy":"3"},{"address3":"Kundramajra","state":"Uttar Pradesh","state_code":"36","district":"Shahjahanpur","district_code":"152","address1":"Tilhar","address2":"","latitude":"27.7941","longitude":"79.4746","accuracy":"3"},{"address3":"Shankerpur","state":"Uttar Pradesh","state_code":"36","district":"Shahjahanpur","district_code":"152","address1":"Tilhar","address2":"","latitude":"27.7941","longitude":"79.4746","accuracy":"3"},{"address3":"Gogeypur","state":"Uttar Pradesh","state_code":"36","district":"Shahjahanpur","district_code":"152","address1":"Tilhar","address2":"","latitude":"27.7941","longitude":"79.4746","accuracy":"3"}],"242305":[{"address3":"Charkhaula","state":"Uttar Pradesh","state_code":"36","district":"Shahjahanpur","district_code":"152","address1":"Tilhar","address2":"","latitude":"28.194","longitude":"79.7039","accuracy":"4"},{"address3":"Kamlapur","state":"Uttar Pradesh","state_code":"36","district":"Shahjahanpur","district_code":"152","address1":"Tilhar","address2":"","latitude":"28.1033","longitude":"79.9753","accuracy":"4"},{"address3":"Akbaria","state":"Uttar Pradesh","state_code":"36","district":"Shahjahanpur","district_code":"152","address1":"Tilhar","address2":"","latitude":"27.9757","longitude":"79.8449","accuracy":"3"},{"address3":"Hariharpursimra","state":"Uttar Pradesh","state_code":"36","district":"Shahjahanpur","district_code":"152","address1":"Tilhar","address2":"","latitude":"28.0568","longitude":"79.7664","accuracy":"3"},{"address3":"Hasanpur","state":"Uttar Pradesh","state_code":"36","district":"Shahjahanpur","district_code":"152","address1":"Tilhar","address2":"","latitude":"28.1284","longitude":"79.6715","accuracy":"4"},{"address3":"Khudaganj","state":"Uttar Pradesh","state_code":"36","district":"Shahjahanpur","district_code":"152","address1":"Tilhar","address2":"","latitude":"28.1461","longitude":"79.7147","accuracy":"4"},{"address3":"Laxmipur","state":"Uttar Pradesh","state_code":"36","district":"Shahjahanpur","district_code":"152","address1":"Tilhar","address2":"","latitude":"28.0568","longitude":"79.7664","accuracy":"3"},{"address3":"Jalalpur","state":"Uttar Pradesh","state_code":"36","district":"Shahjahanpur","district_code":"152","address1":"Tilhar","address2":"","latitude":"27.7964","longitude":"79.9345","accuracy":"4"},{"address3":"Kheramajhkhera","state":"Uttar Pradesh","state_code":"36","district":"Shahjahanpur","district_code":"152","address1":"Tilhar","address2":"","latitude":"28.0568","longitude":"79.7664","accuracy":"3"},{"address3":"Jiginia","state":"Uttar Pradesh","state_code":"36","district":"Shahjahanpur","district_code":"152","address1":"Tilhar","address2":"","latitude":"27.9726","longitude":"79.5982","accuracy":"4"},{"address3":"Majila","state":"Uttar Pradesh","state_code":"36","district":"Shahjahanpur","district_code":"152","address1":"Tilhar","address2":"","latitude":"28.0568","longitude":"79.7664","accuracy":"3"},{"address3":"Korigawan","state":"Uttar Pradesh","state_code":"36","district":"Shahjahanpur","district_code":"152","address1":"Tilhar","address2":"","latitude":"28.0568","longitude":"79.7664","accuracy":"3"},{"address3":"Sootha","state":"Uttar Pradesh","state_code":"36","district":"Shahjahanpur","district_code":"152","address1":"Tilhar","address2":"","latitude":"28.0568","longitude":"79.7664","accuracy":"3"}],"242306":[{"address3":"Siswa","state":"Uttar Pradesh","state_code":"36","district":"Shahjahanpur","district_code":"152","address1":"Sadar","address2":"","latitude":"27.9757","longitude":"79.8449","accuracy":"4"},{"address3":"Kursanda","state":"Uttar Pradesh","state_code":"36","district":"Shahjahanpur","district_code":"152","address1":"Sadar","address2":"","latitude":"27.9147","longitude":"79.9749","accuracy":"4"},{"address3":"Bartara","state":"Uttar Pradesh","state_code":"36","district":"Shahjahanpur","district_code":"152","address1":"Sadar","address2":"","latitude":"27.8357","longitude":"80.0174","accuracy":"4"},{"address3":"Bankagaon","state":"Uttar Pradesh","state_code":"36","district":"Shahjahanpur","district_code":"152","address1":"Shahjahanpur","address2":"","latitude":"27.9757","longitude":"79.8449","accuracy":"4"},{"address3":"Sarhi","state":"Uttar Pradesh","state_code":"36","district":"Shahjahanpur","district_code":"152","address1":"Sadar","address2":"","latitude":"27.8589","longitude":"80.0135","accuracy":"4"},{"address3":"Chhetepur","state":"Uttar Pradesh","state_code":"36","district":"Shahjahanpur","district_code":"152","address1":"Sadar","address2":"","latitude":"27.9757","longitude":"79.8449","accuracy":"4"},{"address3":"Uliapur","state":"Uttar Pradesh","state_code":"36","district":"Shahjahanpur","district_code":"152","address1":"Shahjahanpur","address2":"","latitude":"27.9757","longitude":"79.8449","accuracy":"4"},{"address3":"Bhawalkhera","state":"Uttar Pradesh","state_code":"36","district":"Shahjahanpur","district_code":"152","address1":"Sadar","address2":"","latitude":"27.8955","longitude":"79.9836","accuracy":"4"},{"address3":"Shahganj","state":"Uttar Pradesh","state_code":"36","district":"Shahjahanpur","district_code":"152","address1":"Sadar","address2":"","latitude":"27.88","longitude":"80.0091","accuracy":"4"},{"address3":"Ramapurbarkatpur","state":"Uttar Pradesh","state_code":"36","district":"Shahjahanpur","district_code":"152","address1":"Sadar","address2":"","latitude":"27.7518","longitude":"80.142","accuracy":"3"},{"address3":"Rosa RS","state":"Uttar Pradesh","state_code":"36","district":"Shahjahanpur","district_code":"152","address1":"Shahjahanpur","address2":"","latitude":"27.7518","longitude":"80.142","accuracy":"3"},{"address3":"Bhatpurarasulpur","state":"Uttar Pradesh","state_code":"36","district":"Shahjahanpur","district_code":"152","address1":"Shahjahanpur","address2":"","latitude":"27.7518","longitude":"80.142","accuracy":"3"},{"address3":"Gurri","state":"Uttar Pradesh","state_code":"36","district":"Shahjahanpur","district_code":"152","address1":"Sadar","address2":"","latitude":"27.7518","longitude":"80.142","accuracy":"3"},{"address3":"Padrasikandarpur","state":"Uttar Pradesh","state_code":"36","district":"Shahjahanpur","district_code":"152","address1":"Sadar","address2":"","latitude":"27.7518","longitude":"80.142","accuracy":"3"},{"address3":"Scri","state":"Uttar Pradesh","state_code":"36","district":"Shahjahanpur","district_code":"152","address1":"Shahjahanpur","address2":"","latitude":"27.7518","longitude":"80.142","accuracy":"3"},{"address3":"Uchaunlia","state":"Uttar Pradesh","state_code":"36","district":"Shahjahanpur","district_code":"152","address1":"Shahjahanpur","address2":"","latitude":"27.7518","longitude":"80.142","accuracy":"3"}],"242307":[{"address3":"Nizampur","state":"Uttar Pradesh","state_code":"36","district":"Shahjahanpur","district_code":"152","address1":"Tilhar","address2":"","latitude":"27.915","longitude":"79.7645","accuracy":"4"},{"address3":"Banthara","state":"Uttar Pradesh","state_code":"36","district":"Shahjahanpur","district_code":"152","address1":"Tilhar","address2":"","latitude":"27.9757","longitude":"79.8449","accuracy":"4"},{"address3":"Rudrapur","state":"Uttar Pradesh","state_code":"36","district":"Shahjahanpur","district_code":"152","address1":"Tilhar","address2":"","latitude":"27.8278","longitude":"79.8887","accuracy":"4"},{"address3":"Hindu Pattil","state":"Uttar Pradesh","state_code":"36","district":"Shahjahanpur","district_code":"152","address1":"Shahjahanpur","address2":"","latitude":"27.8124","longitude":"79.8974","accuracy":"3"},{"address3":"Dhaneora","state":"Uttar Pradesh","state_code":"36","district":"Shahjahanpur","district_code":"152","address1":"Tilhar","address2":"","latitude":"27.8124","longitude":"79.8974","accuracy":"3"},{"address3":"Bilhari","state":"Uttar Pradesh","state_code":"36","district":"Shahjahanpur","district_code":"152","address1":"Tilhar","address2":"","latitude":"27.9358","longitude":"79.7708","accuracy":"4"},{"address3":"Rati","state":"Uttar Pradesh","state_code":"36","district":"Shahjahanpur","district_code":"152","address1":"Tilhar","address2":"","latitude":"28.0066","longitude":"79.8024","accuracy":"4"},{"address3":"Maujampur","state":"Uttar Pradesh","state_code":"36","district":"Shahjahanpur","district_code":"152","address1":"Tilhar","address2":"","latitude":"27.8124","longitude":"79.8974","accuracy":"3"},{"address3":"Birsinghpur","state":"Uttar Pradesh","state_code":"36","district":"Shahjahanpur","district_code":"152","address1":"Tilhar","address2":"","latitude":"28.0297","longitude":"79.7956","accuracy":"4"},{"address3":"Tilhar","state":"Uttar Pradesh","state_code":"36","district":"Shahjahanpur","district_code":"152","address1":"Tilhar","address2":"","latitude":"27.9628","longitude":"79.7383","accuracy":"4"},{"address3":"Samdhana","state":"Uttar Pradesh","state_code":"36","district":"Shahjahanpur","district_code":"152","address1":"Tilhar","address2":"","latitude":"28.0102","longitude":"79.7507","accuracy":"4"},{"address3":"Dhakiaragha","state":"Uttar Pradesh","state_code":"36","district":"Shahjahanpur","district_code":"152","address1":"Tilhar","address2":"","latitude":"27.8124","longitude":"79.8974","accuracy":"3"},{"address3":"Piproli","state":"Uttar Pradesh","state_code":"36","district":"Shahjahanpur","district_code":"152","address1":"Tilhar","address2":"","latitude":"27.8124","longitude":"79.8974","accuracy":"3"},{"address3":"Chauhatia","state":"Uttar Pradesh","state_code":"36","district":"Shahjahanpur","district_code":"152","address1":"Tilhar","address2":"","latitude":"27.8124","longitude":"79.8974","accuracy":"3"},{"address3":"Rajanpur","state":"Uttar Pradesh","state_code":"36","district":"Shahjahanpur","district_code":"152","address1":"Tilhar","address2":"","latitude":"27.9307","longitude":"79.7312","accuracy":"4"},{"address3":"Dabhora","state":"Uttar Pradesh","state_code":"36","district":"Shahjahanpur","district_code":"152","address1":"Tilhar","address2":"","latitude":"27.8124","longitude":"79.8974","accuracy":"3"},{"address3":"Khairpurmilkipur","state":"Uttar Pradesh","state_code":"36","district":"Shahjahanpur","district_code":"152","address1":"Tilhar","address2":"","latitude":"27.8124","longitude":"79.8974","accuracy":"3"},{"address3":"Rujwari","state":"Uttar Pradesh","state_code":"36","district":"Shahjahanpur","district_code":"152","address1":"Tilhar","address2":"","latitude":"27.8124","longitude":"79.8974","accuracy":"3"},{"address3":"Gopalpurthatheura","state":"Uttar Pradesh","state_code":"36","district":"Shahjahanpur","district_code":"152","address1":"Tilhar","address2":"","latitude":"27.8124","longitude":"79.8974","accuracy":"3"}],"242401":[{"address3":"Nahil","state":"Uttar Pradesh","state_code":"36","district":"Shahjahanpur","district_code":"152","address1":"Powayan","address2":"","latitude":"28.1242","longitude":"80.0454","accuracy":"4"},{"address3":"Baragaon","state":"Uttar Pradesh","state_code":"36","district":"Shahjahanpur","district_code":"152","address1":"Powayan","address2":"","latitude":"28.0488","longitude":"80.0698","accuracy":"4"},{"address3":"Satwabuzurg","state":"Uttar Pradesh","state_code":"36","district":"Shahjahanpur","district_code":"152","address1":"Powayan","address2":"","latitude":"27.8713","longitude":"79.8092","accuracy":"3"},{"address3":"Jewan","state":"Uttar Pradesh","state_code":"36","district":"Shahjahanpur","district_code":"152","address1":"Powayan","address2":"","latitude":"27.9757","longitude":"79.8449","accuracy":"4"},{"address3":"Anawa","state":"Uttar Pradesh","state_code":"36","district":"Shahjahanpur","district_code":"152","address1":"Powayan","address2":"","latitude":"27.8713","longitude":"79.8092","accuracy":"3"},{"address3":"Jujharpur","state":"Uttar Pradesh","state_code":"36","district":"Shahjahanpur","district_code":"152","address1":"Powayan","address2":"","latitude":"27.9954","longitude":"79.5974","accuracy":"4"},{"address3":"Mahuichathia","state":"Uttar Pradesh","state_code":"36","district":"Shahjahanpur","district_code":"152","address1":"Powayan","address2":"","latitude":"27.8713","longitude":"79.8092","accuracy":"3"},{"address3":"Kaluapur","state":"Uttar Pradesh","state_code":"36","district":"Shahjahanpur","district_code":"152","address1":"Powayan","address2":"","latitude":"27.9757","longitude":"79.8449","accuracy":"4"},{"address3":"Kotawari","state":"Uttar Pradesh","state_code":"36","district":"Shahjahanpur","district_code":"152","address1":"Powayan","address2":"","latitude":"27.8713","longitude":"79.8092","accuracy":"3"},{"address3":"Kanpara","state":"Uttar Pradesh","state_code":"36","district":"Shahjahanpur","district_code":"152","address1":"Powayan","address2":"","latitude":"27.9757","longitude":"79.8449","accuracy":"4"},{"address3":"Sunarabuzurg","state":"Uttar Pradesh","state_code":"36","district":"Shahjahanpur","district_code":"152","address1":"Powayan","address2":"","latitude":"27.8713","longitude":"79.8092","accuracy":"3"},{"address3":"Gangsara","state":"Uttar Pradesh","state_code":"36","district":"Shahjahanpur","district_code":"152","address1":"Powayan","address2":"","latitude":"27.9757","longitude":"79.8449","accuracy":"4"},{"address3":"Korokuiyan","state":"Uttar Pradesh","state_code":"36","district":"Shahjahanpur","district_code":"152","address1":"Powayan","address2":"","latitude":"27.8713","longitude":"79.8092","accuracy":"3"},{"address3":"Gandharpur","state":"Uttar Pradesh","state_code":"36","district":"Shahjahanpur","district_code":"152","address1":"Powayan","address2":"","latitude":"28.0041","longitude":"80.0263","accuracy":"4"},{"address3":"Ullia","state":"Uttar Pradesh","state_code":"36","district":"Shahjahanpur","district_code":"152","address1":"Powayan","address2":"","latitude":"27.8713","longitude":"79.8092","accuracy":"3"},{"address3":"Ayun","state":"Uttar Pradesh","state_code":"36","district":"Shahjahanpur","district_code":"152","address1":"Powayan","address2":"","latitude":"27.8713","longitude":"79.8092","accuracy":"3"},{"address3":"Mudiakurmiyat","state":"Uttar Pradesh","state_code":"36","district":"Shahjahanpur","district_code":"152","address1":"Powayan","address2":"","latitude":"27.8713","longitude":"79.8092","accuracy":"3"},{"address3":"Behtasambad","state":"Uttar Pradesh","state_code":"36","district":"Shahjahanpur","district_code":"152","address1":"Powayan","address2":"","latitude":"27.8713","longitude":"79.8092","accuracy":"3"},{"address3":"Agonasujanpur","state":"Uttar Pradesh","state_code":"36","district":"Shahjahanpur","district_code":"152","address1":"Powayan","address2":"","latitude":"27.8713","longitude":"79.8092","accuracy":"3"},{"address3":"Bilsandibuzurg","state":"Uttar Pradesh","state_code":"36","district":"Shahjahanpur","district_code":"152","address1":"Powayan","address2":"","latitude":"27.8713","longitude":"79.8092","accuracy":"3"},{"address3":"Powayan","state":"Uttar Pradesh","state_code":"36","district":"Shahjahanpur","district_code":"152","address1":"Powayan","address2":"","latitude":"27.8713","longitude":"79.8092","accuracy":"3"}],"242405":[{"address3":"Khutar","state":"Uttar Pradesh","state_code":"36","district":"Shahjahanpur","district_code":"152","address1":"Tilhar","address2":"","latitude":"28.2031","longitude":"80.2705","accuracy":"4"},{"address3":"Lalpur","state":"Uttar Pradesh","state_code":"36","district":"Shahjahanpur","district_code":"152","address1":"Powayan","address2":"","latitude":"27.8502","longitude":"79.8767","accuracy":"4"},{"address3":"Rautapur","state":"Uttar Pradesh","state_code":"36","district":"Shahjahanpur","district_code":"152","address1":"Powayan","address2":"","latitude":"27.9757","longitude":"79.8449","accuracy":"4"},{"address3":"Dhaknalahia","state":"Uttar Pradesh","state_code":"36","district":"Shahjahanpur","district_code":"152","address1":"Powayan","address2":"","latitude":"27.8156","longitude":"80.4293","accuracy":"3"},{"address3":"Tahkhurdkalan","state":"Uttar Pradesh","state_code":"36","district":"Shahjahanpur","district_code":"152","address1":"Powayan","address2":"","latitude":"27.8156","longitude":"80.4293","accuracy":"3"},{"address3":"Silhua","state":"Uttar Pradesh","state_code":"36","district":"Shahjahanpur","district_code":"152","address1":"Powayan","address2":"","latitude":"27.8156","longitude":"80.4293","accuracy":"3"},{"address3":"Malika","state":"Uttar Pradesh","state_code":"36","district":"Shahjahanpur","district_code":"152","address1":"Powayan","address2":"","latitude":"27.9757","longitude":"79.8449","accuracy":"4"},{"address3":"Muradpur","state":"Uttar Pradesh","state_code":"36","district":"Shahjahanpur","district_code":"152","address1":"Powayan","address2":"","latitude":"27.9757","longitude":"79.8449","accuracy":"4"},{"address3":"Prasadpur","state":"Uttar Pradesh","state_code":"36","district":"Shahjahanpur","district_code":"152","address1":"Powayan","address2":"","latitude":"27.8156","longitude":"80.4293","accuracy":"3"},{"address3":"Khandepur","state":"Uttar Pradesh","state_code":"36","district":"Shahjahanpur","district_code":"152","address1":"Powayan","address2":"","latitude":"27.9757","longitude":"79.8449","accuracy":"4"},{"address3":"Narotha Hansram","state":"Uttar Pradesh","state_code":"36","district":"Shahjahanpur","district_code":"152","address1":"Powayan","address2":"","latitude":"27.8156","longitude":"80.4293","accuracy":"3"},{"address3":"Kajriniranjanpur","state":"Uttar Pradesh","state_code":"36","district":"Shahjahanpur","district_code":"152","address1":"Powayan","address2":"","latitude":"27.8156","longitude":"80.4293","accuracy":"3"}],"242406":[{"address3":"Rosa","state":"Uttar Pradesh","state_code":"36","district":"Shahjahanpur","district_code":"152","address1":"Shahjahanpur","address2":"","latitude":"27.8247","longitude":"79.9169","accuracy":"4"},{"address3":"Chandapur","state":"Uttar Pradesh","state_code":"36","district":"Shahjahanpur","district_code":"152","address1":"Sadar","address2":"","latitude":"27.7721","longitude":"79.8957","accuracy":"4"},{"address3":"Pasgawan","state":"Uttar Pradesh","state_code":"36","district":"Shahjahanpur","district_code":"152","address1":"Sadar","address2":"","latitude":"27.7386","longitude":"79.8973","accuracy":"4"},{"address3":"Badshahnagar","state":"Uttar Pradesh","state_code":"36","district":"Shahjahanpur","district_code":"152","address1":"Sadar","address2":"","latitude":"27.781","longitude":"79.9238","accuracy":"4"},{"address3":"Mudigawan","state":"Uttar Pradesh","state_code":"36","district":"Shahjahanpur","district_code":"152","address1":"Sadar","address2":"","latitude":"27.764","longitude":"79.9035","accuracy":"3"},{"address3":"Raura","state":"Uttar Pradesh","state_code":"36","district":"Shahjahanpur","district_code":"152","address1":"Sadar","address2":"","latitude":"27.7537","longitude":"79.9243","accuracy":"4"},{"address3":"Chauhanapur","state":"Uttar Pradesh","state_code":"36","district":"Shahjahanpur","district_code":"152","address1":"Sadar","address2":"","latitude":"27.6715","longitude":"79.8705","accuracy":"4"},{"address3":"Saraura","state":"Uttar Pradesh","state_code":"36","district":"Shahjahanpur","district_code":"152","address1":"Sadar","address2":"","latitude":"27.8062","longitude":"79.8958","accuracy":"4"},{"address3":"Shahjapur","state":"Uttar Pradesh","state_code":"36","district":"Shahjahanpur","district_code":"152","address1":"Sadar","address2":"","latitude":"27.764","longitude":"79.9035","accuracy":"3"},{"address3":"Kahelia","state":"Uttar Pradesh","state_code":"36","district":"Shahjahanpur","district_code":"152","address1":"Sadar","address2":"","latitude":"27.764","longitude":"79.9035","accuracy":"3"},{"address3":"Khiriaheer","state":"Uttar Pradesh","state_code":"36","district":"Shahjahanpur","district_code":"152","address1":"Sadar","address2":"","latitude":"27.764","longitude":"79.9035","accuracy":"3"},{"address3":"Kaneng","state":"Uttar Pradesh","state_code":"36","district":"Shahjahanpur","district_code":"152","address1":"Sadar","address2":"","latitude":"27.764","longitude":"79.9035","accuracy":"3"},{"address3":"Seramau(South)","state":"Uttar Pradesh","state_code":"36","district":"Shahjahanpur","district_code":"152","address1":"Sadar","address2":"","latitude":"27.764","longitude":"79.9035","accuracy":"3"},{"address3":"Singraha","state":"Uttar Pradesh","state_code":"36","district":"Shahjahanpur","district_code":"152","address1":"Sadar","address2":"","latitude":"27.764","longitude":"79.9035","accuracy":"3"}],"242407":[{"address3":"Nigohi","state":"Uttar Pradesh","state_code":"36","district":"Shahjahanpur","district_code":"152","address1":"Tilhar","address2":"","latitude":"28.1068","longitude":"79.8717","accuracy":"4"},{"address3":"Areli","state":"Uttar Pradesh","state_code":"36","district":"Shahjahanpur","district_code":"152","address1":"Tilhar","address2":"","latitude":"28.0288","longitude":"79.8849","accuracy":"4"},{"address3":"Safaura","state":"Uttar Pradesh","state_code":"36","district":"Shahjahanpur","district_code":"152","address1":"Tilhar","address2":"","latitude":"27.9757","longitude":"79.8449","accuracy":"4"},{"address3":"Andkhera","state":"Uttar Pradesh","state_code":"36","district":"Shahjahanpur","district_code":"152","address1":"Tilhar","address2":"","latitude":"27.9757","longitude":"79.8449","accuracy":"4"},{"address3":"Azizpur","state":"Uttar Pradesh","state_code":"36","district":"Shahjahanpur","district_code":"152","address1":"Tilhar","address2":"","latitude":"27.8133","longitude":"79.8425","accuracy":"4"},{"address3":"Ganpatpur","state":"Uttar Pradesh","state_code":"36","district":"Shahjahanpur","district_code":"152","address1":"Tilhar","address2":"","latitude":"28.114","longitude":"79.9349","accuracy":"4"},{"address3":"Deoria","state":"Uttar Pradesh","state_code":"36","district":"Shahjahanpur","district_code":"152","address1":"Tilhar","address2":"","latitude":"27.9231","longitude":"79.7415","accuracy":"4"},{"address3":"Zindpura","state":"Uttar Pradesh","state_code":"36","district":"Shahjahanpur","district_code":"152","address1":"Tilhar","address2":"","latitude":"28.199","longitude":"79.8446","accuracy":"4"},{"address3":"Hatgaon","state":"Uttar Pradesh","state_code":"36","district":"Shahjahanpur","district_code":"152","address1":"Tilhar","address2":"","latitude":"28.034","longitude":"79.8511","accuracy":"3"},{"address3":"Talgaon","state":"Uttar Pradesh","state_code":"36","district":"Shahjahanpur","district_code":"152","address1":"Tilhar","address2":"","latitude":"28.228","longitude":"79.8424","accuracy":"4"},{"address3":"Ladhaula","state":"Uttar Pradesh","state_code":"36","district":"Shahjahanpur","district_code":"152","address1":"Tilhar","address2":"","latitude":"28.0787","longitude":"79.9487","accuracy":"4"},{"address3":"Parsonakhalilpur","state":"Uttar Pradesh","state_code":"36","district":"Shahjahanpur","district_code":"152","address1":"Tilhar","address2":"","latitude":"28.034","longitude":"79.8511","accuracy":"3"},{"address3":"Rampurbasant","state":"Uttar Pradesh","state_code":"36","district":"Shahjahanpur","district_code":"152","address1":"Tilhar","address2":"","latitude":"28.034","longitude":"79.8511","accuracy":"3"},{"address3":"Bahanderi","state":"Uttar Pradesh","state_code":"36","district":"Shahjahanpur","district_code":"152","address1":"Tilhar","address2":"","latitude":"28.034","longitude":"79.8511","accuracy":"3"},{"address3":"Bharribasantpur","state":"Uttar Pradesh","state_code":"36","district":"Shahjahanpur","district_code":"152","address1":"Tilhar","address2":"","latitude":"28.034","longitude":"79.8511","accuracy":"3"},{"address3":"Sandakhas","state":"Uttar Pradesh","state_code":"36","district":"Shahjahanpur","district_code":"152","address1":"Tilhar","address2":"","latitude":"28.034","longitude":"79.8511","accuracy":"3"},{"address3":"Bikrampurchakora","state":"Uttar Pradesh","state_code":"36","district":"Shahjahanpur","district_code":"152","address1":"Tilhar","address2":"","latitude":"28.034","longitude":"79.8511","accuracy":"3"},{"address3":"Bilandpurgaddipur","state":"Uttar Pradesh","state_code":"36","district":"Shahjahanpur","district_code":"152","address1":"Tilhar","address2":"","latitude":"28.034","longitude":"79.8511","accuracy":"3"},{"address3":"Dhakiatiwari","state":"Uttar Pradesh","state_code":"36","district":"Shahjahanpur","district_code":"152","address1":"Tilhar","address2":"","latitude":"28.034","longitude":"79.8511","accuracy":"3"},{"address3":"Unkalan","state":"Uttar Pradesh","state_code":"36","district":"Shahjahanpur","district_code":"152","address1":"Tilhar","address2":"","latitude":"28.034","longitude":"79.8511","accuracy":"3"},{"address3":"Chandeura","state":"Uttar Pradesh","state_code":"36","district":"Shahjahanpur","district_code":"152","address1":"Tilhar","address2":"","latitude":"28.034","longitude":"79.8511","accuracy":"3"}],"credits":[{"name":"geonames","url":"https://www.geonames.org"}],"last_update":"2019-03-01T09:01:38.776Z"}