{"272001":[{"address3":"Civil Line (Basti)","state":"Uttar Pradesh","state_code":"36","district":"Basti","district_code":"185","address1":"Basti","address2":"","latitude":"26.7933","longitude":"82.7685","accuracy":"1"},{"address3":"Basti H.O","state":"Uttar Pradesh","state_code":"36","district":"Basti","district_code":"185","address1":"Basti","address2":"","latitude":"26.7933","longitude":"82.7685","accuracy":"1"},{"address3":"Gandhinagar (Basti)","state":"Uttar Pradesh","state_code":"36","district":"Basti","district_code":"185","address1":"Basti","address2":"","latitude":"26.7933","longitude":"82.7685","accuracy":"1"},{"address3":"Basti Huchhary","state":"Uttar Pradesh","state_code":"36","district":"Basti","district_code":"185","address1":"Basti","address2":"","latitude":"26.7933","longitude":"82.7685","accuracy":"1"},{"address3":"Orijote","state":"Uttar Pradesh","state_code":"36","district":"Basti","district_code":"185","address1":"Basti","address2":"","latitude":"26.7933","longitude":"82.7685","accuracy":"1"},{"address3":"ITI (Basti)","state":"Uttar Pradesh","state_code":"36","district":"Basti","district_code":"185","address1":"Basti","address2":"","latitude":"26.7933","longitude":"82.7685","accuracy":"1"}],"272002":[{"address3":"Ganeshpur","state":"Uttar Pradesh","state_code":"36","district":"Basti","district_code":"185","address1":"Basti Sadar","address2":"","latitude":"26.6199","longitude":"82.7261","accuracy":"4"},{"address3":"Pakri Jai","state":"Uttar Pradesh","state_code":"36","district":"Basti","district_code":"185","address1":"Basti Sadar","address2":"","latitude":"26.9042","longitude":"82.8395","accuracy":"4"},{"address3":"Raghunathpur","state":"Uttar Pradesh","state_code":"36","district":"Basti","district_code":"185","address1":"Basti Sadar","address2":"","latitude":"26.8378","longitude":"82.7035","accuracy":"4"},{"address3":"Purani Basti (Basti)","state":"Uttar Pradesh","state_code":"36","district":"Basti","district_code":"185","address1":"Basti Sadar","address2":"","latitude":"26.7933","longitude":"82.7685","accuracy":"3"},{"address3":"Bankata","state":"Uttar Pradesh","state_code":"36","district":"Basti","district_code":"185","address1":"Basti","address2":"","latitude":"26.7604","longitude":"82.7633","accuracy":"4"},{"address3":"Karma Khan","state":"Uttar Pradesh","state_code":"36","district":"Basti","district_code":"185","address1":"Basti Sadar","address2":"","latitude":"26.8183","longitude":"82.6311","accuracy":"4"},{"address3":"T B Clinic","state":"Uttar Pradesh","state_code":"36","district":"Basti","district_code":"185","address1":"Basti","address2":"","latitude":"26.7933","longitude":"82.7685","accuracy":"3"},{"address3":"Dudhaura","state":"Uttar Pradesh","state_code":"36","district":"Basti","district_code":"185","address1":"Basti Sadar","address2":"","latitude":"26.7691","longitude":"82.7625","accuracy":"4"},{"address3":"Pandey Bazar","state":"Uttar Pradesh","state_code":"36","district":"Basti","district_code":"185","address1":"Basti","address2":"","latitude":"26.7933","longitude":"82.7685","accuracy":"3"},{"address3":"Labnapar","state":"Uttar Pradesh","state_code":"36","district":"Basti","district_code":"185","address1":"Basti Sadar","address2":"","latitude":"26.7877","longitude":"82.7623","accuracy":"4"},{"address3":"Basti B.S.","state":"Uttar Pradesh","state_code":"36","district":"Basti","district_code":"185","address1":"Basti","address2":"","latitude":"26.7933","longitude":"82.7685","accuracy":"3"},{"address3":"Pursia","state":"Uttar Pradesh","state_code":"36","district":"Basti","district_code":"185","address1":"Basti Sadar","address2":"","latitude":"26.8183","longitude":"82.6311","accuracy":"3"},{"address3":"Majahuwameer","state":"Uttar Pradesh","state_code":"36","district":"Basti","district_code":"185","address1":"Basti Sadar","address2":"","latitude":"26.7933","longitude":"82.7685","accuracy":"3"},{"address3":"Gaura","state":"Uttar Pradesh","state_code":"36","district":"Basti","district_code":"185","address1":"Basti Sadar","address2":"","latitude":"26.6216","longitude":"82.6737","accuracy":"4"},{"address3":"Majhauwa Khajuri","state":"Uttar Pradesh","state_code":"36","district":"Basti","district_code":"185","address1":"Basti Sadar","address2":"","latitude":"26.7933","longitude":"82.7685","accuracy":"3"},{"address3":"Karahi","state":"Uttar Pradesh","state_code":"36","district":"Basti","district_code":"185","address1":"Basti Sadar","address2":"","latitude":"26.8255","longitude":"82.791","accuracy":"4"},{"address3":"Saithawalia","state":"Uttar Pradesh","state_code":"36","district":"Basti","district_code":"185","address1":"Basti Sadar","address2":"","latitude":"26.7933","longitude":"82.7685","accuracy":"3"},{"address3":"Baghnagar","state":"Uttar Pradesh","state_code":"36","district":"Basti","district_code":"185","address1":"Basti","address2":"","latitude":"26.8677","longitude":"82.8518","accuracy":"4"},{"address3":"Rasoolpur","state":"Uttar Pradesh","state_code":"36","district":"Basti","district_code":"185","address1":"Basti Sadar","address2":"","latitude":"26.7933","longitude":"82.7685","accuracy":"3"},{"address3":"Hathiagarh","state":"Uttar Pradesh","state_code":"36","district":"Basti","district_code":"185","address1":"NA","address2":"","latitude":"26.8386","longitude":"82.7683","accuracy":"4"},{"address3":"Basti Sugar Factory","state":"Uttar Pradesh","state_code":"36","district":"Basti","district_code":"185","address1":"Basti Sadar","address2":"","latitude":"26.7933","longitude":"82.7685","accuracy":"3"},{"address3":"Bhelkha","state":"Uttar Pradesh","state_code":"36","district":"Basti","district_code":"185","address1":"Basti Sadar","address2":"","latitude":"26.7868","longitude":"82.7758","accuracy":"4"},{"address3":"Ushara Shahid","state":"Uttar Pradesh","state_code":"36","district":"Basti","district_code":"185","address1":"Basti Sadar","address2":"","latitude":"26.7933","longitude":"82.7685","accuracy":"3"},{"address3":"Dakhin Darwaza","state":"Uttar Pradesh","state_code":"36","district":"Basti","district_code":"185","address1":"Basti","address2":"","latitude":"26.7939","longitude":"82.6756","accuracy":"4"},{"address3":"Madwanagar","state":"Uttar Pradesh","state_code":"36","district":"Basti","district_code":"185","address1":"Basti Sadar","address2":"","latitude":"26.7933","longitude":"82.7685","accuracy":"3"},{"address3":"Nagahara","state":"Uttar Pradesh","state_code":"36","district":"Basti","district_code":"185","address1":"Basti Sadar","address2":"","latitude":"26.7933","longitude":"82.7685","accuracy":"3"},{"address3":"Kondra Pandey","state":"Uttar Pradesh","state_code":"36","district":"Basti","district_code":"185","address1":"Basti Sadar","address2":"","latitude":"26.7933","longitude":"82.7685","accuracy":"3"},{"address3":"Puraina Mansoor","state":"Uttar Pradesh","state_code":"36","district":"Basti","district_code":"185","address1":"Basti Sadar","address2":"","latitude":"26.7933","longitude":"82.7685","accuracy":"3"},{"address3":"Manjharia Vikram","state":"Uttar Pradesh","state_code":"36","district":"Basti","district_code":"185","address1":"Basti Sadar","address2":"","latitude":"26.7933","longitude":"82.7685","accuracy":"3"},{"address3":"Bai Pokhar","state":"Uttar Pradesh","state_code":"36","district":"Basti","district_code":"185","address1":"Basti","address2":"","latitude":"26.7933","longitude":"82.7685","accuracy":"3"},{"address3":"Pakari Dhaurahra","state":"Uttar Pradesh","state_code":"36","district":"Basti","district_code":"185","address1":"Basti Sadar","address2":"","latitude":"26.7933","longitude":"82.7685","accuracy":"3"},{"address3":"Chhapia Sheobaran","state":"Uttar Pradesh","state_code":"36","district":"Basti","district_code":"185","address1":"Basti Sadar","address2":"","latitude":"26.7933","longitude":"82.7685","accuracy":"3"},{"address3":"Orawara","state":"Uttar Pradesh","state_code":"36","district":"Basti","district_code":"185","address1":"Basti Sadar","address2":"","latitude":"26.7933","longitude":"82.7685","accuracy":"3"},{"address3":"Marwatia Kasaila","state":"Uttar Pradesh","state_code":"36","district":"Basti","district_code":"185","address1":"Basti Sadar","address2":"","latitude":"26.7933","longitude":"82.7685","accuracy":"3"},{"address3":"Subdeiyakala","state":"Uttar Pradesh","state_code":"36","district":"Basti","district_code":"185","address1":"Basti Sadar","address2":"","latitude":"26.7933","longitude":"82.7685","accuracy":"3"},{"address3":"Puraina Pandey","state":"Uttar Pradesh","state_code":"36","district":"Basti","district_code":"185","address1":"Basti Sadar","address2":"","latitude":"26.7933","longitude":"82.7685","accuracy":"3"},{"address3":"Jamadashahi","state":"Uttar Pradesh","state_code":"36","district":"Basti","district_code":"185","address1":"Basti Sadar","address2":"","latitude":"26.7933","longitude":"82.7685","accuracy":"3"}],"272123":[{"address3":"Bharwalia","state":"Uttar Pradesh","state_code":"36","district":"Basti","district_code":"185","address1":"Basti Sadar","address2":"","latitude":"26.7132","longitude":"82.703","accuracy":"4"},{"address3":"Pagar","state":"Uttar Pradesh","state_code":"36","district":"Basti","district_code":"185","address1":"Basti Sadar","address2":"","latitude":"26.7254","longitude":"82.7103","accuracy":"4"},{"address3":"Deisand","state":"Uttar Pradesh","state_code":"36","district":"Basti","district_code":"185","address1":"Basti Sadar","address2":"","latitude":"26.7038","longitude":"82.7797","accuracy":"3"},{"address3":"Khoria","state":"Uttar Pradesh","state_code":"36","district":"Basti","district_code":"185","address1":"Basti Sadar","address2":"","latitude":"26.6729","longitude":"82.9259","accuracy":"4"},{"address3":"Bankati Bazar","state":"Uttar Pradesh","state_code":"36","district":"Basti","district_code":"185","address1":"Basti","address2":"","latitude":"26.7038","longitude":"82.7797","accuracy":"3"},{"address3":"Barahuwan","state":"Uttar Pradesh","state_code":"36","district":"Basti","district_code":"185","address1":"Basti","address2":"","latitude":"26.7038","longitude":"82.7797","accuracy":"3"}],"272124":[{"address3":"Kothwa","state":"Uttar Pradesh","state_code":"36","district":"Basti","district_code":"185","address1":"Basti Sadar","address2":"","latitude":"26.7597","longitude":"82.7207","accuracy":"4"},{"address3":"Niranjanpur","state":"Uttar Pradesh","state_code":"36","district":"Basti","district_code":"185","address1":"Basti Sadar","address2":"","latitude":"26.8183","longitude":"82.6311","accuracy":"4"},{"address3":"Rampur","state":"Uttar Pradesh","state_code":"36","district":"Basti","district_code":"185","address1":"Basti Sadar","address2":"","latitude":"26.5952","longitude":"82.8704","accuracy":"4"},{"address3":"Gaura Upadhyay","state":"Uttar Pradesh","state_code":"36","district":"Basti","district_code":"185","address1":"Basti Sadar","address2":"","latitude":"26.5679","longitude":"82.7556","accuracy":"3"},{"address3":"Mahson","state":"Uttar Pradesh","state_code":"36","district":"Basti","district_code":"185","address1":"Basti Sadar","address2":"","latitude":"26.733","longitude":"82.7801","accuracy":"4"},{"address3":"Pipragautam","state":"Uttar Pradesh","state_code":"36","district":"Basti","district_code":"185","address1":"Basti","address2":"","latitude":"26.5679","longitude":"82.7556","accuracy":"3"},{"address3":"Samaspur","state":"Uttar Pradesh","state_code":"36","district":"Basti","district_code":"185","address1":"Basti Sadar","address2":"","latitude":"26.8183","longitude":"82.6311","accuracy":"4"},{"address3":"Naraiyanpur","state":"Uttar Pradesh","state_code":"36","district":"Basti","district_code":"185","address1":"Basti Sadar","address2":"","latitude":"26.5679","longitude":"82.7556","accuracy":"3"},{"address3":"Bhawanipur","state":"Uttar Pradesh","state_code":"36","district":"Basti","district_code":"185","address1":"Basti Sadar","address2":"","latitude":"26.7337","longitude":"82.8167","accuracy":"4"},{"address3":"Sillo","state":"Uttar Pradesh","state_code":"36","district":"Basti","district_code":"185","address1":"Basti Sadar","address2":"","latitude":"26.5679","longitude":"82.7556","accuracy":"3"},{"address3":"Misraulia","state":"Uttar Pradesh","state_code":"36","district":"Sant Kabir Nagar","district_code":"186","address1":"Khalilabad","address2":"","latitude":"26.913","longitude":"82.9106","accuracy":"4"}],"272125":[{"address3":"Sumha","state":"Uttar Pradesh","state_code":"36","district":"Basti","district_code":"185","address1":"Basti Sadar","address2":"","latitude":"26.8183","longitude":"82.6311","accuracy":"4"},{"address3":"Parsa Jhakaria","state":"Uttar Pradesh","state_code":"36","district":"Basti","district_code":"185","address1":"Basti Sadar","address2":"","latitude":"26.8183","longitude":"82.6311","accuracy":"4"},{"address3":"Pakari Araji","state":"Uttar Pradesh","state_code":"36","district":"Basti","district_code":"185","address1":"Basti Sadar","address2":"","latitude":"26.7729","longitude":"83.0786","accuracy":"3"},{"address3":"Lauki Lala","state":"Uttar Pradesh","state_code":"36","district":"Basti","district_code":"185","address1":"Basti Sadar","address2":"","latitude":"26.8183","longitude":"82.6311","accuracy":"4"},{"address3":"Chhagulia Bagulia","state":"Uttar Pradesh","state_code":"36","district":"Basti","district_code":"185","address1":"Basti Sadar","address2":"","latitude":"26.7729","longitude":"83.0786","accuracy":"3"},{"address3":"Dudhara","state":"Uttar Pradesh","state_code":"36","district":"Basti","district_code":"185","address1":"Basti Sadar","address2":"","latitude":"26.8183","longitude":"82.6311","accuracy":"4"},{"address3":"Joorie","state":"Uttar Pradesh","state_code":"36","district":"Basti","district_code":"185","address1":"Basti Sadar","address2":"","latitude":"26.7729","longitude":"83.0786","accuracy":"3"},{"address3":"Mahani","state":"Uttar Pradesh","state_code":"36","district":"Basti","district_code":"185","address1":"Basti Sadar","address2":"","latitude":"26.8183","longitude":"82.6311","accuracy":"4"},{"address3":"Burhi Belhar","state":"Uttar Pradesh","state_code":"36","district":"Basti","district_code":"185","address1":"Basti Sadar","address2":"","latitude":"26.7729","longitude":"83.0786","accuracy":"3"},{"address3":"Bhivra","state":"Uttar Pradesh","state_code":"36","district":"Basti","district_code":"185","address1":"Basti Sadar","address2":"","latitude":"26.7729","longitude":"83.0786","accuracy":"3"},{"address3":"Bajahara","state":"Uttar Pradesh","state_code":"36","district":"Basti","district_code":"185","address1":"Basti","address2":"","latitude":"26.7729","longitude":"83.0786","accuracy":"3"},{"address3":"Khatiyawan","state":"Uttar Pradesh","state_code":"36","district":"Basti","district_code":"185","address1":"Basti Sadar","address2":"","latitude":"26.7729","longitude":"83.0786","accuracy":"3"},{"address3":"Sangath","state":"Uttar Pradesh","state_code":"36","district":"Basti","district_code":"185","address1":"Basti Sadar","address2":"","latitude":"26.7729","longitude":"83.0786","accuracy":"3"},{"address3":"Jeodhara","state":"Uttar Pradesh","state_code":"36","district":"Basti","district_code":"185","address1":"Basti Sadar","address2":"","latitude":"26.7729","longitude":"83.0786","accuracy":"3"},{"address3":"Pachawa","state":"Uttar Pradesh","state_code":"36","district":"Basti","district_code":"185","address1":"Basti Sadar","address2":"","latitude":"26.7729","longitude":"83.0786","accuracy":"3"},{"address3":"Kusuru Khurd","state":"Uttar Pradesh","state_code":"36","district":"Basti","district_code":"185","address1":"Basti Sadar","address2":"","latitude":"26.7729","longitude":"83.0786","accuracy":"3"},{"address3":"Melan Khurd","state":"Uttar Pradesh","state_code":"36","district":"Basti","district_code":"185","address1":"Basti Sadar","address2":"","latitude":"26.7729","longitude":"83.0786","accuracy":"3"},{"address3":"Mudadeehabeg","state":"Uttar Pradesh","state_code":"36","district":"Basti","district_code":"185","address1":"Basti Sadar","address2":"","latitude":"26.7729","longitude":"83.0786","accuracy":"3"},{"address3":"Hatwa","state":"Uttar Pradesh","state_code":"36","district":"Sant Kabir Nagar","district_code":"186","address1":"NA","address2":"","latitude":"26.9005","longitude":"82.9684","accuracy":"4"},{"address3":"Pachpokhari","state":"Uttar Pradesh","state_code":"36","district":"Sant Kabir Nagar","district_code":"186","address1":"Khalilabad","address2":"","latitude":"26.8461","longitude":"82.9915","accuracy":"4"},{"address3":"Chhata","state":"Uttar Pradesh","state_code":"36","district":"Sant Kabir Nagar","district_code":"186","address1":"Khalilabad","address2":"","latitude":"26.849","longitude":"82.9449","accuracy":"4"}],"272126":[{"address3":"Hatwa","state":"Uttar Pradesh","state_code":"36","district":"Basti","district_code":"185","address1":"Basti Sadar","address2":"","latitude":"26.7083","longitude":"82.838","accuracy":"4"},{"address3":"Banskhor Kalan","state":"Uttar Pradesh","state_code":"36","district":"Basti","district_code":"185","address1":"Basti","address2":"","latitude":"26.9641","longitude":"82.8961","accuracy":"4"},{"address3":"Semariyawan","state":"Uttar Pradesh","state_code":"36","district":"Basti","district_code":"185","address1":"Basti Sadar","address2":"","latitude":"26.8723","longitude":"82.8998","accuracy":"3"},{"address3":"Tilja","state":"Uttar Pradesh","state_code":"36","district":"Basti","district_code":"185","address1":"Basti Sadar","address2":"","latitude":"26.8183","longitude":"82.6311","accuracy":"4"},{"address3":"Kohriyawan","state":"Uttar Pradesh","state_code":"36","district":"Basti","district_code":"185","address1":"Basti Sadar","address2":"","latitude":"26.8723","longitude":"82.8998","accuracy":"3"},{"address3":"Tinharimafi","state":"Uttar Pradesh","state_code":"36","district":"Basti","district_code":"185","address1":"Basti Sadar","address2":"","latitude":"26.8723","longitude":"82.8998","accuracy":"3"},{"address3":"Dandwakala","state":"Uttar Pradesh","state_code":"36","district":"Basti","district_code":"185","address1":"Basti Sadar","address2":"","latitude":"26.8723","longitude":"82.8998","accuracy":"3"},{"address3":"Danokuiya","state":"Uttar Pradesh","state_code":"36","district":"Basti","district_code":"185","address1":"Basti Sadar","address2":"","latitude":"26.8723","longitude":"82.8998","accuracy":"3"},{"address3":"Gunakhor","state":"Uttar Pradesh","state_code":"36","district":"Basti","district_code":"185","address1":"Basti Sadar","address2":"","latitude":"26.8723","longitude":"82.8998","accuracy":"3"},{"address3":"Babhni Misra","state":"Uttar Pradesh","state_code":"36","district":"Sant Kabir Nagar","district_code":"186","address1":"Basti Sadar","address2":"","latitude":"26.8723","longitude":"82.8998","accuracy":"3"},{"address3":"Bhagausa","state":"Uttar Pradesh","state_code":"36","district":"Sant Kabir Nagar","district_code":"186","address1":"Basti Sadar","address2":"","latitude":"26.9509","longitude":"82.9348","accuracy":"4"},{"address3":"Bhitiya","state":"Uttar Pradesh","state_code":"36","district":"Sant Kabir Nagar","district_code":"186","address1":"Basti Sadar","address2":"","latitude":"26.8723","longitude":"82.8998","accuracy":"3"}],"272127":[{"address3":"Dhirauli Babu","state":"Uttar Pradesh","state_code":"36","district":"Basti","district_code":"185","address1":"Harraiya","address2":"","latitude":"26.728","longitude":"82.3891","accuracy":"4"},{"address3":"Manjhilgaon","state":"Uttar Pradesh","state_code":"36","district":"Basti","district_code":"185","address1":"Harraiya","address2":"","latitude":"26.7448","longitude":"82.3637","accuracy":"4"},{"address3":"Jaitapur","state":"Uttar Pradesh","state_code":"36","district":"Basti","district_code":"185","address1":"Harraiya","address2":"","latitude":"26.8183","longitude":"82.6311","accuracy":"4"},{"address3":"Turasi","state":"Uttar Pradesh","state_code":"36","district":"Basti","district_code":"185","address1":"Harraiya","address2":"","latitude":"26.8274","longitude":"82.3509","accuracy":"3"},{"address3":"Sangrampur","state":"Uttar Pradesh","state_code":"36","district":"Basti","district_code":"185","address1":"Harraiya","address2":"","latitude":"26.7725","longitude":"82.4301","accuracy":"4"},{"address3":"Jajupur","state":"Uttar Pradesh","state_code":"36","district":"Basti","district_code":"185","address1":"Harraiya","address2":"","latitude":"26.7353","longitude":"82.3634","accuracy":"4"},{"address3":"Ghorsayen","state":"Uttar Pradesh","state_code":"36","district":"Basti","district_code":"185","address1":"Harraiya","address2":"","latitude":"26.8274","longitude":"82.3509","accuracy":"3"},{"address3":"Amorha","state":"Uttar Pradesh","state_code":"36","district":"Basti","district_code":"185","address1":"Harraiya","address2":"","latitude":"26.762","longitude":"82.3939","accuracy":"4"},{"address3":"Hiyaroopur","state":"Uttar Pradesh","state_code":"36","district":"Basti","district_code":"185","address1":"Harraiya","address2":"","latitude":"26.8274","longitude":"82.3509","accuracy":"3"},{"address3":"Pachwas","state":"Uttar Pradesh","state_code":"36","district":"Basti","district_code":"185","address1":"Harraiya","address2":"","latitude":"26.8274","longitude":"82.3509","accuracy":"3"},{"address3":"Khesuwa","state":"Uttar Pradesh","state_code":"36","district":"Basti","district_code":"185","address1":"Harraiya","address2":"","latitude":"26.8274","longitude":"82.3509","accuracy":"3"}],"272128":[{"address3":"Turkipur","state":"Uttar Pradesh","state_code":"36","district":"Basti","district_code":"185","address1":"Harraiya","address2":"","latitude":"26.7132","longitude":"82.4634","accuracy":"4"},{"address3":"Kataria","state":"Uttar Pradesh","state_code":"36","district":"Basti","district_code":"185","address1":"Harraiya","address2":"","latitude":"26.6836","longitude":"82.475","accuracy":"4"},{"address3":"Bardia Kunwar","state":"Uttar Pradesh","state_code":"36","district":"Basti","district_code":"185","address1":"Harraiya","address2":"","latitude":"26.6633","longitude":"82.1392","accuracy":"3"},{"address3":"Bishesharganj","state":"Uttar Pradesh","state_code":"36","district":"Basti","district_code":"185","address1":"Harraiya","address2":"","latitude":"26.8183","longitude":"82.6311","accuracy":"4"},{"address3":"Nande Kuwan","state":"Uttar Pradesh","state_code":"36","district":"Basti","district_code":"185","address1":"Harraiya","address2":"","latitude":"26.6633","longitude":"82.1392","accuracy":"3"},{"address3":"Sudipur","state":"Uttar Pradesh","state_code":"36","district":"Basti","district_code":"185","address1":"Harraiya","address2":"","latitude":"26.6938","longitude":"82.4226","accuracy":"4"},{"address3":"Sarraiya Atibal","state":"Uttar Pradesh","state_code":"36","district":"Basti","district_code":"185","address1":"Harraiya","address2":"","latitude":"26.6633","longitude":"82.1392","accuracy":"3"},{"address3":"Roopgarh","state":"Uttar Pradesh","state_code":"36","district":"Basti","district_code":"185","address1":"Harraiya","address2":"","latitude":"26.6633","longitude":"82.1392","accuracy":"3"}],"272129":[{"address3":"Bijwar Barahai","state":"Uttar Pradesh","state_code":"36","district":"Siddharthnagar","district_code":"184","address1":"Domariaganj","address2":"","latitude":"26.8996","longitude":"82.5072","accuracy":"3"},{"address3":"Belwa","state":"Uttar Pradesh","state_code":"36","district":"Basti","district_code":"185","address1":"Harraiya","address2":"","latitude":"27.0638","longitude":"82.6081","accuracy":"4"},{"address3":"Dhenugawan","state":"Uttar Pradesh","state_code":"36","district":"Basti","district_code":"185","address1":"Harraiya","address2":"","latitude":"26.8996","longitude":"82.5072","accuracy":"3"},{"address3":"Shankarpur","state":"Uttar Pradesh","state_code":"36","district":"Basti","district_code":"185","address1":"Harraiya","address2":"","latitude":"26.6936","longitude":"82.498","accuracy":"4"},{"address3":"Tharuapur","state":"Uttar Pradesh","state_code":"36","district":"Basti","district_code":"185","address1":"Harraiya","address2":"","latitude":"26.8996","longitude":"82.5072","accuracy":"3"},{"address3":"Sikandarpur","state":"Uttar Pradesh","state_code":"36","district":"Basti","district_code":"185","address1":"Harraiya","address2":"","latitude":"26.9406","longitude":"82.6681","accuracy":"4"},{"address3":"Malauli Gosain","state":"Uttar Pradesh","state_code":"36","district":"Basti","district_code":"185","address1":"Harraiya","address2":"","latitude":"26.8996","longitude":"82.5072","accuracy":"3"},{"address3":"Nandnagar","state":"Uttar Pradesh","state_code":"36","district":"Basti","district_code":"185","address1":"Harraiya","address2":"","latitude":"26.9004","longitude":"82.2545","accuracy":"4"}],"272130":[{"address3":"Parasrampur","state":"Uttar Pradesh","state_code":"36","district":"Basti","district_code":"185","address1":"Harraiya","address2":"","latitude":"26.9051","longitude":"82.4452","accuracy":"4"},{"address3":"Lalpur","state":"Uttar Pradesh","state_code":"36","district":"Basti","district_code":"185","address1":"Harraiya","address2":"","latitude":"26.8559","longitude":"82.3385","accuracy":"4"},{"address3":"Kharawan Kunwsar","state":"Uttar Pradesh","state_code":"36","district":"Basti","district_code":"185","address1":"Harraiya","address2":"","latitude":"26.8772","longitude":"82.5779","accuracy":"3"},{"address3":"Raghunathpur","state":"Uttar Pradesh","state_code":"36","district":"Basti","district_code":"185","address1":"Harraiya","address2":"","latitude":"26.8378","longitude":"82.7035","accuracy":"4"},{"address3":"Bhainsaha","state":"Uttar Pradesh","state_code":"36","district":"Basti","district_code":"185","address1":"Harraiya","address2":"","latitude":"26.8183","longitude":"82.6311","accuracy":"4"},{"address3":"Jagdishpur","state":"Uttar Pradesh","state_code":"36","district":"Basti","district_code":"185","address1":"Harraiya","address2":"","latitude":"26.8751","longitude":"82.6069","accuracy":"4"},{"address3":"Nedula","state":"Uttar Pradesh","state_code":"36","district":"Basti","district_code":"185","address1":"Harraiya","address2":"","latitude":"26.8772","longitude":"82.5779","accuracy":"3"},{"address3":"Gopinathpur","state":"Uttar Pradesh","state_code":"36","district":"Basti","district_code":"185","address1":"Harraiya","address2":"","latitude":"26.8975","longitude":"82.3799","accuracy":"4"},{"address3":"Harish Nagar","state":"Uttar Pradesh","state_code":"36","district":"Basti","district_code":"185","address1":"Harraiya","address2":"","latitude":"26.8772","longitude":"82.5779","accuracy":"3"},{"address3":"Salempur","state":"Uttar Pradesh","state_code":"36","district":"Basti","district_code":"185","address1":"Harraiya","address2":"","latitude":"26.6857","longitude":"82.7536","accuracy":"4"},{"address3":"Deferi","state":"Uttar Pradesh","state_code":"36","district":"Basti","district_code":"185","address1":"Harraiya","address2":"","latitude":"26.8772","longitude":"82.5779","accuracy":"3"},{"address3":"Sringinari","state":"Uttar Pradesh","state_code":"36","district":"Basti","district_code":"185","address1":"Harraiya","address2":"","latitude":"26.8772","longitude":"82.5779","accuracy":"3"}],"272131":[{"address3":"Dubaulia","state":"Uttar Pradesh","state_code":"36","district":"Basti","district_code":"185","address1":"Harraiya","address2":"","latitude":"26.7004","longitude":"82.506","accuracy":"4"},{"address3":"Dailapur","state":"Uttar Pradesh","state_code":"36","district":"Basti","district_code":"185","address1":"Harraiya","address2":"","latitude":"26.7867","longitude":"82.597","accuracy":"4"},{"address3":"Barhni","state":"Uttar Pradesh","state_code":"36","district":"Basti","district_code":"185","address1":"Harraiya","address2":"","latitude":"26.8047","longitude":"82.7563","accuracy":"4"},{"address3":"Unji","state":"Uttar Pradesh","state_code":"36","district":"Basti","district_code":"185","address1":"Harraiya","address2":"","latitude":"26.8183","longitude":"82.6311","accuracy":"4"},{"address3":"Mahuwalakhanpur","state":"Uttar Pradesh","state_code":"36","district":"Basti","district_code":"185","address1":"Harraiya","address2":"","latitude":"26.6618","longitude":"82.8122","accuracy":"3"},{"address3":"Ojhaganj","state":"Uttar Pradesh","state_code":"36","district":"Basti","district_code":"185","address1":"Harraiya","address2":"","latitude":"26.7351","longitude":"82.539","accuracy":"4"},{"address3":"Gopiapar","state":"Uttar Pradesh","state_code":"36","district":"Basti","district_code":"185","address1":"Harraiya","address2":"","latitude":"26.7506","longitude":"82.6202","accuracy":"4"},{"address3":"Barahata","state":"Uttar Pradesh","state_code":"36","district":"Basti","district_code":"185","address1":"Harraiya","address2":"","latitude":"26.6618","longitude":"82.8122","accuracy":"3"},{"address3":"Garha","state":"Uttar Pradesh","state_code":"36","district":"Basti","district_code":"185","address1":"Harraiya","address2":"","latitude":"26.7218","longitude":"82.5747","accuracy":"4"},{"address3":"Bairagal","state":"Uttar Pradesh","state_code":"36","district":"Basti","district_code":"185","address1":"Basti","address2":"","latitude":"26.6768","longitude":"82.5626","accuracy":"4"},{"address3":"Captainganj (Basti)","state":"Uttar Pradesh","state_code":"36","district":"Basti","district_code":"185","address1":"Harraiya","address2":"","latitude":"26.7561","longitude":"82.5834","accuracy":"4"},{"address3":"Govindpara","state":"Uttar Pradesh","state_code":"36","district":"Basti","district_code":"185","address1":"Harraiya","address2":"","latitude":"26.6618","longitude":"82.8122","accuracy":"3"},{"address3":"Tilakpur","state":"Uttar Pradesh","state_code":"36","district":"Basti","district_code":"185","address1":"Harraiya","address2":"","latitude":"26.7682","longitude":"82.6345","accuracy":"4"},{"address3":"Bemhari","state":"Uttar Pradesh","state_code":"36","district":"Basti","district_code":"185","address1":"Harraiya","address2":"","latitude":"26.7168","longitude":"82.5211","accuracy":"4"},{"address3":"Pokhara","state":"Uttar Pradesh","state_code":"36","district":"Basti","district_code":"185","address1":"Harraiya","address2":"","latitude":"26.8183","longitude":"82.6311","accuracy":"4"},{"address3":"Kodai","state":"Uttar Pradesh","state_code":"36","district":"Basti","district_code":"185","address1":"Harraiya","address2":"","latitude":"26.8183","longitude":"82.6311","accuracy":"4"},{"address3":"CCM Padmapur","state":"Uttar Pradesh","state_code":"36","district":"Basti","district_code":"185","address1":"Harraiya","address2":"","latitude":"26.6618","longitude":"82.8122","accuracy":"3"},{"address3":"Haribanshpur","state":"Uttar Pradesh","state_code":"36","district":"Basti","district_code":"185","address1":"Harraiya","address2":"","latitude":"26.6618","longitude":"82.8122","accuracy":"3"},{"address3":"Dubauli Dubey","state":"Uttar Pradesh","state_code":"36","district":"Basti","district_code":"185","address1":"Harraiya","address2":"","latitude":"26.6618","longitude":"82.8122","accuracy":"3"},{"address3":"Kaudikol","state":"Uttar Pradesh","state_code":"36","district":"Basti","district_code":"185","address1":"Harraiya","address2":"","latitude":"26.6618","longitude":"82.8122","accuracy":"3"},{"address3":"Pak. Bakhtawar","state":"Uttar Pradesh","state_code":"36","district":"Basti","district_code":"185","address1":"Harraiya","address2":"","latitude":"26.6618","longitude":"82.8122","accuracy":"3"},{"address3":"Naghara","state":"Uttar Pradesh","state_code":"36","district":"Basti","district_code":"185","address1":"Harrraiya","address2":"","latitude":"26.6618","longitude":"82.8122","accuracy":"3"}],"272148":[{"address3":"Chauri Khurd","state":"Uttar Pradesh","state_code":"36","district":"Siddharthnagar","district_code":"184","address1":"Bansi","address2":"","latitude":"27.0276","longitude":"82.8889","accuracy":"4"},{"address3":"Ghosiyari Bzr","state":"Uttar Pradesh","state_code":"36","district":"Siddharthnagar","district_code":"184","address1":"Bansi","address2":"","latitude":"26.8864","longitude":"82.8291","accuracy":"3"},{"address3":"Kapiyawa","state":"Uttar Pradesh","state_code":"36","district":"Siddharthnagar","district_code":"184","address1":"Bansi","address2":"","latitude":"26.8864","longitude":"82.8291","accuracy":"3"},{"address3":"Rayath","state":"Uttar Pradesh","state_code":"36","district":"Basti","district_code":"185","address1":"Rudhauli","address2":"","latitude":"26.8864","longitude":"82.8291","accuracy":"3"},{"address3":"Kerauna","state":"Uttar Pradesh","state_code":"36","district":"Basti","district_code":"185","address1":"Rudhauli","address2":"","latitude":"26.8864","longitude":"82.8291","accuracy":"3"},{"address3":"Dandwapandey","state":"Uttar Pradesh","state_code":"36","district":"Basti","district_code":"185","address1":"Rudhauli","address2":"","latitude":"26.8864","longitude":"82.8291","accuracy":"3"},{"address3":"Sehuda Kala","state":"Uttar Pradesh","state_code":"36","district":"Basti","district_code":"185","address1":"Rudhauli","address2":"","latitude":"26.8864","longitude":"82.8291","accuracy":"3"},{"address3":"Mahuswar","state":"Uttar Pradesh","state_code":"36","district":"Basti","district_code":"185","address1":"Rudhauli","address2":"","latitude":"26.8864","longitude":"82.8291","accuracy":"3"},{"address3":"Kaitholia","state":"Uttar Pradesh","state_code":"36","district":"Sant Kabir Nagar","district_code":"186","address1":"Menhdawal","address2":"","latitude":"26.7902","longitude":"83.0348","accuracy":"4"},{"address3":"Manaitapur","state":"Uttar Pradesh","state_code":"36","district":"Sant Kabir Nagar","district_code":"186","address1":"Menhdawal","address2":"","latitude":"27.0021","longitude":"82.9362","accuracy":"4"},{"address3":"Chiraiha","state":"Uttar Pradesh","state_code":"36","district":"Sant Kabir Nagar","district_code":"186","address1":"Menhdawal","address2":"","latitude":"26.951","longitude":"82.9631","accuracy":"4"},{"address3":"Pipra Pratham","state":"Uttar Pradesh","state_code":"36","district":"Sant Kabir Nagar","district_code":"186","address1":"Menhdawal","address2":"","latitude":"26.8864","longitude":"82.8291","accuracy":"3"}],"272150":[{"address3":"Hanumanganj (Basti)","state":"Uttar Pradesh","state_code":"36","district":"Basti","district_code":"185","address1":"Rudhauli","address2":"","latitude":"26.9612","longitude":"82.816","accuracy":"4"},{"address3":"Ambari","state":"Uttar Pradesh","state_code":"36","district":"Basti","district_code":"185","address1":"Basti","address2":"","latitude":"26.9289","longitude":"82.8347","accuracy":"4"},{"address3":"Dasia","state":"Uttar Pradesh","state_code":"36","district":"Basti","district_code":"185","address1":"Bhanpur Baboo","address2":"","latitude":"26.9556","longitude":"82.7635","accuracy":"4"},{"address3":"Majhauwa Baikunth","state":"Uttar Pradesh","state_code":"36","district":"Basti","district_code":"185","address1":"Rudhauli","address2":"","latitude":"26.9575","longitude":"82.7984","accuracy":"3"},{"address3":"Misraulia Bhaiya","state":"Uttar Pradesh","state_code":"36","district":"Basti","district_code":"185","address1":"Rudhauli","address2":"","latitude":"26.9575","longitude":"82.7984","accuracy":"3"},{"address3":"Parsa  Damya","state":"Uttar Pradesh","state_code":"36","district":"Basti","district_code":"185","address1":"Bhanpur Babu","address2":"","latitude":"26.9575","longitude":"82.7984","accuracy":"3"},{"address3":"Raunakala","state":"Uttar Pradesh","state_code":"36","district":"Basti","district_code":"185","address1":"Rudhauli","address2":"","latitude":"26.9575","longitude":"82.7984","accuracy":"3"},{"address3":"Kohra","state":"Uttar Pradesh","state_code":"36","district":"Basti","district_code":"185","address1":"Rudhauli","address2":"","latitude":"26.9845","longitude":"82.7793","accuracy":"4"}],"272151":[{"address3":"Semari","state":"Uttar Pradesh","state_code":"36","district":"Siddharthnagar","district_code":"184","address1":"Bansi","address2":"","latitude":"27.2741","longitude":"82.8734","accuracy":"4"},{"address3":"Chhitauni","state":"Uttar Pradesh","state_code":"36","district":"Siddharthnagar","district_code":"184","address1":"Bansi","address2":"","latitude":"27.0757","longitude":"82.8034","accuracy":"4"},{"address3":"Katbandh","state":"Uttar Pradesh","state_code":"36","district":"Siddharthnagar","district_code":"184","address1":"Bansi","address2":"","latitude":"26.6855","longitude":"82.6784","accuracy":"3"},{"address3":"Masina Khas","state":"Uttar Pradesh","state_code":"36","district":"Siddharthnagar","district_code":"184","address1":"Bansi","address2":"","latitude":"26.6855","longitude":"82.6784","accuracy":"3"},{"address3":"Dindai","state":"Uttar Pradesh","state_code":"36","district":"Siddharthnagar","district_code":"184","address1":"Bansi","address2":"","latitude":"26.6855","longitude":"82.6784","accuracy":"3"},{"address3":"Masaicha","state":"Uttar Pradesh","state_code":"36","district":"Siddharthnagar","district_code":"184","address1":"Bansi","address2":"","latitude":"26.6855","longitude":"82.6784","accuracy":"3"},{"address3":"Mahuwar","state":"Uttar Pradesh","state_code":"36","district":"Basti","district_code":"185","address1":"Rudhauli","address2":"","latitude":"27.0005","longitude":"82.8819","accuracy":"4"},{"address3":"Sagra","state":"Uttar Pradesh","state_code":"36","district":"Basti","district_code":"185","address1":"Rudhauli","address2":"","latitude":"26.8183","longitude":"82.6311","accuracy":"4"},{"address3":"Bankatia","state":"Uttar Pradesh","state_code":"36","district":"Basti","district_code":"185","address1":"Rudhauli","address2":"","latitude":"26.9974","longitude":"82.82","accuracy":"4"},{"address3":"Rudranagar","state":"Uttar Pradesh","state_code":"36","district":"Basti","district_code":"185","address1":"Rudhauli","address2":"","latitude":"26.6855","longitude":"82.6784","accuracy":"3"},{"address3":"Khambha","state":"Uttar Pradesh","state_code":"36","district":"Basti","district_code":"185","address1":"Rudhauli","address2":"","latitude":"26.6855","longitude":"82.6784","accuracy":"3"},{"address3":"Surwarkalan","state":"Uttar Pradesh","state_code":"36","district":"Basti","district_code":"185","address1":"Rudhauli","address2":"","latitude":"26.6855","longitude":"82.6784","accuracy":"3"},{"address3":"Athadama","state":"Uttar Pradesh","state_code":"36","district":"Basti","district_code":"185","address1":"Basti","address2":"","latitude":"26.6855","longitude":"82.6784","accuracy":"3"},{"address3":"Bhitehara","state":"Uttar Pradesh","state_code":"36","district":"Basti","district_code":"185","address1":"Rudhauli","address2":"","latitude":"26.6855","longitude":"82.6784","accuracy":"3"},{"address3":"Chharahata","state":"Uttar Pradesh","state_code":"36","district":"Basti","district_code":"185","address1":"Bansi","address2":"","latitude":"26.6855","longitude":"82.6784","accuracy":"3"}],"272152":[{"address3":"Belaukh","state":"Uttar Pradesh","state_code":"36","district":"Siddharthnagar","district_code":"184","address1":"Bansi","address2":"","latitude":"27.0922","longitude":"83.0239","accuracy":"4"},{"address3":"Pachmohani","state":"Uttar Pradesh","state_code":"36","district":"Siddharthnagar","district_code":"184","address1":"Bansi","address2":"","latitude":"27.0648","longitude":"83.0007","accuracy":"3"},{"address3":"Tilaura","state":"Uttar Pradesh","state_code":"36","district":"Siddharthnagar","district_code":"184","address1":"Bansi","address2":"","latitude":"27.1199","longitude":"82.9619","accuracy":"4"},{"address3":"Marwatia Bazar","state":"Uttar Pradesh","state_code":"36","district":"Siddharthnagar","district_code":"184","address1":"Bansi","address2":"","latitude":"27.0648","longitude":"83.0007","accuracy":"3"},{"address3":"Arji","state":"Uttar Pradesh","state_code":"36","district":"Siddharthnagar","district_code":"184","address1":"Bansi","address2":"","latitude":"27.2741","longitude":"82.8734","accuracy":"4"},{"address3":"Bisunpurwa","state":"Uttar Pradesh","state_code":"36","district":"Siddharthnagar","district_code":"184","address1":"Bansi","address2":"","latitude":"27.0648","longitude":"83.0007","accuracy":"3"},{"address3":"Charthari","state":"Uttar Pradesh","state_code":"36","district":"Siddharthnagar","district_code":"184","address1":"Bansi","address2":"","latitude":"27.1249","longitude":"82.979","accuracy":"4"},{"address3":"Rithia Bazar","state":"Uttar Pradesh","state_code":"36","district":"Siddharthnagar","district_code":"184","address1":"Bansi","address2":"","latitude":"27.0648","longitude":"83.0007","accuracy":"3"},{"address3":"Nasirganj","state":"Uttar Pradesh","state_code":"36","district":"Siddharthnagar","district_code":"184","address1":"Bansi","address2":"","latitude":"27.0676","longitude":"82.9434","accuracy":"4"},{"address3":"Sawadand","state":"Uttar Pradesh","state_code":"36","district":"Siddharthnagar","district_code":"184","address1":"Bansi","address2":"","latitude":"27.0648","longitude":"83.0007","accuracy":"3"},{"address3":"Sishania","state":"Uttar Pradesh","state_code":"36","district":"Siddharthnagar","district_code":"184","address1":"Bansi","address2":"","latitude":"27.0648","longitude":"83.0007","accuracy":"3"},{"address3":"Suhai Kanpurwa","state":"Uttar Pradesh","state_code":"36","district":"Siddharthnagar","district_code":"184","address1":"Bansi","address2":"","latitude":"27.0648","longitude":"83.0007","accuracy":"3"},{"address3":"Daldala","state":"Uttar Pradesh","state_code":"36","district":"Siddharthnagar","district_code":"184","address1":"Bansi","address2":"","latitude":"27.0648","longitude":"83.0007","accuracy":"3"},{"address3":"Agiyauna","state":"Uttar Pradesh","state_code":"36","district":"Siddharthnagar","district_code":"184","address1":"Menhdawal","address2":"","latitude":"27.0648","longitude":"83.0007","accuracy":"3"},{"address3":"Bankeygaon","state":"Uttar Pradesh","state_code":"36","district":"Siddharthnagar","district_code":"184","address1":"Bansi","address2":"","latitude":"27.0648","longitude":"83.0007","accuracy":"3"},{"address3":"Lahara","state":"Uttar Pradesh","state_code":"36","district":"Siddharthnagar","district_code":"184","address1":"Bansi","address2":"","latitude":"27.0648","longitude":"83.0007","accuracy":"3"},{"address3":"Kadja","state":"Uttar Pradesh","state_code":"36","district":"Siddharthnagar","district_code":"184","address1":"Bansi","address2":"","latitude":"27.0648","longitude":"83.0007","accuracy":"3"},{"address3":"Rajediha Bazar","state":"Uttar Pradesh","state_code":"36","district":"Sant Kabir Nagar","district_code":"186","address1":"Menhdawal","address2":"","latitude":"27.0648","longitude":"83.0007","accuracy":"3"},{"address3":"Pasai","state":"Uttar Pradesh","state_code":"36","district":"Sant Kabir Nagar","district_code":"186","address1":"Menhdawal","address2":"","latitude":"27.0332","longitude":"83.0346","accuracy":"4"},{"address3":"Deokali","state":"Uttar Pradesh","state_code":"36","district":"Sant Kabir Nagar","district_code":"186","address1":"Menhdawal","address2":"","latitude":"27.0265","longitude":"83.0565","accuracy":"4"},{"address3":"Gopalpur","state":"Uttar Pradesh","state_code":"36","district":"Sant Kabir Nagar","district_code":"186","address1":"Menhdawal","address2":"","latitude":"27.0246","longitude":"82.977","accuracy":"4"},{"address3":"Banethu","state":"Uttar Pradesh","state_code":"36","district":"Sant Kabir Nagar","district_code":"186","address1":"Menhdawal","address2":"","latitude":"27.0186","longitude":"83.0064","accuracy":"4"}],"272153":[{"address3":"Rudrapur","state":"Uttar Pradesh","state_code":"36","district":"Siddharthnagar","district_code":"184","address1":"Bansi","address2":"","latitude":"27.2741","longitude":"82.8734","accuracy":"4"},{"address3":"Talpurwa","state":"Uttar Pradesh","state_code":"36","district":"Siddharthnagar","district_code":"184","address1":"Bansi","address2":"","latitude":"27.2494","longitude":"82.8212","accuracy":"4"},{"address3":"Kolhui","state":"Uttar Pradesh","state_code":"36","district":"Siddharthnagar","district_code":"184","address1":"Itwa","address2":"","latitude":"27.2741","longitude":"82.8734","accuracy":"4"},{"address3":"Mithwal Bazaar","state":"Uttar Pradesh","state_code":"36","district":"Siddharthnagar","district_code":"184","address1":"NA","address2":"","latitude":"27.1002","longitude":"82.9134","accuracy":"3"},{"address3":"Madhukarpur","state":"Uttar Pradesh","state_code":"36","district":"Siddharthnagar","district_code":"184","address1":"Bansi","address2":"","latitude":"27.1868","longitude":"82.9627","accuracy":"4"},{"address3":"Gauri","state":"Uttar Pradesh","state_code":"36","district":"Siddharthnagar","district_code":"184","address1":"Bansi","address2":"","latitude":"27.1641","longitude":"82.9118","accuracy":"4"},{"address3":"Bihra","state":"Uttar Pradesh","state_code":"36","district":"Siddharthnagar","district_code":"184","address1":"Bansi","address2":"","latitude":"27.2428","longitude":"82.9388","accuracy":"4"},{"address3":"Chetia","state":"Uttar Pradesh","state_code":"36","district":"Siddharthnagar","district_code":"184","address1":"Bansi","address2":"","latitude":"27.2071","longitude":"82.8114","accuracy":"4"},{"address3":"Karahi","state":"Uttar Pradesh","state_code":"36","district":"Siddharthnagar","district_code":"184","address1":"Itwa","address2":"","latitude":"27.2741","longitude":"82.8734","accuracy":"4"},{"address3":"Pathara Bzr","state":"Uttar Pradesh","state_code":"36","district":"Siddharthnagar","district_code":"184","address1":"Bansi","address2":"","latitude":"27.1002","longitude":"82.9134","accuracy":"3"},{"address3":"Bidra","state":"Uttar Pradesh","state_code":"36","district":"Siddharthnagar","district_code":"184","address1":"Itwa","address2":"","latitude":"27.2216","longitude":"82.7361","accuracy":"4"},{"address3":"Tilauli","state":"Uttar Pradesh","state_code":"36","district":"Siddharthnagar","district_code":"184","address1":"Bansi","address2":"","latitude":"27.1083","longitude":"82.8846","accuracy":"4"},{"address3":"Sekhui","state":"Uttar Pradesh","state_code":"36","district":"Siddharthnagar","district_code":"184","address1":"Bansi","address2":"","latitude":"27.0963","longitude":"82.9288","accuracy":"4"},{"address3":"Sonkhar","state":"Uttar Pradesh","state_code":"36","district":"Siddharthnagar","district_code":"184","address1":"Bansi","address2":"","latitude":"27.1221","longitude":"82.9289","accuracy":"4"},{"address3":"Mau","state":"Uttar Pradesh","state_code":"36","district":"Siddharthnagar","district_code":"184","address1":"Bansi","address2":"","latitude":"27.2018","longitude":"82.8631","accuracy":"4"},{"address3":"Ramwapur Dubey","state":"Uttar Pradesh","state_code":"36","district":"Siddharthnagar","district_code":"184","address1":"Bansi","address2":"","latitude":"27.1002","longitude":"82.9134","accuracy":"3"},{"address3":"Khaira","state":"Uttar Pradesh","state_code":"36","district":"Siddharthnagar","district_code":"184","address1":"Itwa","address2":"","latitude":"27.1789","longitude":"83.148","accuracy":"4"},{"address3":"Ajgara","state":"Uttar Pradesh","state_code":"36","district":"Siddharthnagar","district_code":"184","address1":"Bansi","address2":"","latitude":"27.1687","longitude":"83.0935","accuracy":"4"},{"address3":"Suparaja","state":"Uttar Pradesh","state_code":"36","district":"Siddharthnagar","district_code":"184","address1":"Bansi","address2":"","latitude":"27.1002","longitude":"82.9134","accuracy":"3"},{"address3":"Narkataha","state":"Uttar Pradesh","state_code":"36","district":"Siddharthnagar","district_code":"184","address1":"Bansi","address2":"","latitude":"27.2741","longitude":"82.8734","accuracy":"4"},{"address3":"Harraiya Nankar","state":"Uttar Pradesh","state_code":"36","district":"Siddharthnagar","district_code":"184","address1":"Bansi","address2":"","latitude":"27.1002","longitude":"82.9134","accuracy":"3"},{"address3":"Jeewa","state":"Uttar Pradesh","state_code":"36","district":"Siddharthnagar","district_code":"184","address1":"Bansi","address2":"","latitude":"27.1002","longitude":"82.9134","accuracy":"3"},{"address3":"Kakrapokhar","state":"Uttar Pradesh","state_code":"36","district":"Siddharthnagar","district_code":"184","address1":"Bansi","address2":"","latitude":"27.1002","longitude":"82.9134","accuracy":"3"},{"address3":"Kotiagarori","state":"Uttar Pradesh","state_code":"36","district":"Siddharthnagar","district_code":"184","address1":"Bansi","address2":"","latitude":"27.1002","longitude":"82.9134","accuracy":"3"},{"address3":"Dandwaghat","state":"Uttar Pradesh","state_code":"36","district":"Siddharthnagar","district_code":"184","address1":"Bansi","address2":"","latitude":"27.1002","longitude":"82.9134","accuracy":"3"},{"address3":"Pachhar","state":"Uttar Pradesh","state_code":"36","district":"Siddharthnagar","district_code":"184","address1":"Bansi","address2":"","latitude":"27.1002","longitude":"82.9134","accuracy":"3"},{"address3":"Barao Nansar","state":"Uttar Pradesh","state_code":"36","district":"Siddharthnagar","district_code":"184","address1":"Bansi","address2":"","latitude":"27.1002","longitude":"82.9134","accuracy":"3"},{"address3":"Janiajote","state":"Uttar Pradesh","state_code":"36","district":"Siddharthnagar","district_code":"184","address1":"Bansi","address2":"","latitude":"27.1002","longitude":"82.9134","accuracy":"3"},{"address3":"Asnar","state":"Uttar Pradesh","state_code":"36","district":"Basti","district_code":"185","address1":"Basti","address2":"","latitude":"26.8183","longitude":"82.6311","accuracy":"4"},{"address3":"Bargadwa  Khabhri","state":"Uttar Pradesh","state_code":"36","district":"Basti","district_code":"185","address1":"Basti","address2":"","latitude":"27.1002","longitude":"82.9134","accuracy":"3"},{"address3":"Asogwa","state":"Uttar Pradesh","state_code":"36","district":"Basti","district_code":"185","address1":"Basti","address2":"","latitude":"26.8183","longitude":"82.6311","accuracy":"4"},{"address3":"Bangawa","state":"Uttar Pradesh","state_code":"36","district":"Basti","district_code":"185","address1":"Basti","address2":"","latitude":"27.1002","longitude":"82.9134","accuracy":"3"},{"address3":"Bankuiya","state":"Uttar Pradesh","state_code":"36","district":"Basti","district_code":"185","address1":"Basti","address2":"","latitude":"27.1002","longitude":"82.9134","accuracy":"3"},{"address3":"Bansi H.O","state":"Uttar Pradesh","state_code":"36","district":"Basti","district_code":"185","address1":"Basti","address2":"","latitude":"27.1002","longitude":"82.9134","accuracy":"3"},{"address3":"Basantpur","state":"Uttar Pradesh","state_code":"36","district":"Basti","district_code":"185","address1":"Basti","address2":"","latitude":"26.6985","longitude":"82.5953","accuracy":"4"},{"address3":"Kurthia","state":"Uttar Pradesh","state_code":"36","district":"Basti","district_code":"185","address1":"Basti","address2":"","latitude":"26.8585","longitude":"82.4085","accuracy":"4"},{"address3":"Bhanwari","state":"Uttar Pradesh","state_code":"36","district":"Basti","district_code":"185","address1":"Basti","address2":"","latitude":"26.8183","longitude":"82.6311","accuracy":"4"}],"272154":[{"address3":"Belrai","state":"Uttar Pradesh","state_code":"36","district":"Siddharthnagar","district_code":"184","address1":"Menhdawal","address2":"","latitude":"27.2741","longitude":"82.8734","accuracy":"4"},{"address3":"Dumaria Buzurg","state":"Uttar Pradesh","state_code":"36","district":"Siddharthnagar","district_code":"184","address1":"Bansi","address2":"","latitude":"27.0367","longitude":"83.0128","accuracy":"3"},{"address3":"Tikur","state":"Uttar Pradesh","state_code":"36","district":"Siddharthnagar","district_code":"184","address1":"Bansi","address2":"","latitude":"27.1365","longitude":"83.0477","accuracy":"4"},{"address3":"Mahui Nankar","state":"Uttar Pradesh","state_code":"36","district":"Siddharthnagar","district_code":"184","address1":"Bansi","address2":"","latitude":"27.0367","longitude":"83.0128","accuracy":"3"},{"address3":"Banauli","state":"Uttar Pradesh","state_code":"36","district":"Siddharthnagar","district_code":"184","address1":"Bansi","address2":"","latitude":"27.1131","longitude":"83.0574","accuracy":"4"},{"address3":"Kudja","state":"Uttar Pradesh","state_code":"36","district":"Siddharthnagar","district_code":"184","address1":"Bansi","address2":"","latitude":"27.0367","longitude":"83.0128","accuracy":"3"},{"address3":"Sakarpar","state":"Uttar Pradesh","state_code":"36","district":"Siddharthnagar","district_code":"184","address1":"Bansi","address2":"","latitude":"27.1282","longitude":"83.0418","accuracy":"4"},{"address3":"Baur Byas","state":"Uttar Pradesh","state_code":"36","district":"Siddharthnagar","district_code":"184","address1":"Menhdawal","address2":"","latitude":"27.0367","longitude":"83.0128","accuracy":"3"},{"address3":"Kalnakhor","state":"Uttar Pradesh","state_code":"36","district":"Siddharthnagar","district_code":"184","address1":"Bansi","address2":"","latitude":"27.0367","longitude":"83.0128","accuracy":"3"},{"address3":"Pendari Buzurg","state":"Uttar Pradesh","state_code":"36","district":"Siddharthnagar","district_code":"184","address1":"Bansi","address2":"","latitude":"27.0367","longitude":"83.0128","accuracy":"3"},{"address3":"Mushahara","state":"Uttar Pradesh","state_code":"36","district":"Sant Kabir Nagar","district_code":"186","address1":"Menhdawal","address2":"","latitude":"27.0367","longitude":"83.0128","accuracy":"3"},{"address3":"Dharamsinghwa","state":"Uttar Pradesh","state_code":"36","district":"Sant Kabir Nagar","district_code":"186","address1":"Menhdawal","address2":"","latitude":"27.082","longitude":"83.064","accuracy":"4"},{"address3":"Menhdupar","state":"Uttar Pradesh","state_code":"36","district":"Sant Kabir Nagar","district_code":"186","address1":"Menhdawal","address2":"","latitude":"27.0367","longitude":"83.0128","accuracy":"3"},{"address3":"Khajuri","state":"Uttar Pradesh","state_code":"36","district":"Sant Kabir Nagar","district_code":"186","address1":"Menhdawal","address2":"","latitude":"27.06","longitude":"83.0544","accuracy":"4"}],"272155":[{"address3":"Harraiya","state":"Uttar Pradesh","state_code":"36","district":"Basti","district_code":"185","address1":"Harraiya","address2":"","latitude":"26.8183","longitude":"82.6311","accuracy":"4"},{"address3":"Chorkhari","state":"Uttar Pradesh","state_code":"36","district":"Basti","district_code":"185","address1":"Harraiya","address2":"","latitude":"26.8362","longitude":"82.5044","accuracy":"4"},{"address3":"Sukrauli Chaudhary","state":"Uttar Pradesh","state_code":"36","district":"Basti","district_code":"185","address1":"Harraiya","address2":"","latitude":"26.8578","longitude":"82.4509","accuracy":"3"},{"address3":"Mahuwapar","state":"Uttar Pradesh","state_code":"36","district":"Basti","district_code":"185","address1":"Harraiya","address2":"","latitude":"26.7772","longitude":"82.7737","accuracy":"4"},{"address3":"Barahpur","state":"Uttar Pradesh","state_code":"36","district":"Basti","district_code":"185","address1":"Harraiya","address2":"","latitude":"26.8253","longitude":"82.5964","accuracy":"4"},{"address3":"Mahrajganj","state":"Uttar Pradesh","state_code":"36","district":"Basti","district_code":"185","address1":"Harraiya","address2":"","latitude":"26.8578","longitude":"82.4509","accuracy":"3"},{"address3":"Majhauwa Babu","state":"Uttar Pradesh","state_code":"36","district":"Basti","district_code":"185","address1":"Harraiya","address2":"","latitude":"26.8578","longitude":"82.4509","accuracy":"3"},{"address3":"Bhadawal","state":"Uttar Pradesh","state_code":"36","district":"Basti","district_code":"185","address1":"Basti","address2":"","latitude":"26.8183","longitude":"82.6311","accuracy":"4"},{"address3":"Thana Khas","state":"Uttar Pradesh","state_code":"36","district":"Basti","district_code":"185","address1":"Harraiya","address2":"","latitude":"26.8043","longitude":"82.474","accuracy":"4"},{"address3":"Amari Bazar","state":"Uttar Pradesh","state_code":"36","district":"Basti","district_code":"185","address1":"Harraiya","address2":"","latitude":"26.8578","longitude":"82.4509","accuracy":"3"},{"address3":"Keshwapur","state":"Uttar Pradesh","state_code":"36","district":"Basti","district_code":"185","address1":"Harraiya","address2":"","latitude":"26.8183","longitude":"82.6311","accuracy":"4"},{"address3":"Gauhania","state":"Uttar Pradesh","state_code":"36","district":"Basti","district_code":"185","address1":"Harraiya","address2":"","latitude":"26.7823","longitude":"82.4633","accuracy":"4"}],"272161":[{"address3":"Babhnan","state":"Uttar Pradesh","state_code":"36","district":"Basti","district_code":"185","address1":"Basti","address2":"","latitude":"26.935","longitude":"82.5072","accuracy":"4"},{"address3":"Barhya","state":"Uttar Pradesh","state_code":"36","district":"Basti","district_code":"185","address1":"Basti","address2":"","latitude":"26.8183","longitude":"82.6311","accuracy":"4"},{"address3":"Mahuwadabar","state":"Uttar Pradesh","state_code":"36","district":"Basti","district_code":"185","address1":"Harraiya","address2":"","latitude":"27.0051","longitude":"82.7865","accuracy":"3"},{"address3":"Belwaria Jungle","state":"Uttar Pradesh","state_code":"36","district":"Basti","district_code":"185","address1":"Harraiya","address2":"","latitude":"27.0051","longitude":"82.7865","accuracy":"3"}],"272162":[{"address3":"Takiya","state":"Uttar Pradesh","state_code":"36","district":"Sant Kabir Nagar","district_code":"186","address1":"Dhanghata","address2":"","latitude":"26.7902","longitude":"83.0348","accuracy":"4"},{"address3":"Madhopur","state":"Uttar Pradesh","state_code":"36","district":"Sant Kabir Nagar","district_code":"186","address1":"Dhanghata","address2":"","latitude":"26.5815","longitude":"83.0413","accuracy":"4"},{"address3":"Pauli","state":"Uttar Pradesh","state_code":"36","district":"Sant Kabir Nagar","district_code":"186","address1":"Dhanghata","address2":"","latitude":"26.7902","longitude":"83.0348","accuracy":"4"},{"address3":"Rosaya Bazar","state":"Uttar Pradesh","state_code":"36","district":"Sant Kabir Nagar","district_code":"186","address1":"Dhanghata","address2":"","latitude":"26.4283","longitude":"82.7121","accuracy":"3"},{"address3":"Marpauna","state":"Uttar Pradesh","state_code":"36","district":"Sant Kabir Nagar","district_code":"186","address1":"Dhanghata","address2":"","latitude":"26.5734","longitude":"82.9292","accuracy":"4"},{"address3":"Ashraf Pur","state":"Uttar Pradesh","state_code":"36","district":"Sant Kabir Nagar","district_code":"186","address1":"Dhanghata","address2":"","latitude":"26.4283","longitude":"82.7121","accuracy":"3"},{"address3":"Dihwa","state":"Uttar Pradesh","state_code":"36","district":"Sant Kabir Nagar","district_code":"186","address1":"Dhanghata","address2":"","latitude":"26.5921","longitude":"82.9083","accuracy":"4"},{"address3":"Chaparaghat","state":"Uttar Pradesh","state_code":"36","district":"Sant Kabir Nagar","district_code":"186","address1":"Dhanghata","address2":"","latitude":"26.4283","longitude":"82.7121","accuracy":"3"},{"address3":"Dhanghata","state":"Uttar Pradesh","state_code":"36","district":"Sant Kabir Nagar","district_code":"186","address1":"Dhanghata","address2":"","latitude":"26.5455","longitude":"83.0036","accuracy":"4"},{"address3":"Chapra Magarvi","state":"Uttar Pradesh","state_code":"36","district":"Sant Kabir Nagar","district_code":"186","address1":"Dhanghata","address2":"","latitude":"26.4283","longitude":"82.7121","accuracy":"3"},{"address3":"Umariya Bazar","state":"Uttar Pradesh","state_code":"36","district":"Sant Kabir Nagar","district_code":"186","address1":"Dhanghata","address2":"","latitude":"26.4283","longitude":"82.7121","accuracy":"3"},{"address3":"Sanichara Bazar","state":"Uttar Pradesh","state_code":"36","district":"Sant Kabir Nagar","district_code":"186","address1":"Dhanghata","address2":"","latitude":"26.4283","longitude":"82.7121","accuracy":"3"},{"address3":"Semardadi","state":"Uttar Pradesh","state_code":"36","district":"Sant Kabir Nagar","district_code":"186","address1":"Dhanghata","address2":"","latitude":"26.4283","longitude":"82.7121","accuracy":"3"},{"address3":"Umariya Pandey","state":"Uttar Pradesh","state_code":"36","district":"Sant Kabir Nagar","district_code":"186","address1":"Dhanghata","address2":"","latitude":"26.4283","longitude":"82.7121","accuracy":"3"},{"address3":"Shivapar","state":"Uttar Pradesh","state_code":"36","district":"Sant Kabir Nagar","district_code":"186","address1":"Dhanghata","address2":"","latitude":"26.4283","longitude":"82.7121","accuracy":"3"},{"address3":"Rampur Barakoni","state":"Uttar Pradesh","state_code":"36","district":"Sant Kabir Nagar","district_code":"186","address1":"Dhanghata","address2":"","latitude":"26.4283","longitude":"82.7121","accuracy":"3"},{"address3":"Govind Ganj","state":"Uttar Pradesh","state_code":"36","district":"Sant Kabir Nagar","district_code":"186","address1":"Dhanghata","address2":"","latitude":"26.4283","longitude":"82.7121","accuracy":"3"}],"272163":[{"address3":"Tinich","state":"Uttar Pradesh","state_code":"36","district":"Basti","district_code":"185","address1":"Harraiya","address2":"","latitude":"26.8805","longitude":"82.6351","accuracy":"4"},{"address3":"Shivpur","state":"Uttar Pradesh","state_code":"36","district":"Basti","district_code":"185","address1":"Bhanpur","address2":"","latitude":"26.8183","longitude":"82.6311","accuracy":"4"},{"address3":"Barahpur","state":"Uttar Pradesh","state_code":"36","district":"Basti","district_code":"185","address1":"Harraiya","address2":"","latitude":"26.8253","longitude":"82.5964","accuracy":"4"},{"address3":"Gaur Rs","state":"Uttar Pradesh","state_code":"36","district":"Basti","district_code":"185","address1":"Harraiya","address2":"","latitude":"26.7405","longitude":"82.679","accuracy":"3"},{"address3":"Bairikhala","state":"Uttar Pradesh","state_code":"36","district":"Basti","district_code":"185","address1":"Harraiya","address2":"","latitude":"26.8524","longitude":"82.6249","accuracy":"4"},{"address3":"Pipra Kazi","state":"Uttar Pradesh","state_code":"36","district":"Basti","district_code":"185","address1":"Harraiya","address2":"","latitude":"26.8228","longitude":"82.5569","accuracy":"4"},{"address3":"Ajgaiba Jungle","state":"Uttar Pradesh","state_code":"36","district":"Basti","district_code":"185","address1":"Harraiya","address2":"","latitude":"26.7405","longitude":"82.679","accuracy":"3"},{"address3":"Kurda","state":"Uttar Pradesh","state_code":"36","district":"Basti","district_code":"185","address1":"Harraiya","address2":"","latitude":"26.7405","longitude":"82.679","accuracy":"3"},{"address3":"Ainpur","state":"Uttar Pradesh","state_code":"36","district":"Basti","district_code":"185","address1":"Harraiya","address2":"","latitude":"26.8704","longitude":"82.5811","accuracy":"4"},{"address3":"Mansoornagar","state":"Uttar Pradesh","state_code":"36","district":"Basti","district_code":"185","address1":"Harraina","address2":"","latitude":"26.7405","longitude":"82.679","accuracy":"3"},{"address3":"Pikaura","state":"Uttar Pradesh","state_code":"36","district":"Basti","district_code":"185","address1":"Harraiya","address2":"","latitude":"26.7266","longitude":"82.6016","accuracy":"4"},{"address3":"Belsar","state":"Uttar Pradesh","state_code":"36","district":"Basti","district_code":"185","address1":"Harraiya","address2":"","latitude":"26.7405","longitude":"82.679","accuracy":"3"},{"address3":"Kachhia","state":"Uttar Pradesh","state_code":"36","district":"Basti","district_code":"185","address1":"Harraiya","address2":"","latitude":"26.949","longitude":"82.5748","accuracy":"4"},{"address3":"Bhainsa Chaubey","state":"Uttar Pradesh","state_code":"36","district":"Basti","district_code":"185","address1":"Harraiya","address2":"","latitude":"26.7405","longitude":"82.679","accuracy":"3"},{"address3":"Itbahara","state":"Uttar Pradesh","state_code":"36","district":"Basti","district_code":"185","address1":"Harraiya","address2":"","latitude":"26.7405","longitude":"82.679","accuracy":"3"},{"address3":"Pendar","state":"Uttar Pradesh","state_code":"36","district":"Basti","district_code":"185","address1":"Harraiya","address2":"","latitude":"26.7405","longitude":"82.679","accuracy":"3"},{"address3":"Belghat","state":"Uttar Pradesh","state_code":"36","district":"Basti","district_code":"185","address1":"Harraiya","address2":"","latitude":"26.8332","longitude":"82.5714","accuracy":"4"},{"address3":"Sardaha Sukul","state":"Uttar Pradesh","state_code":"36","district":"Basti","district_code":"185","address1":"Harraiya","address2":"","latitude":"26.7405","longitude":"82.679","accuracy":"3"},{"address3":"Sukrauli","state":"Uttar Pradesh","state_code":"36","district":"Basti","district_code":"185","address1":"Harraiya","address2":"","latitude":"26.8462","longitude":"82.6626","accuracy":"4"}],"272164":[{"address3":"Molnapur","state":"Uttar Pradesh","state_code":"36","district":"Sant Kabir Nagar","district_code":"186","address1":"Dhanghata","address2":"","latitude":"26.7902","longitude":"83.0348","accuracy":"4"},{"address3":"Hariharpur","state":"Uttar Pradesh","state_code":"36","district":"Sant Kabir Nagar","district_code":"186","address1":"Dhanghata","address2":"","latitude":"26.6665","longitude":"83.0022","accuracy":"4"},{"address3":"Govindpur","state":"Uttar Pradesh","state_code":"36","district":"Sant Kabir Nagar","district_code":"186","address1":"Dhanghata","address2":"","latitude":"26.7902","longitude":"83.0348","accuracy":"4"},{"address3":"Devapar","state":"Uttar Pradesh","state_code":"36","district":"Sant Kabir Nagar","district_code":"186","address1":"Dhanghata","address2":"","latitude":"26.4826","longitude":"82.9523","accuracy":"3"},{"address3":"Taraini","state":"Uttar Pradesh","state_code":"36","district":"Sant Kabir Nagar","district_code":"186","address1":"Dhanghata","address2":"","latitude":"26.6993","longitude":"82.9833","accuracy":"4"},{"address3":"Vishwanathpur","state":"Uttar Pradesh","state_code":"36","district":"Sant Kabir Nagar","district_code":"186","address1":"Dhanghata","address2":"","latitude":"26.4826","longitude":"82.9523","accuracy":"3"},{"address3":"Belduha","state":"Uttar Pradesh","state_code":"36","district":"Sant Kabir Nagar","district_code":"186","address1":"Dhanghata","address2":"","latitude":"26.6821","longitude":"82.9931","accuracy":"4"},{"address3":"Popaya","state":"Uttar Pradesh","state_code":"36","district":"Sant Kabir Nagar","district_code":"186","address1":"Dhanghata","address2":"","latitude":"26.4826","longitude":"82.9523","accuracy":"3"},{"address3":"Tumpar","state":"Uttar Pradesh","state_code":"36","district":"Sant Kabir Nagar","district_code":"186","address1":"Dhanghata","address2":"","latitude":"26.6579","longitude":"83.0935","accuracy":"4"},{"address3":"Chandrahar","state":"Uttar Pradesh","state_code":"36","district":"Sant Kabir Nagar","district_code":"186","address1":"Dhanghata","address2":"","latitude":"26.4826","longitude":"82.9523","accuracy":"3"},{"address3":"Tamakhas","state":"Uttar Pradesh","state_code":"36","district":"Sant Kabir Nagar","district_code":"186","address1":"Dhanghata","address2":"","latitude":"26.4826","longitude":"82.9523","accuracy":"3"},{"address3":"Dhanjwsal","state":"Uttar Pradesh","state_code":"36","district":"Sant Kabir Nagar","district_code":"186","address1":"Dhanghata","address2":"","latitude":"26.4826","longitude":"82.9523","accuracy":"3"},{"address3":"Bhagata","state":"Uttar Pradesh","state_code":"36","district":"Sant Kabir Nagar","district_code":"186","address1":"Dhanghata","address2":"","latitude":"26.4826","longitude":"82.9523","accuracy":"3"}],"272165":[{"address3":"Babhnauli","state":"Uttar Pradesh","state_code":"36","district":"Basti","district_code":"185","address1":"Basti","address2":"","latitude":"26.8183","longitude":"82.6311","accuracy":"4"},{"address3":"Bakainia","state":"Uttar Pradesh","state_code":"36","district":"Basti","district_code":"185","address1":"Basti","address2":"","latitude":"26.8183","longitude":"82.6311","accuracy":"4"},{"address3":"Baijnathpur","state":"Uttar Pradesh","state_code":"36","district":"Basti","district_code":"185","address1":"Basti","address2":"","latitude":"26.8183","longitude":"82.6311","accuracy":"4"},{"address3":"Bhainsa Khoont","state":"Uttar Pradesh","state_code":"36","district":"Basti","district_code":"185","address1":"Basti","address2":"","latitude":"26.3964","longitude":"82.809","accuracy":"3"},{"address3":"Bharwal Parvata","state":"Uttar Pradesh","state_code":"36","district":"Sant Kabir Nagar","district_code":"186","address1":"NA","address2":"","latitude":"26.3964","longitude":"82.809","accuracy":"3"},{"address3":"Tama","state":"Uttar Pradesh","state_code":"36","district":"Sant Kabir Nagar","district_code":"186","address1":"Dhanghata","address2":"","latitude":"26.5293","longitude":"83.1636","accuracy":"4"},{"address3":"Tanda","state":"Uttar Pradesh","state_code":"36","district":"Sant Kabir Nagar","district_code":"186","address1":"Dhanghata","address2":"","latitude":"26.7902","longitude":"83.0348","accuracy":"4"},{"address3":"Baridiha","state":"Uttar Pradesh","state_code":"36","district":"Sant Kabir Nagar","district_code":"186","address1":"NA","address2":"","latitude":"26.5912","longitude":"82.9822","accuracy":"4"},{"address3":"Hainsar Bazar","state":"Uttar Pradesh","state_code":"36","district":"Sant Kabir Nagar","district_code":"186","address1":"Dhanghata","address2":"","latitude":"26.3964","longitude":"82.809","accuracy":"3"},{"address3":"Mundera Shukul","state":"Uttar Pradesh","state_code":"36","district":"Sant Kabir Nagar","district_code":"186","address1":"Dhanghata","address2":"","latitude":"26.3964","longitude":"82.809","accuracy":"3"},{"address3":"Jigina","state":"Uttar Pradesh","state_code":"36","district":"Sant Kabir Nagar","district_code":"186","address1":"Dhanghata","address2":"","latitude":"26.7902","longitude":"83.0348","accuracy":"4"},{"address3":"Devri","state":"Uttar Pradesh","state_code":"36","district":"Sant Kabir Nagar","district_code":"186","address1":"Dhanghata","address2":"","latitude":"26.7902","longitude":"83.0348","accuracy":"4"},{"address3":"Auradand","state":"Uttar Pradesh","state_code":"36","district":"Sant Kabir Nagar","district_code":"186","address1":"Dhanghata","address2":"","latitude":"26.7902","longitude":"83.0348","accuracy":"4"},{"address3":"Sirsi","state":"Uttar Pradesh","state_code":"36","district":"Sant Kabir Nagar","district_code":"186","address1":"Dhanghata","address2":"","latitude":"26.5408","longitude":"83.0955","accuracy":"4"},{"address3":"Katarsoyam","state":"Uttar Pradesh","state_code":"36","district":"Sant Kabir Nagar","district_code":"186","address1":"Dhanghata","address2":"","latitude":"26.3964","longitude":"82.809","accuracy":"3"},{"address3":"Malauli","state":"Uttar Pradesh","state_code":"36","district":"Sant Kabir Nagar","district_code":"186","address1":"Dhanghata","address2":"","latitude":"26.5553","longitude":"83.0305","accuracy":"4"},{"address3":"Rajnauli","state":"Uttar Pradesh","state_code":"36","district":"Sant Kabir Nagar","district_code":"186","address1":"Dhanghata","address2":"","latitude":"26.517","longitude":"83.1006","accuracy":"4"},{"address3":"Ghorang","state":"Uttar Pradesh","state_code":"36","district":"Sant Kabir Nagar","district_code":"186","address1":"Dhanghata","address2":"","latitude":"26.3964","longitude":"82.809","accuracy":"3"},{"address3":"Tighra","state":"Uttar Pradesh","state_code":"36","district":"Sant Kabir Nagar","district_code":"186","address1":"NA","address2":"","latitude":"26.6083","longitude":"83.0383","accuracy":"4"},{"address3":"Barparwa","state":"Uttar Pradesh","state_code":"36","district":"Sant Kabir Nagar","district_code":"186","address1":"NA","address2":"","latitude":"26.5682","longitude":"83.0798","accuracy":"4"}],"272171":[{"address3":"Gonare","state":"Uttar Pradesh","state_code":"36","district":"Basti","district_code":"185","address1":"NA","address2":"","latitude":"26.6712","longitude":"82.8513","accuracy":"3"},{"address3":"Newari","state":"Uttar Pradesh","state_code":"36","district":"Basti","district_code":"185","address1":"Basti Sadar","address2":"","latitude":"26.6792","longitude":"82.8493","accuracy":"4"},{"address3":"Rautapar","state":"Uttar Pradesh","state_code":"36","district":"Basti","district_code":"185","address1":"Basti Sadar","address2":"","latitude":"26.6631","longitude":"82.8533","accuracy":"4"},{"address3":"Lalganj (Basti)","state":"Uttar Pradesh","state_code":"36","district":"Basti","district_code":"185","address1":"Basti Sadar","address2":"","latitude":"26.6712","longitude":"82.8513","accuracy":"3"},{"address3":"Thokwsa","state":"Uttar Pradesh","state_code":"36","district":"Basti","district_code":"185","address1":"Basti Sadar","address2":"","latitude":"26.6712","longitude":"82.8513","accuracy":"3"}],"272172":[{"address3":"Taryapar","state":"Uttar Pradesh","state_code":"36","district":"Sant Kabir Nagar","district_code":"186","address1":"Dhanghata","address2":"","latitude":"26.6251","longitude":"82.9543","accuracy":"3"},{"address3":"Siswania","state":"Uttar Pradesh","state_code":"36","district":"Sant Kabir Nagar","district_code":"186","address1":"Dhanghata","address2":"","latitude":"26.586","longitude":"82.9561","accuracy":"4"},{"address3":"Lutuhi","state":"Uttar Pradesh","state_code":"36","district":"Sant Kabir Nagar","district_code":"186","address1":"Dhanghata","address2":"","latitude":"26.6502","longitude":"82.9262","accuracy":"4"},{"address3":"Mahuli (Sant Kabir Nagar)","state":"Uttar Pradesh","state_code":"36","district":"Sant Kabir Nagar","district_code":"186","address1":"Dhanghata","address2":"","latitude":"26.6319","longitude":"82.9872","accuracy":"4"},{"address3":"Siktaha","state":"Uttar Pradesh","state_code":"36","district":"Sant Kabir Nagar","district_code":"186","address1":"Dhanghata","address2":"","latitude":"26.6236","longitude":"82.9398","accuracy":"4"},{"address3":"Chhitahi","state":"Uttar Pradesh","state_code":"36","district":"Sant Kabir Nagar","district_code":"186","address1":"NA","address2":"","latitude":"26.6339","longitude":"82.962","accuracy":"4"}],"272173":[{"address3":"Padaria","state":"Uttar Pradesh","state_code":"36","district":"Sant Kabir Nagar","district_code":"186","address1":"Khalilabad","address2":"","latitude":"26.7902","longitude":"83.0348","accuracy":"4"},{"address3":"Girdhar Pur","state":"Uttar Pradesh","state_code":"36","district":"Sant Kabir Nagar","district_code":"186","address1":"Khalilabad","address2":"","latitude":"26.6665","longitude":"83.0021","accuracy":"3"},{"address3":"Maghar","state":"Uttar Pradesh","state_code":"36","district":"Sant Kabir Nagar","district_code":"186","address1":"Khalilabad","address2":"","latitude":"26.7559","longitude":"83.1277","accuracy":"4"},{"address3":"Asharfa Bad","state":"Uttar Pradesh","state_code":"36","district":"Sant Kabir Nagar","district_code":"186","address1":"Khalilabad","address2":"","latitude":"26.6665","longitude":"83.0021","accuracy":"3"},{"address3":"Rasula Bad","state":"Uttar Pradesh","state_code":"36","district":"Sant Kabir Nagar","district_code":"186","address1":"Khalilabad","address2":"","latitude":"26.6665","longitude":"83.0021","accuracy":"3"}],"272175":[{"address3":"Baghauli","state":"Uttar Pradesh","state_code":"36","district":"Basti","district_code":"185","address1":"Basti","address2":"","latitude":"26.8183","longitude":"82.6311","accuracy":"4"},{"address3":"Bargo","state":"Uttar Pradesh","state_code":"36","district":"Basti","district_code":"185","address1":"Basti","address2":"","latitude":"26.712","longitude":"82.9793","accuracy":"3"},{"address3":"Atraura","state":"Uttar Pradesh","state_code":"36","district":"Basti","district_code":"185","address1":"Basti","address2":"","latitude":"26.842","longitude":"82.4955","accuracy":"4"},{"address3":"Khalilabad Bus Stand","state":"Uttar Pradesh","state_code":"36","district":"Sant Kabir Nagar","district_code":"186","address1":"Khalilabad","address2":"","latitude":"26.712","longitude":"82.9793","accuracy":"3"},{"address3":"Sugapankhi","state":"Uttar Pradesh","state_code":"36","district":"Sant Kabir Nagar","district_code":"186","address1":"Khalilabad","address2":"","latitude":"26.8009","longitude":"83.0214","accuracy":"4"},{"address3":"T.N.Deoria","state":"Uttar Pradesh","state_code":"36","district":"Sant Kabir Nagar","district_code":"186","address1":"Khalilabad","address2":"","latitude":"26.712","longitude":"82.9793","accuracy":"3"},{"address3":"Koni","state":"Uttar Pradesh","state_code":"36","district":"Sant Kabir Nagar","district_code":"186","address1":"Khalilabad","address2":"","latitude":"26.7118","longitude":"83.0228","accuracy":"4"},{"address3":"Gangauli","state":"Uttar Pradesh","state_code":"36","district":"Sant Kabir Nagar","district_code":"186","address1":"Khalilabad","address2":"","latitude":"26.8311","longitude":"83.0244","accuracy":"4"},{"address3":"Shivapar","state":"Uttar Pradesh","state_code":"36","district":"Sant Kabir Nagar","district_code":"186","address1":"Khalilabad","address2":"","latitude":"26.712","longitude":"82.9793","accuracy":"3"},{"address3":"Bhujaini","state":"Uttar Pradesh","state_code":"36","district":"Sant Kabir Nagar","district_code":"186","address1":"Khalilabad","address2":"","latitude":"26.7907","longitude":"82.9682","accuracy":"4"},{"address3":"Ghatramha","state":"Uttar Pradesh","state_code":"36","district":"Sant Kabir Nagar","district_code":"186","address1":"Khalilabad","address2":"","latitude":"26.712","longitude":"82.9793","accuracy":"3"},{"address3":"Ekma","state":"Uttar Pradesh","state_code":"36","district":"Sant Kabir Nagar","district_code":"186","address1":"Khalilabad","address2":"","latitude":"26.7902","longitude":"83.0348","accuracy":"4"},{"address3":"Tama","state":"Uttar Pradesh","state_code":"36","district":"Sant Kabir Nagar","district_code":"186","address1":"Khalilabad","address2":"","latitude":"26.7036","longitude":"83.0423","accuracy":"4"},{"address3":"Gorhi","state":"Uttar Pradesh","state_code":"36","district":"Sant Kabir Nagar","district_code":"186","address1":"Khalilabad","address2":"","latitude":"26.712","longitude":"82.9793","accuracy":"3"},{"address3":"Sikari","state":"Uttar Pradesh","state_code":"36","district":"Sant Kabir Nagar","district_code":"186","address1":"Khalilabad","address2":"","latitude":"26.7902","longitude":"83.0348","accuracy":"4"},{"address3":"Pakhuwapar","state":"Uttar Pradesh","state_code":"36","district":"Sant Kabir Nagar","district_code":"186","address1":"Khalilabad","address2":"","latitude":"26.712","longitude":"82.9793","accuracy":"3"},{"address3":"Bania Bari","state":"Uttar Pradesh","state_code":"36","district":"Sant Kabir Nagar","district_code":"186","address1":"Khalilabad","address2":"","latitude":"26.712","longitude":"82.9793","accuracy":"3"},{"address3":"Utrawal","state":"Uttar Pradesh","state_code":"36","district":"Sant Kabir Nagar","district_code":"186","address1":"Khalilabad","address2":"","latitude":"26.83","longitude":"83.0928","accuracy":"4"},{"address3":"Deegha","state":"Uttar Pradesh","state_code":"36","district":"Sant Kabir Nagar","district_code":"186","address1":"Khalilabad","address2":"","latitude":"26.712","longitude":"82.9793","accuracy":"3"},{"address3":"Lahuradeva","state":"Uttar Pradesh","state_code":"36","district":"Sant Kabir Nagar","district_code":"186","address1":"Khalilabad","address2":"","latitude":"26.712","longitude":"82.9793","accuracy":"3"},{"address3":"Samdaha","state":"Uttar Pradesh","state_code":"36","district":"Sant Kabir Nagar","district_code":"186","address1":"Khalilabad","address2":"","latitude":"26.8518","longitude":"83.0897","accuracy":"4"},{"address3":"Umari Kalan","state":"Uttar Pradesh","state_code":"36","district":"Sant Kabir Nagar","district_code":"186","address1":"Khalilabad","address2":"","latitude":"26.712","longitude":"82.9793","accuracy":"3"},{"address3":"Dhamaicha","state":"Uttar Pradesh","state_code":"36","district":"Sant Kabir Nagar","district_code":"186","address1":"Khalilabad","address2":"","latitude":"26.7743","longitude":"83.015","accuracy":"4"},{"address3":"Meerganj","state":"Uttar Pradesh","state_code":"36","district":"Sant Kabir Nagar","district_code":"186","address1":"Khalilabad","address2":"","latitude":"26.712","longitude":"82.9793","accuracy":"3"},{"address3":"Chakdahi","state":"Uttar Pradesh","state_code":"36","district":"Sant Kabir Nagar","district_code":"186","address1":"Khalilabad","address2":"","latitude":"26.7525","longitude":"83.0444","accuracy":"4"},{"address3":"Madhopur","state":"Uttar Pradesh","state_code":"36","district":"Sant Kabir Nagar","district_code":"186","address1":"Khalilabad","address2":"","latitude":"26.8204","longitude":"83.0562","accuracy":"4"},{"address3":"Khalilabad","state":"Uttar Pradesh","state_code":"36","district":"Sant Kabir Nagar","district_code":"186","address1":"Khalilabad","address2":"","latitude":"26.7727","longitude":"83.0718","accuracy":"4"},{"address3":"Gandhigram","state":"Uttar Pradesh","state_code":"36","district":"Sant Kabir Nagar","district_code":"186","address1":"Khalilabad","address2":"","latitude":"26.712","longitude":"82.9793","accuracy":"3"}],"272176":[{"address3":"Revta","state":"Uttar Pradesh","state_code":"36","district":"Sant Kabir Nagar","district_code":"186","address1":"Dhanghata","address2":"","latitude":"26.7902","longitude":"83.0348","accuracy":"4"},{"address3":"Dhaurepar","state":"Uttar Pradesh","state_code":"36","district":"Sant Kabir Nagar","district_code":"186","address1":"Dhanghata","address2":"","latitude":"26.6869","longitude":"82.9061","accuracy":"3"},{"address3":"Nukta","state":"Uttar Pradesh","state_code":"36","district":"Sant Kabir Nagar","district_code":"186","address1":"Dhanghata","address2":"","latitude":"26.6281","longitude":"83.0276","accuracy":"4"},{"address3":"Kali Jagdishpur","state":"Uttar Pradesh","state_code":"36","district":"Sant Kabir Nagar","district_code":"186","address1":"Dhanghata","address2":"","latitude":"26.6869","longitude":"82.9061","accuracy":"3"},{"address3":"Deokali Kala","state":"Uttar Pradesh","state_code":"36","district":"Sant Kabir Nagar","district_code":"186","address1":"Dhanghata","address2":"","latitude":"26.6869","longitude":"82.9061","accuracy":"3"},{"address3":"Bhainsahi","state":"Uttar Pradesh","state_code":"36","district":"Sant Kabir Nagar","district_code":"186","address1":"Dhanghata","address2":"","latitude":"26.6599","longitude":"82.945","accuracy":"4"},{"address3":"Ganpatganj (Sant Kabir Nagar)","state":"Uttar Pradesh","state_code":"36","district":"Sant Kabir Nagar","district_code":"186","address1":"Dhanghata","address2":"","latitude":"26.6869","longitude":"82.9061","accuracy":"3"},{"address3":"Gaighat","state":"Uttar Pradesh","state_code":"36","district":"Sant Kabir Nagar","district_code":"186","address1":"Dhanghata","address2":"","latitude":"26.5929","longitude":"83.0523","accuracy":"4"},{"address3":"Dhobbhara","state":"Uttar Pradesh","state_code":"36","district":"Sant Kabir Nagar","district_code":"186","address1":"NA","address2":"","latitude":"26.6869","longitude":"82.9061","accuracy":"3"},{"address3":"Onia","state":"Uttar Pradesh","state_code":"36","district":"Sant Kabir Nagar","district_code":"186","address1":"Dhanghata","address2":"","latitude":"26.6869","longitude":"82.9061","accuracy":"3"},{"address3":"Mukhlishpur","state":"Uttar Pradesh","state_code":"36","district":"Sant Kabir Nagar","district_code":"186","address1":"Dhanghata","address2":"","latitude":"26.6869","longitude":"82.9061","accuracy":"3"},{"address3":"Mahobara","state":"Uttar Pradesh","state_code":"36","district":"Sant Kabir Nagar","district_code":"186","address1":"Dhanghata","address2":"","latitude":"26.6869","longitude":"82.9061","accuracy":"3"},{"address3":"Pindia Bazar","state":"Uttar Pradesh","state_code":"36","district":"Sant Kabir Nagar","district_code":"186","address1":"Dhanghata","address2":"","latitude":"26.6869","longitude":"82.9061","accuracy":"3"}],"272177":[{"address3":"Banpur (Basti)","state":"Uttar Pradesh","state_code":"36","district":"Basti","district_code":"185","address1":"Basti","address2":"","latitude":"26.6179","longitude":"82.8712","accuracy":"4"},{"address3":"Kharka","state":"Uttar Pradesh","state_code":"36","district":"Basti","district_code":"185","address1":"Basti Sadar","address2":"","latitude":"26.8183","longitude":"82.6311","accuracy":"4"},{"address3":"Khairati","state":"Uttar Pradesh","state_code":"36","district":"Basti","district_code":"185","address1":"Basti Sadar","address2":"","latitude":"26.6427","longitude":"82.8741","accuracy":"4"},{"address3":"Bhitani","state":"Uttar Pradesh","state_code":"36","district":"Basti","district_code":"185","address1":"Basti Sadar","address2":"","latitude":"26.3961","longitude":"83.0269","accuracy":"3"},{"address3":"Naguwa","state":"Uttar Pradesh","state_code":"36","district":"Basti","district_code":"185","address1":"Basti Sadar","address2":"","latitude":"26.3961","longitude":"83.0269","accuracy":"3"}],"272178":[{"address3":"Karah Pithia","state":"Uttar Pradesh","state_code":"36","district":"Basti","district_code":"185","address1":"Basti Sadar","address2":"","latitude":"26.6972","longitude":"82.9545","accuracy":"4"},{"address3":"Baghari","state":"Uttar Pradesh","state_code":"36","district":"Basti","district_code":"185","address1":"Basti","address2":"","latitude":"26.7083","longitude":"82.8912","accuracy":"4"},{"address3":"Rampur Revti","state":"Uttar Pradesh","state_code":"36","district":"Basti","district_code":"185","address1":"Basti Sadar","address2":"","latitude":"26.7619","longitude":"82.8854","accuracy":"3"},{"address3":"Munderwa","state":"Uttar Pradesh","state_code":"36","district":"Basti","district_code":"185","address1":"Basti Sadar","address2":"","latitude":"26.7815","longitude":"82.744","accuracy":"4"},{"address3":"Pedari","state":"Uttar Pradesh","state_code":"36","district":"Basti","district_code":"185","address1":"Basti Sadar","address2":"","latitude":"26.8739","longitude":"82.5587","accuracy":"4"},{"address3":"Bodwal","state":"Uttar Pradesh","state_code":"36","district":"Basti","district_code":"185","address1":"Basti","address2":"","latitude":"26.765","longitude":"82.9016","accuracy":"4"},{"address3":"Bansgoan","state":"Uttar Pradesh","state_code":"36","district":"Basti","district_code":"185","address1":"Basti","address2":"","latitude":"26.7619","longitude":"82.8854","accuracy":"3"},{"address3":"Ekdangi","state":"Uttar Pradesh","state_code":"36","district":"Basti","district_code":"185","address1":"Basti Sadar","address2":"","latitude":"26.7396","longitude":"82.9575","accuracy":"4"},{"address3":"Sanda","state":"Uttar Pradesh","state_code":"36","district":"Basti","district_code":"185","address1":"Basti Sadar","address2":"","latitude":"26.7706","longitude":"82.8559","accuracy":"4"},{"address3":"Sonkhar","state":"Uttar Pradesh","state_code":"36","district":"Basti","district_code":"185","address1":"Basti Sadar","address2":"","latitude":"26.7228","longitude":"82.9603","accuracy":"4"},{"address3":"Kuriyar","state":"Uttar Pradesh","state_code":"36","district":"Basti","district_code":"185","address1":"Basti Sadar","address2":"","latitude":"26.7619","longitude":"82.8854","accuracy":"3"},{"address3":"Unchgaon","state":"Uttar Pradesh","state_code":"36","district":"Basti","district_code":"185","address1":"Basti Sadar","address2":"","latitude":"26.7969","longitude":"82.8638","accuracy":"4"},{"address3":"Gulariha Sirma","state":"Uttar Pradesh","state_code":"36","district":"Basti","district_code":"185","address1":"Basti Sadar","address2":"","latitude":"26.7619","longitude":"82.8854","accuracy":"3"},{"address3":"Rajapur Sarraiya","state":"Uttar Pradesh","state_code":"36","district":"Sant Kabir Nagar","district_code":"186","address1":"Khalilabad","address2":"","latitude":"26.7619","longitude":"82.8854","accuracy":"3"},{"address3":"Kurthia","state":"Uttar Pradesh","state_code":"36","district":"Sant Kabir Nagar","district_code":"186","address1":"Khalilabad","address2":"","latitude":"26.8072","longitude":"82.9107","accuracy":"4"},{"address3":"Bhuwan Dand","state":"Uttar Pradesh","state_code":"36","district":"Sant Kabir Nagar","district_code":"186","address1":"Khalilabad","address2":"","latitude":"26.7619","longitude":"82.8854","accuracy":"3"},{"address3":"Salehpur","state":"Uttar Pradesh","state_code":"36","district":"Sant Kabir Nagar","district_code":"186","address1":"Khalilabad","address2":"","latitude":"26.827","longitude":"82.898","accuracy":"4"},{"address3":"Unchahra","state":"Uttar Pradesh","state_code":"36","district":"Sant Kabir Nagar","district_code":"186","address1":"Khalilabad","address2":"","latitude":"26.7619","longitude":"82.8854","accuracy":"3"},{"address3":"Ahra","state":"Uttar Pradesh","state_code":"36","district":"Sant Kabir Nagar","district_code":"186","address1":"NA","address2":"","latitude":"26.5584","longitude":"83.0486","accuracy":"4"},{"address3":"Budhakalan","state":"Uttar Pradesh","state_code":"36","district":"Sant Kabir Nagar","district_code":"186","address1":"Khalilabad","address2":"","latitude":"26.7619","longitude":"82.8854","accuracy":"3"},{"address3":"Chai Kalan","state":"Uttar Pradesh","state_code":"36","district":"Sant Kabir Nagar","district_code":"186","address1":"Khalilabad","address2":"","latitude":"26.8251","longitude":"82.9606","accuracy":"4"},{"address3":"Dari Deeha","state":"Uttar Pradesh","state_code":"36","district":"Sant Kabir Nagar","district_code":"186","address1":"Khalilabad","address2":"","latitude":"26.7619","longitude":"82.8854","accuracy":"3"},{"address3":"Changera Mangera","state":"Uttar Pradesh","state_code":"36","district":"Sant Kabir Nagar","district_code":"186","address1":"Khalilabad","address2":"","latitude":"26.793","longitude":"82.8906","accuracy":"4"}],"272181":[{"address3":"Diwakarpur","state":"Uttar Pradesh","state_code":"36","district":"Basti","district_code":"185","address1":"Harraiya","address2":"","latitude":"26.8183","longitude":"82.6311","accuracy":"4"},{"address3":"Raghwapur","state":"Uttar Pradesh","state_code":"36","district":"Basti","district_code":"185","address1":"Harraiya","address2":"","latitude":"26.8973","longitude":"82.4208","accuracy":"4"},{"address3":"Hundrakunwar","state":"Uttar Pradesh","state_code":"36","district":"Basti","district_code":"185","address1":"Harraiya","address2":"","latitude":"26.4565","longitude":"82.6766","accuracy":"3"},{"address3":"Mahadewa","state":"Uttar Pradesh","state_code":"36","district":"Basti","district_code":"185","address1":"Harraiya","address2":"","latitude":"26.8212","longitude":"82.5857","accuracy":"4"},{"address3":"Vedipur","state":"Uttar Pradesh","state_code":"36","district":"Basti","district_code":"185","address1":"Harraiya","address2":"","latitude":"26.4565","longitude":"82.6766","accuracy":"3"},{"address3":"Jitipur","state":"Uttar Pradesh","state_code":"36","district":"Basti","district_code":"185","address1":"Harraiya","address2":"","latitude":"26.7808","longitude":"82.379","accuracy":"4"},{"address3":"Itwakungai","state":"Uttar Pradesh","state_code":"36","district":"Basti","district_code":"185","address1":"Harraiya","address2":"","latitude":"26.4565","longitude":"82.6766","accuracy":"3"},{"address3":"Paikolia","state":"Uttar Pradesh","state_code":"36","district":"Basti","district_code":"185","address1":"Harraiya","address2":"","latitude":"26.4565","longitude":"82.6766","accuracy":"3"},{"address3":"Belbharia Ram Gulam","state":"Uttar Pradesh","state_code":"36","district":"Basti","district_code":"185","address1":"Harraiya","address2":"","latitude":"26.4565","longitude":"82.6766","accuracy":"3"}],"272182":[{"address3":"Walterganj","state":"Uttar Pradesh","state_code":"36","district":"Basti","district_code":"185","address1":"Basti East","address2":"","latitude":"26.8518","longitude":"82.726","accuracy":"4"},{"address3":"Siarapar","state":"Uttar Pradesh","state_code":"36","district":"Basti","district_code":"185","address1":"Basti East","address2":"","latitude":"26.8183","longitude":"82.6311","accuracy":"4"},{"address3":"Belhara","state":"Uttar Pradesh","state_code":"36","district":"Basti","district_code":"185","address1":"Basti East","address2":"","latitude":"26.8183","longitude":"82.6311","accuracy":"4"},{"address3":"Sansarpur","state":"Uttar Pradesh","state_code":"36","district":"Basti","district_code":"185","address1":"Basti East","address2":"","latitude":"26.7179","longitude":"82.4285","accuracy":"4"}],"272189":[{"address3":"Shahpur","state":"Uttar Pradesh","state_code":"36","district":"Siddharthnagar","district_code":"184","address1":"Domariaganj","address2":"","latitude":"27.0351","longitude":"82.9574","accuracy":"4"},{"address3":"Gaura Bazar","state":"Uttar Pradesh","state_code":"36","district":"Siddharthnagar","district_code":"184","address1":"Domariaganj","address2":"","latitude":"26.9979","longitude":"82.8393","accuracy":"3"},{"address3":"Bitharia","state":"Uttar Pradesh","state_code":"36","district":"Siddharthnagar","district_code":"184","address1":"Domariaganj","address2":"","latitude":"27.1885","longitude":"82.5777","accuracy":"4"},{"address3":"Sehari Khas","state":"Uttar Pradesh","state_code":"36","district":"Siddharthnagar","district_code":"184","address1":"Domariaganj","address2":"","latitude":"26.9979","longitude":"82.8393","accuracy":"3"},{"address3":"Fatehpur","state":"Uttar Pradesh","state_code":"36","district":"Siddharthnagar","district_code":"184","address1":"Domariaganj","address2":"","latitude":"27.1083","longitude":"82.9135","accuracy":"4"},{"address3":"Jhahraon","state":"Uttar Pradesh","state_code":"36","district":"Siddharthnagar","district_code":"184","address1":"Domariaganj","address2":"","latitude":"27.0922","longitude":"82.9458","accuracy":"4"},{"address3":"Penda","state":"Uttar Pradesh","state_code":"36","district":"Siddharthnagar","district_code":"184","address1":"Domariaganj","address2":"","latitude":"27.2238","longitude":"82.7696","accuracy":"4"},{"address3":"Quadirabad","state":"Uttar Pradesh","state_code":"36","district":"Siddharthnagar","district_code":"184","address1":"Domariaganj","address2":"","latitude":"26.9979","longitude":"82.8393","accuracy":"3"},{"address3":"Turkaulia","state":"Uttar Pradesh","state_code":"36","district":"Siddharthnagar","district_code":"184","address1":"Domariaganj","address2":"","latitude":"27.0732","longitude":"82.8698","accuracy":"4"},{"address3":"Malimainha","state":"Uttar Pradesh","state_code":"36","district":"Siddharthnagar","district_code":"184","address1":"Domariaganj","address2":"","latitude":"26.9979","longitude":"82.8393","accuracy":"3"},{"address3":"Dhobha","state":"Uttar Pradesh","state_code":"36","district":"Siddharthnagar","district_code":"184","address1":"Domariaganj","address2":"","latitude":"27.2228","longitude":"82.7053","accuracy":"4"},{"address3":"Dhaurahara","state":"Uttar Pradesh","state_code":"36","district":"Siddharthnagar","district_code":"184","address1":"Domariaganj","address2":"","latitude":"26.9979","longitude":"82.8393","accuracy":"3"},{"address3":"Bijwar Barhai","state":"Uttar Pradesh","state_code":"36","district":"Siddharthnagar","district_code":"184","address1":"Domariaganj","address2":"","latitude":"27.2233","longitude":"82.6097","accuracy":"4"},{"address3":"Kusumhi","state":"Uttar Pradesh","state_code":"36","district":"Siddharthnagar","district_code":"184","address1":"Domariaganj","address2":"","latitude":"27.2741","longitude":"82.8734","accuracy":"4"},{"address3":"Chafa","state":"Uttar Pradesh","state_code":"36","district":"Siddharthnagar","district_code":"184","address1":"Domariaganj","address2":"","latitude":"26.9979","longitude":"82.8393","accuracy":"3"},{"address3":"Domariaganj","state":"Uttar Pradesh","state_code":"36","district":"Siddharthnagar","district_code":"184","address1":"Domariaganj","address2":"","latitude":"27.205","longitude":"82.6522","accuracy":"4"},{"address3":"Bharwatia Bzr","state":"Uttar Pradesh","state_code":"36","district":"Siddharthnagar","district_code":"184","address1":"Domariaganj","address2":"","latitude":"26.9979","longitude":"82.8393","accuracy":"3"},{"address3":"Rasoolpur","state":"Uttar Pradesh","state_code":"36","district":"Siddharthnagar","district_code":"184","address1":"Domariaganj","address2":"","latitude":"26.9979","longitude":"82.8393","accuracy":"3"},{"address3":"Beerpur","state":"Uttar Pradesh","state_code":"36","district":"Siddharthnagar","district_code":"184","address1":"Domariaganj","address2":"","latitude":"26.9979","longitude":"82.8393","accuracy":"3"},{"address3":"Bhandariamanik Ganj","state":"Uttar Pradesh","state_code":"36","district":"Siddharthnagar","district_code":"184","address1":"Domariaganj","address2":"","latitude":"26.9979","longitude":"82.8393","accuracy":"3"}],"272190":[{"address3":"Bishunpurwa","state":"Uttar Pradesh","state_code":"36","district":"Basti","district_code":"185","address1":"Bhanpur","address2":"","latitude":"26.8183","longitude":"82.6311","accuracy":"4"},{"address3":"Lapsi","state":"Uttar Pradesh","state_code":"36","district":"Basti","district_code":"185","address1":"Bhanpur","address2":"","latitude":"26.9673","longitude":"82.6806","accuracy":"4"},{"address3":"Majhauwa Khurd","state":"Uttar Pradesh","state_code":"36","district":"Basti","district_code":"185","address1":"Bhanpur","address2":"","latitude":"26.7975","longitude":"82.8918","accuracy":"3"},{"address3":"Bargadwa","state":"Uttar Pradesh","state_code":"36","district":"Basti","district_code":"185","address1":"Bhanpur (sonha)","address2":"","latitude":"27.0369","longitude":"82.7167","accuracy":"4"},{"address3":"Chaukwa","state":"Uttar Pradesh","state_code":"36","district":"Basti","district_code":"185","address1":"Bhanpur","address2":"","latitude":"26.9508","longitude":"82.6725","accuracy":"4"},{"address3":"Sihari Sardaha","state":"Uttar Pradesh","state_code":"36","district":"Basti","district_code":"185","address1":"Bhanpur","address2":"","latitude":"26.9931","longitude":"82.7294","accuracy":"4"},{"address3":"Teliha Deeh","state":"Uttar Pradesh","state_code":"36","district":"Basti","district_code":"185","address1":"Bhanpur","address2":"","latitude":"26.7975","longitude":"82.8918","accuracy":"3"},{"address3":"Amrauli Sumali","state":"Uttar Pradesh","state_code":"36","district":"Basti","district_code":"185","address1":"Bhanpur","address2":"","latitude":"26.7975","longitude":"82.8918","accuracy":"3"},{"address3":"Sonha","state":"Uttar Pradesh","state_code":"36","district":"Basti","district_code":"185","address1":"Bhanpur","address2":"","latitude":"26.8183","longitude":"82.6311","accuracy":"4"},{"address3":"Jahlipur","state":"Uttar Pradesh","state_code":"36","district":"Basti","district_code":"185","address1":"Bhanpur","address2":"","latitude":"26.7975","longitude":"82.8918","accuracy":"3"},{"address3":"Saltauwa","state":"Uttar Pradesh","state_code":"36","district":"Basti","district_code":"185","address1":"Bhanpur","address2":"","latitude":"26.7975","longitude":"82.8918","accuracy":"3"},{"address3":"Jinswa","state":"Uttar Pradesh","state_code":"36","district":"Basti","district_code":"185","address1":"Bhanpur","address2":"","latitude":"26.7975","longitude":"82.8918","accuracy":"3"}],"272191":[{"address3":"Malhwar","state":"Uttar Pradesh","state_code":"36","district":"Siddharthnagar","district_code":"184","address1":"Domariaganj","address2":"","latitude":"27.1223","longitude":"82.7214","accuracy":"4"},{"address3":"Bewa Chauraha","state":"Uttar Pradesh","state_code":"36","district":"Siddharthnagar","district_code":"184","address1":"Domariaganj","address2":"","latitude":"27.1356","longitude":"82.7025","accuracy":"3"},{"address3":"Manoharpur","state":"Uttar Pradesh","state_code":"36","district":"Siddharthnagar","district_code":"184","address1":"Domariaganj","address2":"","latitude":"27.1488","longitude":"82.6836","accuracy":"4"},{"address3":"Hallaur (Siddharthnagar)","state":"Uttar Pradesh","state_code":"36","district":"Siddharthnagar","district_code":"184","address1":"Domariaganj","address2":"","latitude":"27.1356","longitude":"82.7025","accuracy":"3"},