{"273001":[{"address3":"Civil Court (Gorakhpur)","state":"Uttar Pradesh","state_code":"36","district":"Gorakhpur","district_code":"188","address1":"Gorakhpur","address2":"","latitude":"26.7666","longitude":"83.3825","accuracy":"3"},{"address3":"Labour Camp","state":"Uttar Pradesh","state_code":"36","district":"Gorakhpur","district_code":"188","address1":"Gorakhpur","address2":"","latitude":"26.7666","longitude":"83.3825","accuracy":"3"},{"address3":"Bank Road (Gorakhpur)","state":"Uttar Pradesh","state_code":"36","district":"Gorakhpur","district_code":"188","address1":"Gorakhpur","address2":"","latitude":"26.7666","longitude":"83.3825","accuracy":"3"},{"address3":"Dharamshala","state":"Uttar Pradesh","state_code":"36","district":"Gorakhpur","district_code":"188","address1":"Gorakhpur","address2":"","latitude":"26.5021","longitude":"83.4296","accuracy":"4"},{"address3":"Allahadadpur","state":"Uttar Pradesh","state_code":"36","district":"Gorakhpur","district_code":"188","address1":"Gorakhpur","address2":"","latitude":"26.7666","longitude":"83.3825","accuracy":"3"},{"address3":"Daudpur","state":"Uttar Pradesh","state_code":"36","district":"Gorakhpur","district_code":"188","address1":"Gorakhpur Sadar","address2":"","latitude":"26.7407","longitude":"83.3737","accuracy":"4"},{"address3":"Jafra Bazar","state":"Uttar Pradesh","state_code":"36","district":"Gorakhpur","district_code":"188","address1":"Gorakhpur","address2":"","latitude":"26.7666","longitude":"83.3825","accuracy":"3"},{"address3":"Gorakhpur Kutchery","state":"Uttar Pradesh","state_code":"36","district":"Gorakhpur","district_code":"188","address1":"Gorakhpur","address2":"","latitude":"26.7666","longitude":"83.3825","accuracy":"3"},{"address3":"Ilahibagh","state":"Uttar Pradesh","state_code":"36","district":"Gorakhpur","district_code":"188","address1":"Gorakhpur","address2":"","latitude":"26.7666","longitude":"83.3825","accuracy":"3"},{"address3":"Alinagar","state":"Uttar Pradesh","state_code":"36","district":"Gorakhpur","district_code":"188","address1":"Gorakhpur","address2":"","latitude":"27.057","longitude":"83.3442","accuracy":"4"},{"address3":"Golghar","state":"Uttar Pradesh","state_code":"36","district":"Gorakhpur","district_code":"188","address1":"Gorakhpur","address2":"","latitude":"26.7666","longitude":"83.3825","accuracy":"3"},{"address3":"Kazipur Kalan","state":"Uttar Pradesh","state_code":"36","district":"Gorakhpur","district_code":"188","address1":"Gorakhpur Sadar","address2":"","latitude":"26.7666","longitude":"83.3825","accuracy":"3"},{"address3":"Buxipur","state":"Uttar Pradesh","state_code":"36","district":"Gorakhpur","district_code":"188","address1":"Gorakhpur","address2":"","latitude":"26.7666","longitude":"83.3825","accuracy":"3"},{"address3":"Gorakhpur H.O","state":"Uttar Pradesh","state_code":"36","district":"Gorakhpur","district_code":"188","address1":"Gorakhpur","address2":"","latitude":"26.7666","longitude":"83.3825","accuracy":"3"},{"address3":"Betia Hata","state":"Uttar Pradesh","state_code":"36","district":"Gorakhpur","district_code":"188","address1":"Gorakhpur Sadar","address2":"","latitude":"26.7666","longitude":"83.3825","accuracy":"3"}],"273002":[{"address3":"Sihoria","state":"Uttar Pradesh","state_code":"36","district":"Gorakhpur","district_code":"188","address1":"Sadar","address2":"","latitude":"26.7764","longitude":"83.3215","accuracy":"4"},{"address3":"A.P.Station","state":"Uttar Pradesh","state_code":"36","district":"Gorakhpur","district_code":"188","address1":"NA","address2":"","latitude":"26.6912","longitude":"83.3606","accuracy":"3"},{"address3":"Jagdishpur","state":"Uttar Pradesh","state_code":"36","district":"Gorakhpur","district_code":"188","address1":"Sadar","address2":"","latitude":"26.3117","longitude":"83.617","accuracy":"4"},{"address3":"Rajahi Camp","state":"Uttar Pradesh","state_code":"36","district":"Gorakhpur","district_code":"188","address1":"Sadar","address2":"","latitude":"26.6912","longitude":"83.3606","accuracy":"3"},{"address3":"Gopalpur","state":"Uttar Pradesh","state_code":"36","district":"Gorakhpur","district_code":"188","address1":"Sadar","address2":"","latitude":"26.7179","longitude":"83.1971","accuracy":"4"},{"address3":"Baraipur","state":"Uttar Pradesh","state_code":"36","district":"Gorakhpur","district_code":"188","address1":"Sadar","address2":"","latitude":"26.9587","longitude":"83.3069","accuracy":"4"},{"address3":"Jungle Ramgarh","state":"Uttar Pradesh","state_code":"36","district":"Gorakhpur","district_code":"188","address1":"Sadar","address2":"","latitude":"26.6912","longitude":"83.3606","accuracy":"3"},{"address3":"Sonbarsa Bazar","state":"Uttar Pradesh","state_code":"36","district":"Gorakhpur","district_code":"188","address1":"Sadar","address2":"","latitude":"26.6912","longitude":"83.3606","accuracy":"3"},{"address3":"Kusumhi Bazar","state":"Uttar Pradesh","state_code":"36","district":"Gorakhpur","district_code":"188","address1":"Sadar","address2":"","latitude":"26.6912","longitude":"83.3606","accuracy":"3"}],"273003":[{"address3":"Arogyamandir","state":"Uttar Pradesh","state_code":"36","district":"Gorakhpur","district_code":"188","address1":"Gorakhpur","address2":"","latitude":"26.7899","longitude":"83.32","accuracy":"1"}],"273004":[{"address3":"Basharatpur","state":"Uttar Pradesh","state_code":"36","district":"Gorakhpur","district_code":"188","address1":"Gorakhpur","address2":"","latitude":"26.783","longitude":"83.3852","accuracy":"4"},{"address3":"Ashok Nagar (Gorakhpur)","state":"Uttar Pradesh","state_code":"36","district":"Gorakhpur","district_code":"188","address1":"Gorakhpur","address2":"","latitude":"26.783","longitude":"83.3852","accuracy":"3"}],"273005":[{"address3":"Rajghat","state":"Uttar Pradesh","state_code":"36","district":"Gorakhpur","district_code":"188","address1":"Gorakhpur Sadar","address2":"","latitude":"26.6578","longitude":"83.3614","accuracy":"4"},{"address3":"Gita Press","state":"Uttar Pradesh","state_code":"36","district":"Gorakhpur","district_code":"188","address1":"Gorakhpur","address2":"","latitude":"26.9887","longitude":"82.9737","accuracy":"3"},{"address3":"Urdu Bazar","state":"Uttar Pradesh","state_code":"36","district":"Gorakhpur","district_code":"188","address1":"Gorakhpur","address2":"","latitude":"26.9887","longitude":"82.9737","accuracy":"3"},{"address3":"Turkmanpur","state":"Uttar Pradesh","state_code":"36","district":"Gorakhpur","district_code":"188","address1":"Gorakhpur","address2":"","latitude":"26.9887","longitude":"82.9737","accuracy":"3"}],"273006":[{"address3":"Gita Vatika","state":"Uttar Pradesh","state_code":"36","district":"Gorakhpur","district_code":"188","address1":"Gorakhpur","address2":"","latitude":"26.7899","longitude":"83.32","accuracy":"1"}],"273007":[{"address3":"Mirpur","state":"Uttar Pradesh","state_code":"36","district":"Gorakhpur","district_code":"188","address1":"Sadar","address2":"","latitude":"26.8358","longitude":"83.2535","accuracy":"4"},{"address3":"Jungle Kauria","state":"Uttar Pradesh","state_code":"36","district":"Gorakhpur","district_code":"188","address1":"Gorakhpur","address2":"","latitude":"26.8685","longitude":"83.3094","accuracy":"4"},{"address3":"Balapar","state":"Uttar Pradesh","state_code":"36","district":"Gorakhpur","district_code":"188","address1":"NA","address2":"","latitude":"26.8434","longitude":"83.3584","accuracy":"4"},{"address3":"Fertilizer Factory","state":"Uttar Pradesh","state_code":"36","district":"Gorakhpur","district_code":"188","address1":"Gorakhpur","address2":"","latitude":"26.8446","longitude":"83.3062","accuracy":"3"},{"address3":"Maniram","state":"Uttar Pradesh","state_code":"36","district":"Gorakhpur","district_code":"188","address1":"Gorakhpur","address2":"","latitude":"26.8409","longitude":"83.3365","accuracy":"4"},{"address3":"Jangle Beni Madho","state":"Uttar Pradesh","state_code":"36","district":"Gorakhpur","district_code":"188","address1":"Sadar","address2":"","latitude":"26.8446","longitude":"83.3062","accuracy":"3"},{"address3":"Sihorwa","state":"Uttar Pradesh","state_code":"36","district":"Gorakhpur","district_code":"188","address1":"Sadar","address2":"","latitude":"26.8344","longitude":"83.2732","accuracy":"4"},{"address3":"Lachchipur","state":"Uttar Pradesh","state_code":"36","district":"Gorakhpur","district_code":"188","address1":"NA","address2":"","latitude":"26.8446","longitude":"83.3062","accuracy":"3"},{"address3":"Rampurgopalpur","state":"Uttar Pradesh","state_code":"36","district":"Gorakhpur","district_code":"188","address1":"Sadar","address2":"","latitude":"26.8446","longitude":"83.3062","accuracy":"3"},{"address3":"Maina Bhagar","state":"Uttar Pradesh","state_code":"36","district":"Gorakhpur","district_code":"188","address1":"Sadar","address2":"","latitude":"26.8446","longitude":"83.3062","accuracy":"3"},{"address3":"Parmeshwar Pur","state":"Uttar Pradesh","state_code":"36","district":"Gorakhpur","district_code":"188","address1":"Sadar","address2":"","latitude":"26.8446","longitude":"83.3062","accuracy":"3"}],"273008":[{"address3":"Kunraghat H.O","state":"Uttar Pradesh","state_code":"36","district":"Gorakhpur","district_code":"188","address1":"Gorakhpur Sadar","address2":"","latitude":"26.7899","longitude":"83.32","accuracy":"1"},{"address3":"Mohaddipur (Gorakhpur)","state":"Uttar Pradesh","state_code":"36","district":"Gorakhpur","district_code":"188","address1":"Gorakhpur","address2":"","latitude":"26.7899","longitude":"83.32","accuracy":"1"}],"273009":[{"address3":"Gorakhpur University","state":"Uttar Pradesh","state_code":"36","district":"Gorakhpur","district_code":"188","address1":"Gorakhpur Sadar","address2":"","latitude":"26.7899","longitude":"83.32","accuracy":"1"}],"273010":[{"address3":"Raiganj","state":"Uttar Pradesh","state_code":"36","district":"Gorakhpur","district_code":"188","address1":"Sadar","address2":"","latitude":"26.6732","longitude":"83.4629","accuracy":"4"},{"address3":"M.M.M.E.College","state":"Uttar Pradesh","state_code":"36","district":"Gorakhpur","district_code":"188","address1":"Gorakhpur","address2":"","latitude":"26.6916","longitude":"83.4455","accuracy":"3"},{"address3":"Khorabar","state":"Uttar Pradesh","state_code":"36","district":"Gorakhpur","district_code":"188","address1":"Gorakhpur","address2":"","latitude":"26.71","longitude":"83.4282","accuracy":"4"},{"address3":"Jungle Chauri","state":"Uttar Pradesh","state_code":"36","district":"Gorakhpur","district_code":"188","address1":"Sadar","address2":"","latitude":"26.6916","longitude":"83.4455","accuracy":"3"}],"273012":[{"address3":"GR Railway Station","state":"Uttar Pradesh","state_code":"36","district":"Gorakhpur","district_code":"188","address1":"Gorakhpur","address2":"","latitude":"26.7339","longitude":"83.3717","accuracy":"1"},{"address3":"Railway Colony (Gorakhpur)","state":"Uttar Pradesh","state_code":"36","district":"Gorakhpur","district_code":"188","address1":"Gorakhpur Sadar","address2":"","latitude":"26.7339","longitude":"83.3717","accuracy":"1"},{"address3":"Loco  Workshop LSG","state":"Uttar Pradesh","state_code":"36","district":"Gorakhpur","district_code":"188","address1":"NA","address2":"","latitude":"26.7339","longitude":"83.3717","accuracy":"1"}],"273013":[{"address3":"Jungle Aurahi","state":"Uttar Pradesh","state_code":"36","district":"Gorakhpur","district_code":"188","address1":"Sadar","address2":"","latitude":"26.8162","longitude":"83.4488","accuracy":"4"},{"address3":"Jingle Ayodhayay Prasad","state":"Uttar Pradesh","state_code":"36","district":"Gorakhpur","district_code":"188","address1":"Sadar","address2":"","latitude":"26.8162","longitude":"83.4488","accuracy":"3"},{"address3":"Chargaon","state":"Uttar Pradesh","state_code":"36","district":"Gorakhpur","district_code":"188","address1":"Gorakhpur","address2":"","latitude":"26.6578","longitude":"83.3614","accuracy":"3"},{"address3":"Gulharia","state":"Uttar Pradesh","state_code":"36","district":"Gorakhpur","district_code":"188","address1":"Sadar","address2":"","latitude":"26.8162","longitude":"83.4488","accuracy":"3"},{"address3":"B.R.D Medical College","state":"Uttar Pradesh","state_code":"36","district":"Gorakhpur","district_code":"188","address1":"Gorakhpur","address2":"","latitude":"26.8162","longitude":"83.4488","accuracy":"3"},{"address3":"Jhungia Bazar","state":"Uttar Pradesh","state_code":"36","district":"Gorakhpur","district_code":"188","address1":"Sadar","address2":"","latitude":"26.8162","longitude":"83.4488","accuracy":"3"}],"273014":[{"address3":"Jangle Laxmipur","state":"Uttar Pradesh","state_code":"36","district":"Gorakhpur","district_code":"188","address1":"Sadar","address2":"","latitude":"26.7339","longitude":"83.3717","accuracy":"1"},{"address3":"Pac Camp","state":"Uttar Pradesh","state_code":"36","district":"Gorakhpur","district_code":"188","address1":"Gorakhpur Sadar","address2":"","latitude":"26.7339","longitude":"83.3717","accuracy":"1"},{"address3":"Jangle Salikram","state":"Uttar Pradesh","state_code":"36","district":"Gorakhpur","district_code":"188","address1":"Sadar","address2":"","latitude":"26.7339","longitude":"83.3717","accuracy":"1"},{"address3":"Jangle Tulshiram","state":"Uttar Pradesh","state_code":"36","district":"Gorakhpur","district_code":"188","address1":"Sadar","address2":"","latitude":"26.7339","longitude":"83.3717","accuracy":"1"},{"address3":"Jangle Dhushar","state":"Uttar Pradesh","state_code":"36","district":"Gorakhpur","district_code":"188","address1":"Sadar","address2":"","latitude":"26.7339","longitude":"83.3717","accuracy":"1"}],"273015":[{"address3":"Surajkund Colony","state":"Uttar Pradesh","state_code":"36","district":"Gorakhpur","district_code":"188","address1":"Gorakhpur Sadar","address2":"","latitude":"26.8341","longitude":"83.1569","accuracy":"3"},{"address3":"Gorakhnath Mandir","state":"Uttar Pradesh","state_code":"36","district":"Gorakhpur","district_code":"188","address1":"Gorakhpur","address2":"","latitude":"26.8341","longitude":"83.1569","accuracy":"3"},{"address3":"Manjharia","state":"Uttar Pradesh","state_code":"36","district":"Gorakhpur","district_code":"188","address1":"Sadar","address2":"","latitude":"26.8341","longitude":"83.1569","accuracy":"4"},{"address3":"Jagatabela","state":"Uttar Pradesh","state_code":"36","district":"Gorakhpur","district_code":"188","address1":"Sadar","address2":"","latitude":"26.8341","longitude":"83.1569","accuracy":"3"},{"address3":"Dohariya Bazar","state":"Uttar Pradesh","state_code":"36","district":"Gorakhpur","district_code":"188","address1":"Sadar","address2":"","latitude":"26.8341","longitude":"83.1569","accuracy":"3"},{"address3":"Jatepur North","state":"Uttar Pradesh","state_code":"36","district":"Gorakhpur","district_code":"188","address1":"Gorakhpur Sadar","address2":"","latitude":"26.8341","longitude":"83.1569","accuracy":"3"}],"273016":[{"address3":"Mirzapur Bazar","state":"Uttar Pradesh","state_code":"36","district":"Gorakhpur","district_code":"188","address1":"Sader","address2":"","latitude":"26.7142","longitude":"83.3698","accuracy":"3"},{"address3":"Nausar","state":"Uttar Pradesh","state_code":"36","district":"Gorakhpur","district_code":"188","address1":"Sader","address2":"","latitude":"26.7295","longitude":"83.3343","accuracy":"4"},{"address3":"Chhapiya","state":"Uttar Pradesh","state_code":"36","district":"Gorakhpur","district_code":"188","address1":"Sader","address2":"","latitude":"26.7142","longitude":"83.3698","accuracy":"3"},{"address3":"Lalpur Tikar","state":"Uttar Pradesh","state_code":"36","district":"Gorakhpur","district_code":"188","address1":"Sader","address2":"","latitude":"26.6774","longitude":"83.3959","accuracy":"4"},{"address3":"Shivpurinewcolony","state":"Uttar Pradesh","state_code":"36","district":"Gorakhpur","district_code":"188","address1":"Gorakhpur Sadar","address2":"","latitude":"26.7142","longitude":"83.3698","accuracy":"3"},{"address3":"Bahrampur","state":"Uttar Pradesh","state_code":"36","district":"Gorakhpur","district_code":"188","address1":"Sader","address2":"","latitude":"26.749","longitude":"83.3388","accuracy":"4"},{"address3":"Nauwa Awal","state":"Uttar Pradesh","state_code":"36","district":"Gorakhpur","district_code":"188","address1":"Sader","address2":"","latitude":"26.7142","longitude":"83.3698","accuracy":"3"},{"address3":"Rampur","state":"Uttar Pradesh","state_code":"36","district":"Gorakhpur","district_code":"188","address1":"Sader","address2":"","latitude":"26.7143","longitude":"83.3932","accuracy":"4"},{"address3":"Davarpar","state":"Uttar Pradesh","state_code":"36","district":"Gorakhpur","district_code":"188","address1":"Sader","address2":"","latitude":"26.7142","longitude":"83.3698","accuracy":"3"},{"address3":"Lahsari","state":"Uttar Pradesh","state_code":"36","district":"Gorakhpur","district_code":"188","address1":"Sader","address2":"","latitude":"26.7011","longitude":"83.3866","accuracy":"4"},{"address3":"Bargo","state":"Uttar Pradesh","state_code":"36","district":"Gorakhpur","district_code":"188","address1":"Sader","address2":"","latitude":"26.7142","longitude":"83.3698","accuracy":"3"}],"273017":[{"address3":"Siddharth Enclave","state":"Uttar Pradesh","state_code":"36","district":"Gorakhpur","district_code":"188","address1":"Gorakhpur","address2":"","latitude":"26.7339","longitude":"83.3717","accuracy":"1"}],"273151":[{"address3":"Mednipur","state":"Uttar Pradesh","state_code":"36","district":"Maharajganj","district_code":"187","address1":"Mahrajganj","address2":"","latitude":"26.9964","longitude":"83.7071","accuracy":"4"},{"address3":"Gaura Dubey","state":"Uttar Pradesh","state_code":"36","district":"Maharajganj","district_code":"187","address1":"Mahrajganj","address2":"","latitude":"27.0474","longitude":"83.5679","accuracy":"3"},{"address3":"Chaumukha","state":"Uttar Pradesh","state_code":"36","district":"Maharajganj","district_code":"187","address1":"Mahrajganj","address2":"","latitude":"27.2025","longitude":"83.5333","accuracy":"4"},{"address3":"Biraicha","state":"Uttar Pradesh","state_code":"36","district":"Maharajganj","district_code":"187","address1":"Mahrajganj","address2":"","latitude":"27.0251","longitude":"83.7327","accuracy":"4"},{"address3":"Narayanpur","state":"Uttar Pradesh","state_code":"36","district":"Maharajganj","district_code":"187","address1":"Mahrajganj","address2":"","latitude":"26.9776","longitude":"83.4483","accuracy":"4"},{"address3":"Baspar","state":"Uttar Pradesh","state_code":"36","district":"Maharajganj","district_code":"187","address1":"Mahrajganj","address2":"","latitude":"27.0474","longitude":"83.5679","accuracy":"3"},{"address3":"Rampur Baldiha","state":"Uttar Pradesh","state_code":"36","district":"Maharajganj","district_code":"187","address1":"Mahrajganj","address2":"","latitude":"27.0475","longitude":"83.6835","accuracy":"4"},{"address3":"Basantpur","state":"Uttar Pradesh","state_code":"36","district":"Maharajganj","district_code":"187","address1":"Mahrajganj","address2":"","latitude":"27.2008","longitude":"83.4004","accuracy":"4"},{"address3":"Ghughli R.S.","state":"Uttar Pradesh","state_code":"36","district":"Maharajganj","district_code":"187","address1":"Maharaj Ganj Sadar","address2":"","latitude":"27.0474","longitude":"83.5679","accuracy":"3"},{"address3":"Munderi","state":"Uttar Pradesh","state_code":"36","district":"Maharajganj","district_code":"187","address1":"Mahrajganj","address2":"","latitude":"27.0703","longitude":"83.733","accuracy":"4"},{"address3":"Pakdi Bishunpur","state":"Uttar Pradesh","state_code":"36","district":"Maharajganj","district_code":"187","address1":"Mahrajganj","address2":"","latitude":"27.0474","longitude":"83.5679","accuracy":"3"},{"address3":"Pakdiar Bishunpur","state":"Uttar Pradesh","state_code":"36","district":"Maharajganj","district_code":"187","address1":"Mahrajganj","address2":"","latitude":"27.0474","longitude":"83.5679","accuracy":"3"}],"273152":[{"address3":"Pipraich","state":"Uttar Pradesh","state_code":"36","district":"Gorakhpur","district_code":"188","address1":"Gorakhpur Sadar","address2":"","latitude":"26.8274","longitude":"83.5263","accuracy":"4"},{"address3":"Parasurampur","state":"Uttar Pradesh","state_code":"36","district":"Gorakhpur","district_code":"188","address1":"NA","address2":"","latitude":"26.7462","longitude":"83.4565","accuracy":"3"},{"address3":"Hemdhapur","state":"Uttar Pradesh","state_code":"36","district":"Gorakhpur","district_code":"188","address1":"Sadar","address2":"","latitude":"26.7685","longitude":"83.58","accuracy":"4"},{"address3":"Luhsi","state":"Uttar Pradesh","state_code":"36","district":"Gorakhpur","district_code":"188","address1":"Sadar","address2":"","latitude":"26.7462","longitude":"83.4565","accuracy":"3"},{"address3":"Belakanta","state":"Uttar Pradesh","state_code":"36","district":"Gorakhpur","district_code":"188","address1":"NA","address2":"","latitude":"26.7462","longitude":"83.4565","accuracy":"3"},{"address3":"Patra Bazar","state":"Uttar Pradesh","state_code":"36","district":"Gorakhpur","district_code":"188","address1":"Sadar","address2":"","latitude":"26.7462","longitude":"83.4565","accuracy":"3"},{"address3":"Unaula","state":"Uttar Pradesh","state_code":"36","district":"Gorakhpur","district_code":"188","address1":"Sadar","address2":"","latitude":"26.606","longitude":"83.2281","accuracy":"4"},{"address3":"Naiyapar Khurd","state":"Uttar Pradesh","state_code":"36","district":"Gorakhpur","district_code":"188","address1":"Sadar","address2":"","latitude":"26.7826","longitude":"83.4914","accuracy":"4"}],"273155":[{"address3":"Sarpataha","state":"Uttar Pradesh","state_code":"36","district":"Maharajganj","district_code":"187","address1":"Farenda","address2":"","latitude":"27.2025","longitude":"83.5333","accuracy":"4"},{"address3":"Bankata","state":"Uttar Pradesh","state_code":"36","district":"Maharajganj","district_code":"187","address1":"Farenda","address2":"","latitude":"27.0803","longitude":"83.2129","accuracy":"4"},{"address3":"Anandnagar (Maharajganj)","state":"Uttar Pradesh","state_code":"36","district":"Maharajganj","district_code":"187","address1":"Pharenda","address2":"","latitude":"27.1006","longitude":"83.2716","accuracy":"4"},{"address3":"Ramnagar","state":"Uttar Pradesh","state_code":"36","district":"Maharajganj","district_code":"187","address1":"Farenda","address2":"","latitude":"27.1786","longitude":"83.3037","accuracy":"4"},{"address3":"Indrapur","state":"Uttar Pradesh","state_code":"36","district":"Maharajganj","district_code":"187","address1":"Farenda","address2":"","latitude":"27.2025","longitude":"83.5333","accuracy":"4"},{"address3":"Dandwarkhurd","state":"Uttar Pradesh","state_code":"36","district":"Maharajganj","district_code":"187","address1":"Farenda","address2":"","latitude":"27.006","longitude":"83.0878","accuracy":"3"},{"address3":"Karimnagar","state":"Uttar Pradesh","state_code":"36","district":"Maharajganj","district_code":"187","address1":"Farenda","address2":"","latitude":"27.2025","longitude":"83.5333","accuracy":"4"},{"address3":"Pokharbhinda","state":"Uttar Pradesh","state_code":"36","district":"Maharajganj","district_code":"187","address1":"Farenda","address2":"","latitude":"27.1155","longitude":"83.3304","accuracy":"4"},{"address3":"Goplapur","state":"Uttar Pradesh","state_code":"36","district":"Maharajganj","district_code":"187","address1":"Farenda","address2":"","latitude":"27.0996","longitude":"83.307","accuracy":"4"},{"address3":"Mathuranagar","state":"Uttar Pradesh","state_code":"36","district":"Maharajganj","district_code":"187","address1":"Farenda","address2":"","latitude":"27.0877","longitude":"83.2844","accuracy":"4"},{"address3":"Machhaligaon","state":"Uttar Pradesh","state_code":"36","district":"Maharajganj","district_code":"187","address1":"Farenda","address2":"","latitude":"27.006","longitude":"83.0878","accuracy":"3"},{"address3":"Baratgarah","state":"Uttar Pradesh","state_code":"36","district":"Maharajganj","district_code":"187","address1":"Farenda","address2":"","latitude":"27.006","longitude":"83.0878","accuracy":"3"},{"address3":"Bargadwa Harriya","state":"Uttar Pradesh","state_code":"36","district":"Maharajganj","district_code":"187","address1":"Farenda","address2":"","latitude":"27.006","longitude":"83.0878","accuracy":"3"},{"address3":"Hagana Mohammadpur","state":"Uttar Pradesh","state_code":"36","district":"Maharajganj","district_code":"187","address1":"Farenda","address2":"","latitude":"27.006","longitude":"83.0878","accuracy":"3"},{"address3":"Pharendra Khurd","state":"Uttar Pradesh","state_code":"36","district":"Maharajganj","district_code":"187","address1":"Farenda","address2":"","latitude":"27.006","longitude":"83.0878","accuracy":"3"},{"address3":"Lvp Nagar","state":"Uttar Pradesh","state_code":"36","district":"Maharajganj","district_code":"187","address1":"Nautanwa","address2":"","latitude":"27.006","longitude":"83.0878","accuracy":"3"}],"273157":[{"address3":"Mahulani","state":"Uttar Pradesh","state_code":"36","district":"Maharajganj","district_code":"187","address1":"Farenda","address2":"","latitude":"27.2128","longitude":"83.191","accuracy":"4"},{"address3":"Bribgemanganj","state":"Uttar Pradesh","state_code":"36","district":"Maharajganj","district_code":"187","address1":"Fharenda","address2":"","latitude":"27.1454","longitude":"83.2762","accuracy":"3"},{"address3":"Sauraha","state":"Uttar Pradesh","state_code":"36","district":"Maharajganj","district_code":"187","address1":"Farenda","address2":"","latitude":"27.2025","longitude":"83.5333","accuracy":"4"},{"address3":"Lalpur","state":"Uttar Pradesh","state_code":"36","district":"Maharajganj","district_code":"187","address1":"Farenda","address2":"","latitude":"27.2137","longitude":"83.407","accuracy":"4"},{"address3":"Shahabad","state":"Uttar Pradesh","state_code":"36","district":"Maharajganj","district_code":"187","address1":"Farenda","address2":"","latitude":"27.2041","longitude":"83.1942","accuracy":"4"},{"address3":"Amwabujurg","state":"Uttar Pradesh","state_code":"36","district":"Maharajganj","district_code":"187","address1":"Farenda","address2":"","latitude":"27.1454","longitude":"83.2762","accuracy":"3"},{"address3":"Banjaria Sonbarsa","state":"Uttar Pradesh","state_code":"36","district":"Maharajganj","district_code":"187","address1":"Farenda","address2":"","latitude":"27.1454","longitude":"83.2762","accuracy":"3"},{"address3":"Keshouli","state":"Uttar Pradesh","state_code":"36","district":"Maharajganj","district_code":"187","address1":"Farenda","address2":"","latitude":"27.1454","longitude":"83.2762","accuracy":"3"},{"address3":"Mishrouliya","state":"Uttar Pradesh","state_code":"36","district":"Maharajganj","district_code":"187","address1":"Farenda","address2":"","latitude":"27.1454","longitude":"83.2762","accuracy":"3"},{"address3":"Sahjanwa Babu","state":"Uttar Pradesh","state_code":"36","district":"Maharajganj","district_code":"187","address1":"Farenda","address2":"","latitude":"27.1454","longitude":"83.2762","accuracy":"3"},{"address3":"Siakrgarh","state":"Uttar Pradesh","state_code":"36","district":"Maharajganj","district_code":"187","address1":"Farenda","address2":"","latitude":"27.1454","longitude":"83.2762","accuracy":"3"},{"address3":"Belaharriya","state":"Uttar Pradesh","state_code":"36","district":"Maharajganj","district_code":"187","address1":"Farenda","address2":"","latitude":"27.1454","longitude":"83.2762","accuracy":"3"},{"address3":"Bargahpur","state":"Uttar Pradesh","state_code":"36","district":"Gorakhpur","district_code":"188","address1":"NA","address2":"","latitude":"26.6578","longitude":"83.3614","accuracy":"4"},{"address3":"Lehrabazar","state":"Uttar Pradesh","state_code":"36","district":"Gorakhpur","district_code":"188","address1":"NA","address2":"","latitude":"27.1454","longitude":"83.2762","accuracy":"3"}],"273158":[{"address3":"Rajpur","state":"Uttar Pradesh","state_code":"36","district":"Gorakhpur","district_code":"188","address1":"Camperganj","address2":"","latitude":"27.0325","longitude":"83.3001","accuracy":"4"},{"address3":"Madhonagar","state":"Uttar Pradesh","state_code":"36","district":"Gorakhpur","district_code":"188","address1":"Campierganj","address2":"","latitude":"26.6578","longitude":"83.3614","accuracy":"4"},{"address3":"Basantpur","state":"Uttar Pradesh","state_code":"36","district":"Gorakhpur","district_code":"188","address1":"Campierganj","address2":"","latitude":"27.0303","longitude":"83.2607","accuracy":"4"},{"address3":"Baluwa","state":"Uttar Pradesh","state_code":"36","district":"Gorakhpur","district_code":"188","address1":"Campierganj","address2":"","latitude":"26.6578","longitude":"83.3614","accuracy":"4"},{"address3":"Loharpurwa","state":"Uttar Pradesh","state_code":"36","district":"Gorakhpur","district_code":"188","address1":"Campierganj","address2":"","latitude":"27.0679","longitude":"83.2642","accuracy":"4"},{"address3":"Mahuwashukul","state":"Uttar Pradesh","state_code":"36","district":"Gorakhpur","district_code":"188","address1":"Campierganj","address2":"","latitude":"27.052","longitude":"83.2573","accuracy":"3"},{"address3":"Ramchaura","state":"Uttar Pradesh","state_code":"36","district":"Gorakhpur","district_code":"188","address1":"Campierganj","address2":"","latitude":"27.0061","longitude":"83.2704","accuracy":"4"},{"address3":"Rajuarakhurd","state":"Uttar Pradesh","state_code":"36","district":"Gorakhpur","district_code":"188","address1":"Campierganj","address2":"","latitude":"27.052","longitude":"83.2573","accuracy":"3"},{"address3":"Kunwar","state":"Uttar Pradesh","state_code":"36","district":"Gorakhpur","district_code":"188","address1":"Campierganj","address2":"","latitude":"27.0595","longitude":"83.1567","accuracy":"4"},{"address3":"Gulhariya","state":"Uttar Pradesh","state_code":"36","district":"Gorakhpur","district_code":"188","address1":"Campierganj","address2":"","latitude":"27.052","longitude":"83.2573","accuracy":"3"},{"address3":"Suras","state":"Uttar Pradesh","state_code":"36","district":"Gorakhpur","district_code":"188","address1":"Campierganj","address2":"","latitude":"27.0081","longitude":"83.3107","accuracy":"4"},{"address3":"Netwar Bazar","state":"Uttar Pradesh","state_code":"36","district":"Gorakhpur","district_code":"188","address1":"Campierganj","address2":"","latitude":"27.052","longitude":"83.2573","accuracy":"3"},{"address3":"Campierganj","state":"Uttar Pradesh","state_code":"36","district":"Gorakhpur","district_code":"188","address1":"Campierganj","address2":"","latitude":"27.052","longitude":"83.2573","accuracy":"3"},{"address3":"Rigouli","state":"Uttar Pradesh","state_code":"36","district":"Gorakhpur","district_code":"188","address1":"Campierganj","address2":"","latitude":"27.052","longitude":"83.2573","accuracy":"3"},{"address3":"Bhaurabari","state":"Uttar Pradesh","state_code":"36","district":"Gorakhpur","district_code":"188","address1":"Campierganj","address2":"","latitude":"26.9939","longitude":"83.2469","accuracy":"4"},{"address3":"Sonoura Bujurg","state":"Uttar Pradesh","state_code":"36","district":"Gorakhpur","district_code":"188","address1":"Campierganj","address2":"","latitude":"27.052","longitude":"83.2573","accuracy":"3"},{"address3":"Maulaganj","state":"Uttar Pradesh","state_code":"36","district":"Gorakhpur","district_code":"188","address1":"Campierganj","address2":"","latitude":"26.6578","longitude":"83.3614","accuracy":"4"},{"address3":"Kamasinkhurd","state":"Uttar Pradesh","state_code":"36","district":"Gorakhpur","district_code":"188","address1":"Campierganj","address2":"","latitude":"27.052","longitude":"83.2573","accuracy":"3"},{"address3":"Khajurgawan","state":"Uttar Pradesh","state_code":"36","district":"Gorakhpur","district_code":"188","address1":"Campierganj","address2":"","latitude":"27.0341","longitude":"83.212","accuracy":"4"},{"address3":"Baidabazar","state":"Uttar Pradesh","state_code":"36","district":"Gorakhpur","district_code":"188","address1":"Campierganj","address2":"","latitude":"27.052","longitude":"83.2573","accuracy":"3"},{"address3":"Thakurnagar","state":"Uttar Pradesh","state_code":"36","district":"Gorakhpur","district_code":"188","address1":"Campierganj","address2":"","latitude":"27.069","longitude":"83.2551","accuracy":"4"},{"address3":"Davipur","state":"Uttar Pradesh","state_code":"36","district":"Gorakhpur","district_code":"188","address1":"Campierganj","address2":"","latitude":"27.052","longitude":"83.2573","accuracy":"3"},{"address3":"Dhrampur","state":"Uttar Pradesh","state_code":"36","district":"Gorakhpur","district_code":"188","address1":"Camperganj","address2":"","latitude":"27.052","longitude":"83.2573","accuracy":"3"}],"273161":[{"address3":"Bandoh","state":"Uttar Pradesh","state_code":"36","district":"Maharajganj","district_code":"187","address1":"Farenda","address2":"","latitude":"27.2025","longitude":"83.5333","accuracy":"4"},{"address3":"Baisar","state":"Uttar Pradesh","state_code":"36","district":"Maharajganj","district_code":"187","address1":"Farenda","address2":"","latitude":"27.1361","longitude":"83.2007","accuracy":"4"},{"address3":"Mahdewa","state":"Uttar Pradesh","state_code":"36","district":"Maharajganj","district_code":"187","address1":"Farenda","address2":"","latitude":"27.1094","longitude":"83.285","accuracy":"4"},{"address3":"Dhani Bazar","state":"Uttar Pradesh","state_code":"36","district":"Maharajganj","district_code":"187","address1":"Fharenda","address2":"","latitude":"27.1064","longitude":"83.2115","accuracy":"3"},{"address3":"Marhatha","state":"Uttar Pradesh","state_code":"36","district":"Maharajganj","district_code":"187","address1":"Farenda","address2":"","latitude":"27.1064","longitude":"83.2115","accuracy":"3"},{"address3":"Belouha","state":"Uttar Pradesh","state_code":"36","district":"Maharajganj","district_code":"187","address1":"Farenda","address2":"","latitude":"27.1064","longitude":"83.2115","accuracy":"3"},{"address3":"Nausagra","state":"Uttar Pradesh","state_code":"36","district":"Maharajganj","district_code":"187","address1":"Farenda","address2":"","latitude":"27.1064","longitude":"83.2115","accuracy":"3"},{"address3":"Sikandrajitpur","state":"Uttar Pradesh","state_code":"36","district":"Maharajganj","district_code":"187","address1":"Farenda","address2":"","latitude":"27.1064","longitude":"83.2115","accuracy":"3"}],"273162":[{"address3":"Rajdhani","state":"Uttar Pradesh","state_code":"36","district":"Maharajganj","district_code":"187","address1":"Nautanwa","address2":"","latitude":"27.2424","longitude":"83.3265","accuracy":"4"},{"address3":"Basantpur","state":"Uttar Pradesh","state_code":"36","district":"Maharajganj","district_code":"187","address1":"Nautanwa","address2":"","latitude":"27.2008","longitude":"83.4004","accuracy":"4"},{"address3":"Lejarmahdewa","state":"Uttar Pradesh","state_code":"36","district":"Maharajganj","district_code":"187","address1":"Nautanwa","address2":"","latitude":"27.2028","longitude":"83.3674","accuracy":"3"},{"address3":"Dhuswakala","state":"Uttar Pradesh","state_code":"36","district":"Maharajganj","district_code":"187","address1":"NA","address2":"","latitude":"27.2028","longitude":"83.3674","accuracy":"3"},{"address3":"Shaildah","state":"Uttar Pradesh","state_code":"36","district":"Maharajganj","district_code":"187","address1":"NA","address2":"","latitude":"27.2028","longitude":"83.3674","accuracy":"3"},{"address3":"Laxmipur (Maharajganj)","state":"Uttar Pradesh","state_code":"36","district":"Maharajganj","district_code":"187","address1":"Nautanawa","address2":"","latitude":"27.2028","longitude":"83.3674","accuracy":"3"},{"address3":"Semra Maharaj","state":"Uttar Pradesh","state_code":"36","district":"Maharajganj","district_code":"187","address1":"Nautanwa","address2":"","latitude":"27.1651","longitude":"83.3753","accuracy":"4"},{"address3":"Rudrapura Sheonath","state":"Uttar Pradesh","state_code":"36","district":"Maharajganj","district_code":"187","address1":"NA","address2":"","latitude":"27.2028","longitude":"83.3674","accuracy":"3"},{"address3":"Pipra Sohat","state":"Uttar Pradesh","state_code":"36","district":"Maharajganj","district_code":"187","address1":"Nautanawa","address2":"","latitude":"27.2028","longitude":"83.3674","accuracy":"3"},{"address3":"Puranderpur","state":"Uttar Pradesh","state_code":"36","district":"Maharajganj","district_code":"187","address1":"NA","address2":"","latitude":"27.2028","longitude":"83.3674","accuracy":"3"},{"address3":"Rajmandir Kala","state":"Uttar Pradesh","state_code":"36","district":"Maharajganj","district_code":"187","address1":"Nautanwa","address2":"","latitude":"27.2028","longitude":"83.3674","accuracy":"3"},{"address3":"Medida","state":"Uttar Pradesh","state_code":"36","district":"Maharajganj","district_code":"187","address1":"NA","address2":"","latitude":"27.2028","longitude":"83.3674","accuracy":"3"},{"address3":"Khlikgarh","state":"Uttar Pradesh","state_code":"36","district":"Maharajganj","district_code":"187","address1":"Nautanwa","address2":"","latitude":"27.2028","longitude":"83.3674","accuracy":"3"},{"address3":"Smardhira","state":"Uttar Pradesh","state_code":"36","district":"Maharajganj","district_code":"187","address1":"Nautanawa","address2":"","latitude":"27.2028","longitude":"83.3674","accuracy":"3"}],"273163":[{"address3":"Germa","state":"Uttar Pradesh","state_code":"36","district":"Maharajganj","district_code":"187","address1":"Nichlaul","address2":"","latitude":"26.7072","longitude":"83.2408","accuracy":"3"},{"address3":"Ardauna","state":"Uttar Pradesh","state_code":"36","district":"Maharajganj","district_code":"187","address1":"Nichlaul","address2":"","latitude":"27.2025","longitude":"83.5333","accuracy":"4"},{"address3":"Lohepar","state":"Uttar Pradesh","state_code":"36","district":"Maharajganj","district_code":"187","address1":"Nichlaul","address2":"","latitude":"27.2025","longitude":"83.5333","accuracy":"4"},{"address3":"Karamahi","state":"Uttar Pradesh","state_code":"36","district":"Maharajganj","district_code":"187","address1":"Maharajganj","address2":"","latitude":"26.7072","longitude":"83.2408","accuracy":"3"},{"address3":"Kaima","state":"Uttar Pradesh","state_code":"36","district":"Maharajganj","district_code":"187","address1":"Maharajganj","address2":"","latitude":"27.2025","longitude":"83.5333","accuracy":"4"},{"address3":"Kothibhar","state":"Uttar Pradesh","state_code":"36","district":"Maharajganj","district_code":"187","address1":"Maharajganj","address2":"","latitude":"27.2025","longitude":"83.5333","accuracy":"4"},{"address3":"Chainpur","state":"Uttar Pradesh","state_code":"36","district":"Maharajganj","district_code":"187","address1":"Nichlaul","address2":"","latitude":"27.2293","longitude":"83.5538","accuracy":"4"},{"address3":"Katahari","state":"Uttar Pradesh","state_code":"36","district":"Maharajganj","district_code":"187","address1":"NA","address2":"","latitude":"26.7072","longitude":"83.2408","accuracy":"3"},{"address3":"Bariarpur","state":"Uttar Pradesh","state_code":"36","district":"Maharajganj","district_code":"187","address1":"Nichlaul","address2":"","latitude":"27.0604","longitude":"83.6429","accuracy":"4"},{"address3":"Badhra Mahant","state":"Uttar Pradesh","state_code":"36","district":"Maharajganj","district_code":"187","address1":"Mahrajganj","address2":"","latitude":"26.7072","longitude":"83.2408","accuracy":"3"},{"address3":"Sabaya","state":"Uttar Pradesh","state_code":"36","district":"Maharajganj","district_code":"187","address1":"NA","address2":"","latitude":"26.7072","longitude":"83.2408","accuracy":"3"},{"address3":"Rampur Kala","state":"Uttar Pradesh","state_code":"36","district":"Maharajganj","district_code":"187","address1":"Mahrajganj","address2":"","latitude":"26.7072","longitude":"83.2408","accuracy":"3"},{"address3":"Madhwalia","state":"Uttar Pradesh","state_code":"36","district":"Maharajganj","district_code":"187","address1":"Nichlaul","address2":"","latitude":"26.7072","longitude":"83.2408","accuracy":"3"},{"address3":"Basuli  Farm","state":"Uttar Pradesh","state_code":"36","district":"Maharajganj","district_code":"187","address1":"Nochlaul","address2":"","latitude":"26.7072","longitude":"83.2408","accuracy":"3"},{"address3":"Chargha","state":"Uttar Pradesh","state_code":"36","district":"Maharajganj","district_code":"187","address1":"Nichlaul","address2":"","latitude":"26.7072","longitude":"83.2408","accuracy":"3"},{"address3":"Guri Badhipurwa","state":"Uttar Pradesh","state_code":"36","district":"Maharajganj","district_code":"187","address1":"Nichlaul","address2":"","latitude":"26.7072","longitude":"83.2408","accuracy":"3"},{"address3":"Khesrari","state":"Uttar Pradesh","state_code":"36","district":"Gorakhpur","district_code":"188","address1":"NA","address2":"","latitude":"26.7072","longitude":"83.2408","accuracy":"3"},{"address3":"Siswa Bazar","state":"Uttar Pradesh","state_code":"36","district":"Gorakhpur","district_code":"188","address1":"Nichlaulal","address2":"","latitude":"26.6578","longitude":"83.3614","accuracy":"4"}],"273164":[{"address3":"Jara","state":"Uttar Pradesh","state_code":"36","district":"Maharajganj","district_code":"187","address1":"Nautanawa","address2":"","latitude":"27.2025","longitude":"83.5333","accuracy":"3"},{"address3":"Puraniha","state":"Uttar Pradesh","state_code":"36","district":"Maharajganj","district_code":"187","address1":"Nautanawa","address2":"","latitude":"26.8089","longitude":"83.0058","accuracy":"3"},{"address3":"Chakdah","state":"Uttar Pradesh","state_code":"36","district":"Maharajganj","district_code":"187","address1":"NA","address2":"","latitude":"27.2025","longitude":"83.5333","accuracy":"4"},{"address3":"Banarisihakhurd","state":"Uttar Pradesh","state_code":"36","district":"Maharajganj","district_code":"187","address1":"Nautanawa","address2":"","latitude":"26.8089","longitude":"83.0058","accuracy":"3"},{"address3":"Bhagirathpur","state":"Uttar Pradesh","state_code":"36","district":"Maharajganj","district_code":"187","address1":"Nautanawa","address2":"","latitude":"27.2025","longitude":"83.5333","accuracy":"4"},{"address3":"Karamahwa","state":"Uttar Pradesh","state_code":"36","district":"Maharajganj","district_code":"187","address1":"Nautanawa","address2":"","latitude":"26.8089","longitude":"83.0058","accuracy":"3"},{"address3":"Naikot","state":"Uttar Pradesh","state_code":"36","district":"Maharajganj","district_code":"187","address1":"Nautanawa","address2":"","latitude":"27.2025","longitude":"83.5333","accuracy":"4"},{"address3":"Ramnagar","state":"Uttar Pradesh","state_code":"36","district":"Maharajganj","district_code":"187","address1":"NA","address2":"","latitude":"27.0408","longitude":"83.3905","accuracy":"4"},{"address3":"Nautanwa Bazar","state":"Uttar Pradesh","state_code":"36","district":"Maharajganj","district_code":"187","address1":"Maharajganj","address2":"","latitude":"27.4275","longitude":"83.4179","accuracy":"4"},{"address3":"Bhagawanpur","state":"Uttar Pradesh","state_code":"36","district":"Maharajganj","district_code":"187","address1":"Nautanawa","address2":"","latitude":"26.8089","longitude":"83.0058","accuracy":"3"},{"address3":"Nipania","state":"Uttar Pradesh","state_code":"36","district":"Maharajganj","district_code":"187","address1":"Nautanwa","address2":"","latitude":"26.9787","longitude":"83.6798","accuracy":"4"},{"address3":"Kajari","state":"Uttar Pradesh","state_code":"36","district":"Maharajganj","district_code":"187","address1":"Nautanawa","address2":"","latitude":"26.8089","longitude":"83.0058","accuracy":"3"},{"address3":"Ratanpur","state":"Uttar Pradesh","state_code":"36","district":"Maharajganj","district_code":"187","address1":"Nautanawa","address2":"","latitude":"27.1594","longitude":"83.6966","accuracy":"4"},{"address3":"Karialia","state":"Uttar Pradesh","state_code":"36","district":"Maharajganj","district_code":"187","address1":"Nautanawa","address2":"","latitude":"26.8089","longitude":"83.0058","accuracy":"3"},{"address3":"Akasarawa","state":"Uttar Pradesh","state_code":"36","district":"Maharajganj","district_code":"187","address1":"Nautanawa","address2":"","latitude":"26.8089","longitude":"83.0058","accuracy":"3"},{"address3":"Adda Bazar","state":"Uttar Pradesh","state_code":"36","district":"Maharajganj","district_code":"187","address1":"Nautanawa","address2":"","latitude":"26.8089","longitude":"83.0058","accuracy":"3"},{"address3":"Charalaha","state":"Uttar Pradesh","state_code":"36","district":"Maharajganj","district_code":"187","address1":"Nautanawa","address2":"","latitude":"26.8089","longitude":"83.0058","accuracy":"3"},{"address3":"Khoria Bazar","state":"Uttar Pradesh","state_code":"36","district":"Maharajganj","district_code":"187","address1":"Nautanawa","address2":"","latitude":"26.8089","longitude":"83.0058","accuracy":"3"}],"273165":[{"address3":"Thawaipar","state":"Uttar Pradesh","state_code":"36","district":"Gorakhpur","district_code":"188","address1":"Gorakhpur","address2":"","latitude":"26.8518","longitude":"83.1533","accuracy":"4"},{"address3":"Kanapar","state":"Uttar Pradesh","state_code":"36","district":"Gorakhpur","district_code":"188","address1":"Gorakhpur","address2":"","latitude":"26.9217","longitude":"83.2659","accuracy":"4"},{"address3":"Nawapar","state":"Uttar Pradesh","state_code":"36","district":"Gorakhpur","district_code":"188","address1":"Gorakhpur","address2":"","latitude":"26.9741","longitude":"83.2902","accuracy":"4"},{"address3":"Tighara","state":"Uttar Pradesh","state_code":"36","district":"Gorakhpur","district_code":"188","address1":"Gorakhpur","address2":"","latitude":"26.6578","longitude":"83.3614","accuracy":"4"},{"address3":"Pepeeganj","state":"Uttar Pradesh","state_code":"36","district":"Gorakhpur","district_code":"188","address1":"Gorakhpur Sadar","address2":"","latitude":"26.8533","longitude":"83.0242","accuracy":"3"},{"address3":"Rajabari","state":"Uttar Pradesh","state_code":"36","district":"Gorakhpur","district_code":"188","address1":"Gorakhpur","address2":"","latitude":"26.9015","longitude":"83.2598","accuracy":"4"},{"address3":"Makhanaha","state":"Uttar Pradesh","state_code":"36","district":"Gorakhpur","district_code":"188","address1":"Gorakhpur","address2":"","latitude":"26.8533","longitude":"83.0242","accuracy":"3"},{"address3":"Sarhari","state":"Uttar Pradesh","state_code":"36","district":"Gorakhpur","district_code":"188","address1":"Gorakhpur","address2":"","latitude":"26.6578","longitude":"83.3614","accuracy":"4"},{"address3":"Kalyanpur","state":"Uttar Pradesh","state_code":"36","district":"Gorakhpur","district_code":"188","address1":"Gorakhpur","address2":"","latitude":"26.6678","longitude":"83.2514","accuracy":"4"},{"address3":"Tikaria","state":"Uttar Pradesh","state_code":"36","district":"Gorakhpur","district_code":"188","address1":"NA","address2":"","latitude":"26.7883","longitude":"83.2224","accuracy":"4"},{"address3":"Turkwalia","state":"Uttar Pradesh","state_code":"36","district":"Gorakhpur","district_code":"188","address1":"Gorakhpur","address2":"","latitude":"26.8533","longitude":"83.0242","accuracy":"3"},{"address3":"Mahawan Khore","state":"Uttar Pradesh","state_code":"36","district":"Gorakhpur","district_code":"188","address1":"Gorakhpur","address2":"","latitude":"26.8533","longitude":"83.0242","accuracy":"3"},{"address3":"Ban","state":"Uttar Pradesh","state_code":"36","district":"Gorakhpur","district_code":"188","address1":"Gorakhpur","address2":"","latitude":"26.9608","longitude":"83.2139","accuracy":"4"},{"address3":"Jangle Agahi","state":"Uttar Pradesh","state_code":"36","district":"Gorakhpur","district_code":"188","address1":"Gorakhpur","address2":"","latitude":"26.8533","longitude":"83.0242","accuracy":"3"},{"address3":"Mansorganj Khurd","state":"Uttar Pradesh","state_code":"36","district":"Gorakhpur","district_code":"188","address1":"Gorakhpur","address2":"","latitude":"26.8533","longitude":"83.0242","accuracy":"3"},{"address3":"Fardahani","state":"Uttar Pradesh","state_code":"36","district":"Gorakhpur","district_code":"188","address1":"Gorakhpur","address2":"","latitude":"26.8533","longitude":"83.0242","accuracy":"3"},{"address3":"Majhauna","state":"Uttar Pradesh","state_code":"36","district":"Gorakhpur","district_code":"188","address1":"Gorakhpur","address2":"","latitude":"26.9563","longitude":"83.2257","accuracy":"4"},{"address3":"Gangibazar","state":"Uttar Pradesh","state_code":"36","district":"Gorakhpur","district_code":"188","address1":"Gorakhpur","address2":"","latitude":"26.8533","longitude":"83.0242","accuracy":"3"},{"address3":"Rawatganj","state":"Uttar Pradesh","state_code":"36","district":"Gorakhpur","district_code":"188","address1":"Campierganj","address2":"","latitude":"26.8533","longitude":"83.0242","accuracy":"3"},{"address3":"Narakataha Bazar","state":"Uttar Pradesh","state_code":"36","district":"Gorakhpur","district_code":"188","address1":"Gorakhpur","address2":"","latitude":"26.8533","longitude":"83.0242","accuracy":"3"},{"address3":"Rakhore","state":"Uttar Pradesh","state_code":"36","district":"Gorakhpur","district_code":"188","address1":"Gorakhpur","address2":"","latitude":"26.8533","longitude":"83.0242","accuracy":"3"},{"address3":"Barhyachowk","state":"Uttar Pradesh","state_code":"36","district":"Gorakhpur","district_code":"188","address1":"Gorakhpur","address2":"","latitude":"26.8533","longitude":"83.0242","accuracy":"3"},{"address3":"Domara","state":"Uttar Pradesh","state_code":"36","district":"Gorakhpur","district_code":"188","address1":"Gorakhpur","address2":"","latitude":"26.8533","longitude":"83.0242","accuracy":"3"},{"address3":"Kataharimahurasar","state":"Uttar Pradesh","state_code":"36","district":"Gorakhpur","district_code":"188","address1":"Gorakhpur","address2":"","latitude":"26.8533","longitude":"83.0242","accuracy":"3"}],"273201":[{"address3":"Rampur Rakba","state":"Uttar Pradesh","state_code":"36","district":"Gorakhpur","district_code":"188","address1":"Chauri Chaura","address2":"","latitude":"26.7773","longitude":"83.37","accuracy":"3"},{"address3":"Pholwaria","state":"Uttar Pradesh","state_code":"36","district":"Gorakhpur","district_code":"188","address1":"Chauri Chaura","address2":"","latitude":"26.7773","longitude":"83.37","accuracy":"3"},{"address3":"Gaunar","state":"Uttar Pradesh","state_code":"36","district":"Gorakhpur","district_code":"188","address1":"Chauri Chaura","address2":"","latitude":"26.6948","longitude":"83.5969","accuracy":"4"},{"address3":"S Athwa Purvi","state":"Uttar Pradesh","state_code":"36","district":"Gorakhpur","district_code":"188","address1":"Chauri Chaura","address2":"","latitude":"26.7773","longitude":"83.37","accuracy":"3"},{"address3":"Chauri Chaura","state":"Uttar Pradesh","state_code":"36","district":"Gorakhpur","district_code":"188","address1":"Chauri Chaura","address2":"","latitude":"26.7773","longitude":"83.37","accuracy":"3"},{"address3":"Bishwnathpur","state":"Uttar Pradesh","state_code":"36","district":"Gorakhpur","district_code":"188","address1":"Chauri Chaura","address2":"","latitude":"26.7773","longitude":"83.37","accuracy":"3"},{"address3":"Baghar","state":"Uttar Pradesh","state_code":"36","district":"Gorakhpur","district_code":"188","address1":"Chauri Chaura","address2":"","latitude":"26.6827","longitude":"83.593","accuracy":"4"},{"address3":"Mehia","state":"Uttar Pradesh","state_code":"36","district":"Gorakhpur","district_code":"188","address1":"Chauri Chaura","address2":"","latitude":"26.7773","longitude":"83.37","accuracy":"3"},{"address3":"Mundera Bazar","state":"Uttar Pradesh","state_code":"36","district":"Gorakhpur","district_code":"188","address1":"NA","address2":"","latitude":"26.7773","longitude":"83.37","accuracy":"3"},{"address3":"Parsauni","state":"Uttar Pradesh","state_code":"36","district":"Gorakhpur","district_code":"188","address1":"Chauri Chaura","address2":"","latitude":"27.0953","longitude":"83.1386","accuracy":"4"},{"address3":"Sonbarsa","state":"Uttar Pradesh","state_code":"36","district":"Gorakhpur","district_code":"188","address1":"Chauri Chaura","address2":"","latitude":"26.6364","longitude":"83.1515","accuracy":"4"}],"273202":[{"address3":"Belwa Babu","state":"Uttar Pradesh","state_code":"36","district":"Gorakhpur","district_code":"188","address1":"Sadar","address2":"","latitude":"26.6578","longitude":"83.3614","accuracy":"4"},{"address3":"Basdila","state":"Uttar Pradesh","state_code":"36","district":"Gorakhpur","district_code":"188","address1":"Sadar","address2":"","latitude":"26.6511","longitude":"83.2394","accuracy":"4"},{"address3":"Sardar Nagar","state":"Uttar Pradesh","state_code":"36","district":"Gorakhpur","district_code":"188","address1":"Chauri Chaura","address2":"","latitude":"26.6578","longitude":"83.3614","accuracy":"3"},{"address3":"Jhangha","state":"Uttar Pradesh","state_code":"36","district":"Gorakhpur","district_code":"188","address1":"Sadar","address2":"","latitude":"26.6431","longitude":"83.4924","accuracy":"4"},{"address3":"Phothwa Inar","state":"Uttar Pradesh","state_code":"36","district":"Gorakhpur","district_code":"188","address1":"Sadar","address2":"","latitude":"26.7066","longitude":"83.4754","accuracy":"3"},{"address3":"Awadhpur","state":"Uttar Pradesh","state_code":"36","district":"Gorakhpur","district_code":"188","address1":"Sadar","address2":"","latitude":"26.6691","longitude":"83.5423","accuracy":"4"},{"address3":"Dumri Khas","state":"Uttar Pradesh","state_code":"36","district":"Gorakhpur","district_code":"188","address1":"Sadar","address2":"","latitude":"26.7066","longitude":"83.4754","accuracy":"3"},{"address3":"Bhaisaha","state":"Uttar Pradesh","state_code":"36","district":"Gorakhpur","district_code":"188","address1":"Sadar","address2":"","latitude":"26.7032","longitude":"83.5074","accuracy":"4"},{"address3":"Jungle Gauri","state":"Uttar Pradesh","state_code":"36","district":"Gorakhpur","district_code":"188","address1":"Sadar","address2":"","latitude":"26.7066","longitude":"83.4754","accuracy":"3"},{"address3":"Rajdhani","state":"Uttar Pradesh","state_code":"36","district":"Gorakhpur","district_code":"188","address1":"NA","address2":"","latitude":"26.5922","longitude":"83.5129","accuracy":"4"},{"address3":"Amhia","state":"Uttar Pradesh","state_code":"36","district":"Gorakhpur","district_code":"188","address1":"Sadar","address2":"","latitude":"26.7066","longitude":"83.4754","accuracy":"3"},{"address3":"Gahira","state":"Uttar Pradesh","state_code":"36","district":"Gorakhpur","district_code":"188","address1":"Sadar","address2":"","latitude":"26.7298","longitude":"83.1363","accuracy":"4"},{"address3":"Bhauwapar Bazar","state":"Uttar Pradesh","state_code":"36","district":"Gorakhpur","district_code":"188","address1":"NA","address2":"","latitude":"26.7066","longitude":"83.4754","accuracy":"3"}],"273203":[{"address3":"Nauwabari","state":"Uttar Pradesh","state_code":"36","district":"Gorakhpur","district_code":"188","address1":"Chauri Chaura","address2":"","latitude":"26.8518","longitude":"82.8015","accuracy":"3"},{"address3":"Jungle Rasoolpur","state":"Uttar Pradesh","state_code":"36","district":"Gorakhpur","district_code":"188","address1":"Chauri Chaura","address2":"","latitude":"26.8518","longitude":"82.8015","accuracy":"3"},{"address3":"Haraiya","state":"Uttar Pradesh","state_code":"36","district":"Gorakhpur","district_code":"188","address1":"Chauri Chaura","address2":"","latitude":"26.6578","longitude":"83.3614","accuracy":"4"},{"address3":"Brahmpur (Gorakhpur)","state":"Uttar Pradesh","state_code":"36","district":"Gorakhpur","district_code":"188","address1":"Chauri Chaura","address2":"","latitude":"26.8518","longitude":"82.8015","accuracy":"3"},{"address3":"Mithbel","state":"Uttar Pradesh","state_code":"36","district":"Gorakhpur","district_code":"188","address1":"Chauri Chaura","address2":"","latitude":"26.8518","longitude":"82.8015","accuracy":"3"}],"273207":[{"address3":"Pipra Bazar","state":"Uttar Pradesh","state_code":"36","district":"Maharajganj","district_code":"187","address1":"Nichlaul","address2":"","latitude":"27.2139","longitude":"83.7048","accuracy":"4"},{"address3":"Mithaura Bazar","state":"Uttar Pradesh","state_code":"36","district":"Maharajganj","district_code":"187","address1":"Nichaulal","address2":"","latitude":"26.9635","longitude":"83.6202","accuracy":"3"},{"address3":"Mishraulia","state":"Uttar Pradesh","state_code":"36","district":"Maharajganj","district_code":"187","address1":"Nichlaul","address2":"","latitude":"27.2025","longitude":"83.5333","accuracy":"4"},{"address3":"Badhara Mir","state":"Uttar Pradesh","state_code":"36","district":"Maharajganj","district_code":"187","address1":"Mahrajganj","address2":"","latitude":"26.9635","longitude":"83.6202","accuracy":"3"},{"address3":"Bheria","state":"Uttar Pradesh","state_code":"36","district":"Maharajganj","district_code":"187","address1":"NA","address2":"","latitude":"27.2397","longitude":"83.7086","accuracy":"4"},{"address3":"Sonbarsa","state":"Uttar Pradesh","state_code":"36","district":"Maharajganj","district_code":"187","address1":"Nichlaul","address2":"","latitude":"27.1105","longitude":"83.3527","accuracy":"4"},{"address3":"Senduria","state":"Uttar Pradesh","state_code":"36","district":"Maharajganj","district_code":"187","address1":"Mahraganj","address2":"","latitude":"27.2045","longitude":"83.6453","accuracy":"4"},{"address3":"Pachrenawa","state":"Uttar Pradesh","state_code":"36","district":"Maharajganj","district_code":"187","address1":"Mahrajganj","address2":"","latitude":"26.9635","longitude":"83.6202","accuracy":"3"},{"address3":"Gaunaria","state":"Uttar Pradesh","state_code":"36","district":"Maharajganj","district_code":"187","address1":"Nichlaul","address2":"","latitude":"27.2044","longitude":"83.6901","accuracy":"4"},{"address3":"Parsauni","state":"Uttar Pradesh","state_code":"36","district":"Maharajganj","district_code":"187","address1":"Mahrajganj","address2":"","latitude":"27.0046","longitude":"83.3629","accuracy":"4"},{"address3":"Madhubani","state":"Uttar Pradesh","state_code":"36","district":"Maharajganj","district_code":"187","address1":"Nichlaul","address2":"","latitude":"27.2341","longitude":"83.6321","accuracy":"4"},{"address3":"Mujahna Buzurg","state":"Uttar Pradesh","state_code":"36","district":"Maharajganj","district_code":"187","address1":"Mahrajganj","address2":"","latitude":"26.9635","longitude":"83.6202","accuracy":"3"},{"address3":"Jamie Pandit","state":"Uttar Pradesh","state_code":"36","district":"Maharajganj","district_code":"187","address1":"Nichlaul","address2":"","latitude":"26.9635","longitude":"83.6202","accuracy":"3"},{"address3":"Jagdaur","state":"Uttar Pradesh","state_code":"36","district":"Maharajganj","district_code":"187","address1":"Nichlaul","address2":"","latitude":"26.9635","longitude":"83.6202","accuracy":"3"}],"273209":[{"address3":"Sidhauli","state":"Uttar Pradesh","state_code":"36","district":"Gorakhpur","district_code":"188","address1":"Sajhanwa","address2":"","latitude":"26.6884","longitude":"83.1042","accuracy":"4"},{"address3":"Rautapur","state":"Uttar Pradesh","state_code":"36","district":"Gorakhpur","district_code":"188","address1":"NA","address2":"","latitude":"26.6578","longitude":"83.3614","accuracy":"4"},{"address3":"Bharpahi","state":"Uttar Pradesh","state_code":"36","district":"Gorakhpur","district_code":"188","address1":"Sadar","address2":"","latitude":"26.7814","longitude":"83.1287","accuracy":"4"},{"address3":"Randauli","state":"Uttar Pradesh","state_code":"36","district":"Gorakhpur","district_code":"188","address1":"Sahjanwa","address2":"","latitude":"26.6578","longitude":"83.3614","accuracy":"4"},{"address3":"Dumarinivas","state":"Uttar Pradesh","state_code":"36","district":"Gorakhpur","district_code":"188","address1":"Sahajanwa","address2":"","latitude":"26.6051","longitude":"82.8132","accuracy":"3"},{"address3":"Rithuwakhor","state":"Uttar Pradesh","state_code":"36","district":"Gorakhpur","district_code":"188","address1":"Sahjanwa","address2":"","latitude":"26.6051","longitude":"82.8132","accuracy":"3"},{"address3":"Sahajanwa","state":"Uttar Pradesh","state_code":"36","district":"Gorakhpur","district_code":"188","address1":"Gorakhpur Sadar","address2":"","latitude":"26.6051","longitude":"82.8132","accuracy":"3"},{"address3":"Gahanshad","state":"Uttar Pradesh","state_code":"36","district":"Gorakhpur","district_code":"188","address1":"Sahajanwa","address2":"","latitude":"26.6051","longitude":"82.8132","accuracy":"3"},{"address3":"Niwas","state":"Uttar Pradesh","state_code":"36","district":"Gorakhpur","district_code":"188","address1":"Sahjanwa","address2":"","latitude":"26.8805","longitude":"83.1422","accuracy":"4"},{"address3":"Mahaita","state":"Uttar Pradesh","state_code":"36","district":"Gorakhpur","district_code":"188","address1":"Sahjanwa","address2":"","latitude":"26.6051","longitude":"82.8132","accuracy":"3"},{"address3":"Dhuriapar","state":"Uttar Pradesh","state_code":"36","district":"Gorakhpur","district_code":"188","address1":"Sahajanwa","address2":"","latitude":"26.4217","longitude":"83.2457","accuracy":"4"},{"address3":"Lakhanapaar","state":"Uttar Pradesh","state_code":"36","district":"Gorakhpur","district_code":"188","address1":"Sahjanwa","address2":"","latitude":"26.6051","longitude":"82.8132","accuracy":"3"},{"address3":"Ghaghsara","state":"Uttar Pradesh","state_code":"36","district":"Gorakhpur","district_code":"188","address1":"Sahjanwa","address2":"","latitude":"26.8299","longitude":"83.1609","accuracy":"4"},{"address3":"Minwa","state":"Uttar Pradesh","state_code":"36","district":"Gorakhpur","district_code":"188","address1":"Sahjanwa","address2":"","latitude":"26.6051","longitude":"82.8132","accuracy":"3"},{"address3":"Chadrawn","state":"Uttar Pradesh","state_code":"36","district":"Gorakhpur","district_code":"188","address1":"Sahajanwa","address2":"","latitude":"26.6051","longitude":"82.8132","accuracy":"3"},{"address3":"Harpur Budhat","state":"Uttar Pradesh","state_code":"36","district":"Gorakhpur","district_code":"188","address1":"Sahjanwa","address2":"","latitude":"26.6051","longitude":"82.8132","accuracy":"3"},{"address3":"Pali","state":"Uttar Pradesh","state_code":"36","district":"Gorakhpur","district_code":"188","address1":"Sahajanwa","address2":"","latitude":"26.5102","longitude":"83.3464","accuracy":"4"},{"address3":"Parmeswarpur","state":"Uttar Pradesh","state_code":"36","district":"Gorakhpur","district_code":"188","address1":"Sahjanwa","address2":"","latitude":"26.6051","longitude":"82.8132","accuracy":"3"},{"address3":"Bhitirawat","state":"Uttar Pradesh","state_code":"36","district":"Gorakhpur","district_code":"188","address1":"Sahajanwa","address2":"","latitude":"26.6051","longitude":"82.8132","accuracy":"3"},{"address3":"Bariepar","state":"Uttar Pradesh","state_code":"36","district":"Gorakhpur","district_code":"188","address1":"Sadar","address2":"","latitude":"26.6051","longitude":"82.8132","accuracy":"3"},{"address3":"Bhashla","state":"Uttar Pradesh","state_code":"36","district":"Gorakhpur","district_code":"188","address1":"Sadar","address2":"","latitude":"26.6051","longitude":"82.8132","accuracy":"3"},{"address3":"Bharshad","state":"Uttar Pradesh","state_code":"36","district":"Gorakhpur","district_code":"188","address1":"Sahajanwa","address2":"","latitude":"26.6051","longitude":"82.8132","accuracy":"3"},{"address3":"Kodari","state":"Uttar Pradesh","state_code":"36","district":"Gorakhpur","district_code":"188","address1":"Sahjanwa","address2":"","latitude":"26.6578","longitude":"83.3614","accuracy":"4"}],"273211":[{"address3":"Barigaon","state":"Uttar Pradesh","state_code":"36","district":"Gorakhpur","district_code":"188","address1":"NA","address2":"","latitude":"26.5402","longitude":"83.4469","accuracy":"4"},{"address3":"Barayapar","state":"Uttar Pradesh","state_code":"36","district":"Gorakhpur","district_code":"188","address1":"NA","address2":"","latitude":"26.5778","longitude":"83.2555","accuracy":"3"},{"address3":"Dhakhwa Bazar","state":"Uttar Pradesh","state_code":"36","district":"Gorakhpur","district_code":"188","address1":"KHAJANI","address2":"","latitude":"26.5778","longitude":"83.2555","accuracy":"3"},{"address3":"Bheunsa","state":"Uttar Pradesh","state_code":"36","district":"Gorakhpur","district_code":"188","address1":"NA","address2":"","latitude":"26.5778","longitude":"83.2555","accuracy":"3"},{"address3":"Israuli","state":"Uttar Pradesh","state_code":"36","district":"Gorakhpur","district_code":"188","address1":"Khajani","address2":"","latitude":"26.5733","longitude":"83.1932","accuracy":"4"},{"address3":"Karamdeva","state":"Uttar Pradesh","state_code":"36","district":"Gorakhpur","district_code":"188","address1":"NA","address2":"","latitude":"26.5778","longitude":"83.2555","accuracy":"3"},{"address3":"Murdewa","state":"Uttar Pradesh","state_code":"36","district":"Gorakhpur","district_code":"188","address1":"Khajani","address2":"","latitude":"26.62","longitude":"83.1263","accuracy":"4"}],"273212":[{"address3":"Khajni","state":"Uttar Pradesh","state_code":"36","district":"Gorakhpur","district_code":"188","address1":"Khajni","address2":"","latitude":"26.4138","longitude":"83.3992","accuracy":"3"},{"address3":"Hariharpur","state":"Uttar Pradesh","state_code":"36","district":"Gorakhpur","district_code":"188","address1":"Khajni","address2":"","latitude":"26.556","longitude":"83.2435","accuracy":"4"},{"address3":"Bigahi","state":"Uttar Pradesh","state_code":"36","district":"Gorakhpur","district_code":"188","address1":"Khajani","address2":"","latitude":"26.6578","longitude":"83.3614","accuracy":"4"},{"address3":"Jaitpur","state":"Uttar Pradesh","state_code":"36","district":"Gorakhpur","district_code":"188","address1":"Khajani","address2":"","latitude":"26.2811","longitude":"83.5765","accuracy":"4"},{"address3":"Gadar","state":"Uttar Pradesh","state_code":"36","district":"Gorakhpur","district_code":"188","address1":"Sahjanwa","address2":"","latitude":"26.6921","longitude":"83.2295","accuracy":"4"},{"address3":"Chhatai","state":"Uttar Pradesh","state_code":"36","district":"Gorakhpur","district_code":"188","address1":"Khajni","address2":"","latitude":"26.6769","longitude":"83.2542","accuracy":"4"},{"address3":"Bharohiya","state":"Uttar Pradesh","state_code":"36","district":"Gorakhpur","district_code":"188","address1":"Khajani","address2":"","latitude":"26.4138","longitude":"83.3992","accuracy":"3"},{"address3":"Karanpura","state":"Uttar Pradesh","state_code":"36","district":"Gorakhpur","district_code":"188","address1":"Khajani","address2":"","latitude":"26.6611","longitude":"83.1863","accuracy":"4"},{"address3":"Sonbarsa Babu","state":"Uttar Pradesh","state_code":"36","district":"Gorakhpur","district_code":"188","address1":"Khajani","address2":"","latitude":"26.4138","longitude":"83.3992","accuracy":"3"},{"address3":"Jakahi","state":"Uttar Pradesh","state_code":"36","district":"Gorakhpur","district_code":"188","address1":"NA","address2":"","latitude":"26.4138","longitude":"83.3992","accuracy":"3"},{"address3":"Dewrartula","state":"Uttar Pradesh","state_code":"36","district":"Gorakhpur","district_code":"188","address1":"Khajani","address2":"","latitude":"26.4138","longitude":"83.3992","accuracy":"3"},{"address3":"Khajuri","state":"Uttar Pradesh","state_code":"36","district":"Gorakhpur","district_code":"188","address1":"Khajani","address2":"","latitude":"26.4484","longitude":"83.3988","accuracy":"4"},{"address3":"Bhaisa Bazar","state":"Uttar Pradesh","state_code":"36","district":"Gorakhpur","district_code":"188","address1":"Khajani","address2":"","latitude":"26.4138","longitude":"83.3992","accuracy":"3"},{"address3":"Basiakhor","state":"Uttar Pradesh","state_code":"36","district":"Gorakhpur","district_code":"188","address1":"Khajani","address2":"","latitude":"26.6801","longitude":"83.2238","accuracy":"4"},{"address3":"Khajani Tehsil","state":"Uttar Pradesh","state_code":"36","district":"Gorakhpur","district_code":"188","address1":"NA","address2":"","latitude":"26.4138","longitude":"83.3992","accuracy":"3"},{"address3":"Piprouli","state":"Uttar Pradesh","state_code":"36","district":"Gorakhpur","district_code":"188","address1":"Sahajanwa","address2":"","latitude":"26.4138","longitude":"83.3992","accuracy":"3"},{"address3":"Mahuraon","state":"Uttar Pradesh","state_code":"36","district":"Gorakhpur","district_code":"188","address1":"Khajani","address2":"","latitude":"26.6578","longitude":"83.3614","accuracy":"3"},{"address3":"Katai Tikar","state":"Uttar Pradesh","state_code":"36","district":"Gorakhpur","district_code":"188","address1":"NA","address2":"","latitude":"26.6578","longitude":"83.3614","accuracy":"4"},{"address3":"Tenuwa","state":"Uttar Pradesh","state_code":"36","district":"Gorakhpur","district_code":"188","address1":"Khajani","address2":"","latitude":"26.6578","longitude":"83.3614","accuracy":"4"},{"address3":"Madanpura","state":"Uttar Pradesh","state_code":"36","district":"Gorakhpur","district_code":"188","address1":"Khajani","address2":"","latitude":"26.6899","longitude":"83.179","accuracy":"4"},{"address3":"Amtaura","state":"Uttar Pradesh","state_code":"36","district":"Gorakhpur","district_code":"188","address1":"Khajani","address2":"","latitude":"26.7149","longitude":"83.248","accuracy":"4"},{"address3":"Pachauri","state":"Uttar Pradesh","state_code":"36","district":"Gorakhpur","district_code":"188","address1":"Khajani","address2":"","latitude":"26.6625","longitude":"83.1578","accuracy":"4"},{"address3":"Bargahan","state":"Uttar Pradesh","state_code":"36","district":"Gorakhpur","district_code":"188","address1":"Khajani","address2":"","latitude":"26.7402","longitude":"83.2815","accuracy":"4"},{"address3":"Pagar","state":"Uttar Pradesh","state_code":"36","district":"Gorakhpur","district_code":"188","address1":"Khajani","address2":"","latitude":"26.5766","longitude":"83.2557","accuracy":"4"},{"address3":"Semar Dadi","state":"Uttar Pradesh","state_code":"36","district":"Gorakhpur","district_code":"188","address1":"NA","address2":"","latitude":"26.4138","longitude":"83.3992","accuracy":"3"},{"address3":"Bihari Bujurg","state":"Uttar Pradesh","state_code":"36","district":"Gorakhpur","district_code":"188","address1":"Khajani","address2":"","latitude":"26.4138","longitude":"83.3992","accuracy":"3"},{"address3":"Dhobouli","state":"Uttar Pradesh","state_code":"36","district":"Gorakhpur","district_code":"188","address1":"Khajani","address2":"","latitude":"26.4138","longitude":"83.3992","accuracy":"3"},{"address3":"Jhudiya","state":"Uttar Pradesh","state_code":"36","district":"Gorakhpur","district_code":"188","address1":"Khajni","address2":"","latitude":"26.4138","longitude":"83.3992","accuracy":"3"},{"address3":"Rampur Pandey","state":"Uttar Pradesh","state_code":"36","district":"Gorakhpur","district_code":"188","address1":"Khajani","address2":"","latitude":"26.4138","longitude":"83.3992","accuracy":"3"}],"273213":[{"address3":"Sukrauli","state":"Uttar Pradesh","state_code":"36","district":"Gorakhpur","district_code":"188","address1":"NA","address2":"","latitude":"26.4301","longitude":"83.2147","accuracy":"4"},{"address3":"Ashauji Bazar","state":"Uttar Pradesh","state_code":"36","district":"Gorakhpur","district_code":"188","address1":"Khajani","address2":"","latitude":"26.2698","longitude":"83.3225","accuracy":"3"},{"address3":"Brahmasari","state":"Uttar Pradesh","state_code":"36","district":"Gorakhpur","district_code":"188","address1":"NA","address2":"","latitude":"26.2698","longitude":"83.3225","accuracy":"3"},{"address3":"Patakhuli","state":"Uttar Pradesh","state_code":"36","district":"Gorakhpur","district_code":"188","address1":"Khajani","address2":"","latitude":"26.2698","longitude":"83.3225","accuracy":"3"},{"address3":"Alawalpur","state":"Uttar Pradesh","state_code":"36","district":"Gorakhpur","district_code":"188","address1":"NA","address2":"","latitude":"26.3964","longitude":"83.253","accuracy":"4"},{"address3":"Badago","state":"Uttar Pradesh","state_code":"36","district":"Gorakhpur","district_code":"188","address1":"Khajani","address2":"","latitude":"26.2698","longitude":"83.3225","accuracy":"3"},{"address3":"Baripur","state":"Uttar Pradesh","state_code":"36","district":"Gorakhpur","district_code":"188","address1":"NA","address2":"","latitude":"26.5256","longitude":"83.2382","accuracy":"4"},{"address3":"Ahirauli Bujurg","state":"Uttar Pradesh","state_code":"36","district":"Gorakhpur","district_code":"188","address1":"Khajani","address2":"","latitude":"26.2698","longitude":"83.3225","accuracy":"3"},{"address3":"Trilokpur","state":"Uttar Pradesh","state_code":"36","district":"Gorakhpur","district_code":"188","address1":"Khajani","address2":"","latitude":"26.6578","longitude":"83.3614","accuracy":"4"},{"address3":"Deharatikar","state":"Uttar Pradesh","state_code":"36","district":"Gorakhpur","district_code":"188","address1":"Khajani","address2":"","latitude":"26.2698","longitude":"83.3225","accuracy":"3"},{"address3":"Sikriganj","state":"Uttar Pradesh","state_code":"36","district":"Gorakhpur","district_code":"188","address1":"NA","address2":"","latitude":"26.5027","longitude":"83.2027","accuracy":"4"},{"address3":"Baraw","state":"Uttar Pradesh","state_code":"36","district":"Gorakhpur","district_code":"188","address1":"Khajani","address2":"","latitude":"26.2698","longitude":"83.3225","accuracy":"3"}],"273301":[{"address3":"Semra Chandauli","state":"Uttar Pradesh","state_code":"36","district":"Maharajganj","district_code":"187","address1":"Mahrajganj","address2":"","latitude":"26.9596","longitude":"83.6418","accuracy":"3"},{"address3":"Dharmauli","state":"Uttar Pradesh","state_code":"36","district":"Maharajganj","district_code":"187","address1":"NA","address2":"","latitude":"26.9596","longitude":"83.6418","accuracy":"4"},{"address3":"Jaddupipra","state":"Uttar Pradesh","state_code":"36","district":"Maharajganj","district_code":"187","address1":"Mahrajganj","address2":"","latitude":"26.9596","longitude":"83.6418","accuracy":"3"},{"address3":"Bashia Buzurg","state":"Uttar Pradesh","state_code":"36","district":"Maharajganj","district_code":"187","address1":"Mahrajganj","address2":"","latitude":"26.9596","longitude":"83.6418","accuracy":"3"},{"address3":"Lakhima","state":"Uttar Pradesh","state_code":"36","district":"Maharajganj","district_code":"187","address1":"Mahrajganj","address2":"","latitude":"26.9596","longitude":"83.6418","accuracy":"3"},{"address3":"Nebuiya","state":"Uttar Pradesh","state_code":"36","district":"Maharajganj","district_code":"187","address1":"Mahrajganj","address2":"","latitude":"26.9596","longitude":"83.6418","accuracy":"3"},{"address3":"Partawal Bazar","state":"Uttar Pradesh","state_code":"36","district":"Maharajganj","district_code":"187","address1":"Mahrajganj","address2":"","latitude":"26.9596","longitude":"83.6418","accuracy":"3"},{"address3":"Harpurtiwari","state":"Uttar Pradesh","state_code":"36","district":"Maharajganj","district_code":"187","address1":"Mahrajganj","address2":"","latitude":"26.9596","longitude":"83.6418","accuracy":"3"},{"address3":"Dhanaha Naik","state":"Uttar Pradesh","state_code":"36","district":"Gorakhpur","district_code":"188","address1":"Sadar","address2":"","latitude":"26.9596","longitude":"83.6418","accuracy":"3"}],"273302":[{"address3":"Harakpur","state":"Uttar Pradesh","state_code":"36","district":"Maharajganj","district_code":"187","address1":"Maharajang","address2":"","latitude":"27.2025","longitude":"83.5333","accuracy":"4"},{"address3":"Shikarpur","state":"Uttar Pradesh","state_code":"36","district":"Maharajganj","district_code":"187","address1":"Maharjang","address2":"","latitude":"27.1011","longitude":"83.603","accuracy":"4"},{"address3":"Balua","state":"Uttar Pradesh","state_code":"36","district":"Maharajganj","district_code":"187","address1":"Mahrajgang","address2":"","latitude":"27.0836","longitude":"83.4649","accuracy":"4"},{"address3":"Laxmipurshiwala","state":"Uttar Pradesh","state_code":"36","district":"Maharajganj","district_code":"187","address1":"Maharganj","address2":"","latitude":"26.9515","longitude":"83.504","accuracy":"3"},{"address3":"Parsa Gidahi","state":"Uttar Pradesh","state_code":"36","district":"Maharajganj","district_code":"187","address1":"Mahrajganj","address2":"","latitude":"27.1115","longitude":"83.6305","accuracy":"4"},{"address3":"Pachrukhia","state":"Uttar Pradesh","state_code":"36","district":"Maharajganj","district_code":"187","address1":"Mahrajganj","address2":"","latitude":"27.0422","longitude":"83.619","accuracy":"4"},{"address3":"Bhainsi","state":"Uttar Pradesh","state_code":"36","district":"Maharajganj","district_code":"187","address1":"Mahrajganj","address2":"","latitude":"27.0555","longitude":"83.5947","accuracy":"4"},{"address3":"Pakdi Dixit","state":"Uttar Pradesh","state_code":"36","district":"Maharajganj","district_code":"187","address1":"Mahrajganj","address2":"","latitude":"26.9515","longitude":"83.504","accuracy":"3"},{"address3":"Gopala","state":"Uttar Pradesh","state_code":"36","district":"Maharajganj","district_code":"187","address1":"Mahrajganj","address2":"","latitude":"27.1196","longitude":"83.6615","accuracy":"4"},{"address3":"Bhitauli Bazar","state":"Uttar Pradesh","state_code":"36","district":"Maharajganj","district_code":"187","address1":"Marajganj Sadar","address2":"","latitude":"26.9515","longitude":"83.504","accuracy":"3"},{"address3":"Sohrauna Tiwari","state":"Uttar Pradesh","state_code":"36","district":"Maharajganj","district_code":"187","address1":"Maharjang","address2":"","latitude":"26.9515","longitude":"83.504","accuracy":"3"},{"address3":"Belwatikar","state":"Uttar Pradesh","state_code":"36","district":"Maharajganj","district_code":"187","address1":"Mahrajganj","address2":"","latitude":"26.9515","longitude":"83.504","accuracy":"3"},{"address3":"Siswa Raja","state":"Uttar Pradesh","state_code":"36","district":"Maharajganj","district_code":"187","address1":"Maharajganj","address2":"","latitude":"26.9515","longitude":"83.504","accuracy":"3"},{"address3":"Laxmipurdeurwa","state":"Uttar Pradesh","state_code":"36","district":"Maharajganj","district_code":"187","address1":"Maharaganj","address2":"","latitude":"26.9515","longitude":"83.504","accuracy":"3"},{"address3":"Piparpati Tiwari","state":"Uttar Pradesh","state_code":"36","district":"Maharajganj","district_code":"187","address1":"Mahrajganj","address2":"","latitude":"26.9515","longitude":"83.504","accuracy":"3"},{"address3":"Laxmipurektanga","state":"Uttar Pradesh","state_code":"36","district":"Maharajganj","district_code":"187","address1":"Maharaganj","address2":"","latitude":"26.9515","longitude":"83.504","accuracy":"3"},{"address3":"Purena Khandi Chauri","state":"Uttar Pradesh","state_code":"36","district":"Maharajganj","district_code":"187","address1":"Mahrajganj","address2":"","latitude":"26.9515","longitude":"83.504","accuracy":"3"},{"address3":"Tarkulwa Tiwari","state":"Uttar Pradesh","state_code":"36","district":"Maharajganj","district_code":"187","address1":"Mahrajganj","address2":"","latitude":"26.9515","longitude":"83.504","accuracy":"3"}],"273303":[{"address3":"Belwa Khurd","state":"Uttar Pradesh","state_code":"36","district":"Maharajganj","district_code":"187","address1":"Mahrajganj","address2":"","latitude":"27.2458","longitude":"83.3552","accuracy":"4"},{"address3":"Uska","state":"Uttar Pradesh","state_code":"36","district":"Maharajganj","district_code":"187","address1":"Maharajganj","address2":"","latitude":"27.0666","longitude":"83.5186","accuracy":"4"},{"address3":"Katahra","state":"Uttar Pradesh","state_code":"36","district":"Maharajganj","district_code":"187","address1":"Maharajgang","address2":"","latitude":"27.1822","longitude":"83.5073","accuracy":"4"},{"address3":"Mahuawa","state":"Uttar Pradesh","state_code":"36","district":"Maharajganj","district_code":"187","address1":"Mahrajganj","address2":"","latitude":"27.2025","longitude":"83.5333","accuracy":"4"},{"address3":"Nadua Bazar","state":"Uttar Pradesh","state_code":"36","district":"Maharajganj","district_code":"187","address1":"Mahrajganj","address2":"","latitude":"26.9506","longitude":"83.3823","accuracy":"3"},{"address3":"Khajuria","state":"Uttar Pradesh","state_code":"36","district":"Maharajganj","district_code":"187","address1":"Mahrajganj","address2":"","latitude":"27.1127","longitude":"83.3773","accuracy":"4"},{"address3":"Sonara","state":"Uttar Pradesh","state_code":"36","district":"Maharajganj","district_code":"187","address1":"Marajganj","address2":"","latitude":"26.9506","longitude":"83.3823","accuracy":"3"},{"address3":"Panewa Panei","state":"Uttar Pradesh","state_code":"36","district":"Maharajganj","district_code":"187","address1":"Mahrajganj","address2":"","latitude":"27.188","longitude":"83.5846","accuracy":"4"},{"address3":"Belwa Qazi","state":"Uttar Pradesh","state_code":"36","district":"Maharajganj","district_code":"187","address1":"NA","address2":"","latitude":"26.9506","longitude":"83.3823","accuracy":"3"},{"address3":"Karmha","state":"Uttar Pradesh","state_code":"36","district":"Maharajganj","district_code":"187","address1":"Mahrajganj","address2":"","latitude":"27.2025","longitude":"83.5333","accuracy":"4"},{"address3":"Sewareji","state":"Uttar Pradesh","state_code":"36","district":"Maharajganj","district_code":"187","address1":"Marajganj","address2":"","latitude":"26.9506","longitude":"83.3823","accuracy":"3"},{"address3":"Chauk","state":"Uttar Pradesh","state_code":"36","district":"Maharajganj","district_code":"187","address1":"Mahrajganj.","address2":"","latitude":"27.2482","longitude":"83.5743","accuracy":"4"},{"address3":"Darahata","state":"Uttar Pradesh","state_code":"36","district":"Maharajganj","district_code":"187","address1":"Mahrajganj","address2":"","latitude":"26.9506","longitude":"83.3823","accuracy":"3"},{"address3":"Bagapar","state":"Uttar Pradesh","state_code":"36","district":"Maharajganj","district_code":"187","address1":"Mahrajganj","address2":"","latitude":"27.1994","longitude":"83.5191","accuracy":"4"},{"address3":"Dhanewa Dhanai","state":"Uttar Pradesh","state_code":"36","district":"Maharajganj","district_code":"187","address1":"Mahrajganj","address2":"","latitude":"26.9506","longitude":"83.3823","accuracy":"3"},{"address3":"Neta Surhurwa","state":"Uttar Pradesh","state_code":"36","district":"Maharajganj","district_code":"187","address1":"Mahrajganj","address2":"","latitude":"26.9506","longitude":"83.3823","accuracy":"3"},{"address3":"Pakdinauni A","state":"Uttar Pradesh","state_code":"36","district":"Maharajganj","district_code":"187","address1":"Mahrajganj","address2":"","latitude":"26.9506","longitude":"83.3823","accuracy":"3"},{"address3":"Bauliaraja","state":"Uttar Pradesh","state_code":"36","district":"Maharajganj","district_code":"187","address1":"Mahrajganj","address2":"","latitude":"26.9506","longitude":"83.3823","accuracy":"3"},{"address3":"Kotamukund Pur","state":"Uttar Pradesh","state_code":"36","district":"Maharajganj","district_code":"187","address1":"Maharajganj","address2":"","latitude":"26.9506","longitude":"83.3823","accuracy":"3"},{"address3":"Kamhariakala","state":"Uttar Pradesh","state_code":"36","district":"Maharajganj","district_code":"187","address1":"Maharajganj","address2":"","latitude":"26.9506","longitude":"83.3823","accuracy":"3"},{"address3":"Khutha Bazar","state":"Uttar Pradesh","state_code":"36","district":"Maharajganj","district_code":"187","address1":"Mahrajganj","address2":"","latitude":"26.9506","longitude":"83.3823","accuracy":"3"},{"address3":"Chehari","state":"Uttar Pradesh","state_code":"36","district":"Maharajganj","district_code":"187","address1":"Mahrajganj","address2":"","latitude":"26.9506","longitude":"83.3823","accuracy":"3"},{"address3":"Salamat Garh","state":"Uttar Pradesh","state_code":"36","district":"Maharajganj","district_code":"187","address1":"Marajganj","address2":"","latitude":"26.9506","longitude":"83.3823","accuracy":"3"},{"address3":"Rudhaulibhawshak","state":"Uttar Pradesh","state_code":"36","district":"Maharajganj","district_code":"187","address1":"Marajganj","address2":"","latitude":"26.9506","longitude":"83.3823","accuracy":"3"},{"address3":"Baspar Baijauli","state":"Uttar Pradesh","state_code":"36","district":"Maharajganj","district_code":"187","address1":"Mahrajganj","address2":"","latitude":"26.9506","longitude":"83.3823","accuracy":"3"},{"address3":"Maharajganj MDG","state":"Uttar Pradesh","state_code":"36","district":"Maharajganj","district_code":"187","address1":"Maharajganj Sadar","address2":"","latitude":"26.9506","longitude":"83.3823","accuracy":"3"},{"address3":"Collectrate Compound Maharajganj","state":"Uttar Pradesh","state_code":"36","district":"Gorakhpur","district_code":"188","address1":"Maharajganj","address2":"","latitude":"26.9506","longitude":"83.3823","accuracy":"3"}],"273304":[{"address3":"Madanpura","state":"Uttar Pradesh","state_code":"36","district":"Maharajganj","district_code":"187","address1":"Nichlaul","address2":"","latitude":"27.2025","longitude":"83.5333","accuracy":"4"},{"address3":"Nichlaul","state":"Uttar Pradesh","state_code":"36","district":"Maharajganj","district_code":"187","address1":"Nichlaul","address2":"","latitude":"27.3125","longitude":"83.7253","accuracy":"4"},{"address3":"Rengahia","state":"Uttar Pradesh","state_code":"36","district":"Maharajganj","district_code":"187","address1":"Nichlaul","address2":"","latitude":"27.0012","longitude":"83.4521","accuracy":"3"},{"address3":"Bali","state":"Uttar Pradesh","state_code":"36","district":"Maharajganj","district_code":"187","address1":"Nichlaul","address2":"","latitude":"27.2025","longitude":"83.5333","accuracy":"3"},{"address3":"Sekhanli","state":"Uttar Pradesh","state_code":"36","district":"Maharajganj","district_code":"187","address1":"NA","address2":"","latitude":"27.0012","longitude":"83.4521","accuracy":"3"},{"address3":"Baithwalia","state":"Uttar Pradesh","state_code":"36","district":"Maharajganj","district_code":"187","address1":"Nichlaul","address2":"","latitude":"27.0012","longitude":"83.4521","accuracy":"3"},{"address3":"Ledi","state":"Uttar Pradesh","state_code":"36","district":"Maharajganj","district_code":"187","address1":"Nichlaul","address2":"","latitude":"27.0012","longitude":"83.4521","accuracy":"3"},{"address3":"Doma Khas","state":"Uttar Pradesh","state_code":"36","district":"Maharajganj","district_code":"187","address1":"Nichlaul","address2":"","latitude":"27.0012","longitude":"83.4521","accuracy":"3"},{"address3":"Jhulnipur","state":"Uttar Pradesh","state_code":"36","district":"Maharajganj","district_code":"187","address1":"Nichlaul","address2":"","latitude":"27.0012","longitude":"83.4521","accuracy":"3"},{"address3":"Auratar","state":"Uttar Pradesh","state_code":"36","district":"Maharajganj","district_code":"187","address1":"Nichlaul","address2":"","latitude":"27.0012","longitude":"83.4521","accuracy":"3"},{"address3":"Meghwali Kala","state":"Uttar Pradesh","state_code":"36","district":"Maharajganj","district_code":"187","address1":"Nichlaul","address2":"","latitude":"27.0012","longitude":"83.4521","accuracy":"3"}],"273305":[{"address3":"Garaura","state":"Uttar Pradesh","state_code":"36","district":"Maharajganj","district_code":"187","address1":"Nidhlaul","address2":"","latitude":"27.2025","longitude":"83.5333","accuracy":"4"},{"address3":"Dagroopur","state":"Uttar Pradesh","state_code":"36","district":"Maharajganj","district_code":"187","address1":"Nautanwa","address2":"","latitude":"26.6344","longitude":"82.4733","accuracy":"3"},{"address3":"Manikapur","state":"Uttar Pradesh","state_code":"36","district":"Maharajganj","district_code":"187","address1":"Nautanwa","address2":"","latitude":"27.2025","longitude":"83.5333","accuracy":"4"},{"address3":"Devgatti","state":"Uttar Pradesh","state_code":"36","district":"Maharajganj","district_code":"187","address1":"Nautanwa","address2":"","latitude":"26.6344","longitude":"82.4733","accuracy":"3"},{"address3":"Dogahra","state":"Uttar Pradesh","state_code":"36","district":"Maharajganj","district_code":"187","address1":"Nautanwa","address2":"","latitude":"27.2025","longitude":"83.5333","accuracy":"4"},{"address3":"Parsamalik","state":"Uttar Pradesh","state_code":"36","district":"Maharajganj","district_code":"187","address1":"Nautanwa","address2":"","latitude":"26.6344","longitude":"82.4733","accuracy":"3"},{"address3":"Pipra","state":"Uttar Pradesh","state_code":"36","district":"Maharajganj","district_code":"187","address1":"Nautanwa","address2":"","latitude":"26.9142","longitude":"83.5187","accuracy":"4"},{"address3":"Bodna","state":"Uttar Pradesh","state_code":"36","district":"Maharajganj","district_code":"187","address1":"Nautanwa","address2":"","latitude":"26.6344","longitude":"82.4733","accuracy":"3"},{"address3":"Laxmipurkhurd","state":"Uttar Pradesh","state_code":"36","district":"Maharajganj","district_code":"187","address1":"Nachulwa","address2":"","latitude":"26.6344","longitude":"82.4733","accuracy":"3"},{"address3":"Sekhuani","state":"Uttar Pradesh","state_code":"36","district":"Maharajganj","district_code":"187","address1":"Nautanwa","address2":"","latitude":"26.6344","longitude":"82.4733","accuracy":"3"},{"address3":"Shewatari Bzr","state":"Uttar Pradesh","state_code":"36","district":"Maharajganj","district_code":"187","address1":"Nautanwa","address2":"","latitude":"26.6344","longitude":"82.4733","accuracy":"3"},{"address3":"Thuthibari","state":"Uttar Pradesh","state_code":"36","district":"Maharajganj","district_code":"187","address1":"Nichlaul","address2":"","latitude":"26.6344","longitude":"82.4733","accuracy":"3"},{"address3":"Jhingti","state":"Uttar Pradesh","state_code":"36","district":"Maharajganj","district_code":"187","address1":"Nautanwa","address2":"","latitude":"26.6344","longitude":"82.4733","accuracy":"3"}],"273306":[{"address3":"Shyamdeorva","state":"Uttar Pradesh","state_code":"36","district":"Maharajganj","district_code":"187","address1":"Sadar","address2":"","latitude":"26.9322","longitude":"82.9367","accuracy":"3"},{"address3":"Jainpur","state":"Uttar Pradesh","state_code":"36","district":"Gorakhpur","district_code":"188","address1":"Sadar","address2":"","latitude":"26.6578","longitude":"83.3614","accuracy":"4"},{"address3":"Piparpati","state":"Uttar Pradesh","state_code":"36","district":"Gorakhpur","district_code":"188","address1":"Sadar","address2":"","latitude":"26.6578","longitude":"83.3614","accuracy":"4"},{"address3":"Sumergarh","state":"Uttar Pradesh","state_code":"36","district":"Gorakhpur","district_code":"188","address1":"Sadar","address2":"","latitude":"26.6578","longitude":"83.3614","accuracy":"4"},{"address3":"Bhathat","state":"Uttar Pradesh","state_code":"36","district":"Gorakhpur","district_code":"188","address1":"Gorakhpur Sadar","address2":"","latitude":"26.8979","longitude":"83.4884","accuracy":"4"},{"address3":"Samdar Khurd","state":"Uttar Pradesh","state_code":"36","district":"Gorakhpur","district_code":"188","address1":"Sadar","address2":"","latitude":"26.8779","longitude":"83.5223","accuracy":"4"},{"address3":"Chiuthan","state":"Uttar Pradesh","state_code":"36","district":"Gorakhpur","district_code":"188","address1":"Sadar","address2":"","latitude":"26.9322","longitude":"82.9367","accuracy":"3"},{"address3":"Khutahan Khas","state":"Uttar Pradesh","state_code":"36","district":"Gorakhpur","district_code":"188","address1":"Sadar","address2":"","latitude":"26.9322","longitude":"82.9367","accuracy":"3"},{"address3":"Badhara Baraipar","state":"Uttar Pradesh","state_code":"36","district":"Gorakhpur","district_code":"188","address1":"Sadar","address2":"","latitude":"26.9322","longitude":"82.9367","accuracy":"3"},{"address3":"Natwa Jungle","state":"Uttar Pradesh","state_code":"36","district":"Gorakhpur","district_code":"188","address1":"Sadar","address2":"","latitude":"26.9322","longitude":"82.9367","accuracy":"3"},{"address3":"Jungle Dumri No-1","state":"Uttar Pradesh","state_code":"36","district":"Gorakhpur","district_code":"188","address1":"Sadar","address2":"","latitude":"26.9322","longitude":"82.9367","accuracy":"3"},{"address3":"Junjle Dumri No-2","state":"Uttar Pradesh","state_code":"36","district":"Gorakhpur","district_code":"188","address1":"Sadar","address2":"","latitude":"26.9322","longitude":"82.9367","accuracy":"3"}],"273308":[{"address3":"Sonauli","state":"Uttar Pradesh","state_code":"36","district":"Maharajganj","district_code":"187","address1":"Nautanwa","address2":"","latitude":"27.2025","longitude":"83.5333","accuracy":"4"}],"273309":[{"address3":"Koluhi","state":"Uttar Pradesh","state_code":"36","district":"Maharajganj","district_code":"187","address1":"Pharenda","address2":"","latitude":"27.2025","longitude":"83.5333","accuracy":"4"},{"address3":"Kamharia Buzurg","state":"Uttar Pradesh","state_code":"36","district":"Maharajganj","district_code":"187","address1":"Pharenda","address2":"","latitude":"27.2025","longitude":"83.5333","accuracy":"4"}],"273310":[{"address3":"Paniyara","state":"Uttar Pradesh","state_code":"36","district":"Maharajganj","district_code":"187","address1":"Campeirganj","address2":"","latitude":"26.998","longitude":"83.4665","accuracy":"4"}],"273311":[{"address3":"Orwalliya","state":"Uttar Pradesh","state_code":"36","district":"Maharajganj","district_code":"187","address1":"Nichlaul","address2":"","latitude":"26.998","longitude":"83.4665","accuracy":"1"}],"273401":[{"address3":"Kakarakhore","state":"Uttar Pradesh","state_code":"36","district":"Gorakhpur","district_code":"188","address1":"Khajani","address2":"","latitude":"26.4911","longitude":"83.0284","accuracy":"3"},{"address3":"Kusmaul","state":"Uttar Pradesh","state_code":"36","district":"Gorakhpur","district_code":"188","address1":"Bhowapar","address2":"","latitude":"26.6238","longitude":"83.3645","accuracy":"4"},{"address3":"Bhagawanpur","state":"Uttar Pradesh","state_code":"36","district":"Gorakhpur","district_code":"188","address1":"Bhowapar","address2":"","latitude":"26.4911","longitude":"83.0284","accuracy":"3"},{"address3":"Bhiti","state":"Uttar Pradesh","state_code":"36","district":"Gorakhpur","district_code":"188","address1":"Khajani","address2":"","latitude":"26.3414","longitude":"83.3699","accuracy":"4"},{"address3":"Mishraula","state":"Uttar Pradesh","state_code":"36","district":"Gorakhpur","district_code":"188","address1":"Bhowapar","address2":"","latitude":"26.4911","longitude":"83.0284","accuracy":"3"},{"address3":"Pichaura","state":"Uttar Pradesh","state_code":"36","district":"Gorakhpur","district_code":"188","address1":"NA","address2":"","latitude":"26.6578","longitude":"83.3614","accuracy":"4"},{"address3":"Bhaghagarha","state":"Uttar Pradesh","state_code":"36","district":"Gorakhpur","district_code":"188","address1":"Sadar","address2":"","latitude":"26.4911","longitude":"83.0284","accuracy":"3"},{"address3":"Khortha","state":"Uttar Pradesh","state_code":"36","district":"Gorakhpur","district_code":"188","address1":"Bhowapar","address2":"","latitude":"26.4911","longitude":"83.0284","accuracy":"3"},{"address3":"Bhowapar","state":"Uttar Pradesh","state_code":"36","district":"Gorakhpur","district_code":"188","address1":"Shajnwa","address2":"","latitude":"26.4911","longitude":"83.0284","accuracy":"3"},{"address3":"Cheriya","state":"Uttar Pradesh","state_code":"36","district":"Gorakhpur","district_code":"188","address1":"NA","address2":"","latitude":"26.4911","longitude":"83.0284","accuracy":"3"},{"address3":"Jungle Rani Sohas","state":"Uttar Pradesh","state_code":"36","district":"Gorakhpur","district_code":"188","address1":"Sadar","address2":"","latitude":"26.4911","longitude":"83.0284","accuracy":"3"}],"273402":[{"address3":"Tanda","state":"Uttar Pradesh","state_code":"36","district":"Gorakhpur","district_code":"188","address1":"Gola","address2":"","latitude":"26.6578","longitude":"83.3614","accuracy":"4"},{"address3":"Bhrauli","state":"Uttar Pradesh","state_code":"36","district":"Gorakhpur","district_code":"188","address1":"Gola","address2":"","latitude":"26.2324","longitude":"83.4633","accuracy":"3"},{"address3":"Bhatpar","state":"Uttar Pradesh","state_code":"36","district":"Gorakhpur","district_code":"188","address1":"Gola","address2":"","latitude":"26.3344","longitude":"83.486","accuracy":"4"},{"address3":"Balwa Dakhli","state":"Uttar Pradesh","state_code":"36","district":"Gorakhpur","district_code":"188","address1":"NA","address2":"","latitude":"26.2324","longitude":"83.4633","accuracy":"3"},{"address3":"Tiha Mohammadpur","state":"Uttar Pradesh","state_code":"36","district":"Gorakhpur","district_code":"188","address1":"Gola","address2":"","latitude":"26.2324","longitude":"83.4633","accuracy":"3"},{"address3":"Bimuti","state":"Uttar Pradesh","state_code":"36","district":"Gorakhpur","district_code":"188","address1":"Gola","address2":"","latitude":"26.2324","longitude":"83.4633","accuracy":"3"},{"address3":"Parsia","state":"Uttar Pradesh","state_code":"36","district":"Gorakhpur","district_code":"188","address1":"Gola","address2":"","latitude":"26.3236","longitude":"83.4184","accuracy":"4"},{"address3":"Farsand","state":"Uttar Pradesh","state_code":"36","district":"Gorakhpur","district_code":"188","address1":"Gola","address2":"","latitude":"26.2324","longitude":"83.4633","accuracy":"3"},{"address3":"Sukahlpuri","state":"Uttar Pradesh","state_code":"36","district":"Gorakhpur","district_code":"188","address1":"Gola","address2":"","latitude":"26.2324","longitude":"83.4633","accuracy":"3"},{"address3":"Newaijpar","state":"Uttar Pradesh","state_code":"36","district":"Gorakhpur","district_code":"188","address1":"Gola","address2":"","latitude":"26.2324","longitude":"83.4633","accuracy":"3"},{"address3":"Barpar","state":"Uttar Pradesh","state_code":"36","district":"Gorakhpur","district_code":"188","address1":"Gola","address2":"","latitude":"26.3164","longitude":"83.4351","accuracy":"4"},{"address3":"Madria","state":"Uttar Pradesh","state_code":"36","district":"Gorakhpur","district_code":"188","address1":"Gola","address2":"","latitude":"26.2324","longitude":"83.4633","accuracy":"3"},{"address3":"Barhalganj","state":"Uttar Pradesh","state_code":"36","district":"Gorakhpur","district_code":"188","address1":"Gola","address2":"","latitude":"26.2822","longitude":"83.5064","accuracy":"4"},{"address3":"Khandaesari","state":"Uttar Pradesh","state_code":"36","district":"Gorakhpur","district_code":"188","address1":"Gola","address2":"","latitude":"26.2324","longitude":"83.4633","accuracy":"3"},{"address3":"Pirahani","state":"Uttar Pradesh","state_code":"36","district":"Gorakhpur","district_code":"188","address1":"Gola","address2":"","latitude":"26.2324","longitude":"83.4633","accuracy":"3"},{"address3":"Nibidubey","state":"Uttar Pradesh","state_code":"36","district":"Gorakhpur","district_code":"188","address1":"Gola","address2":"","latitude":"26.2324","longitude":"83.4633","accuracy":"3"},{"address3":"Patna","state":"Uttar Pradesh","state_code":"36","district":"Gorakhpur","district_code":"188","address1":"Gola","address2":"","latitude":"26.3042","longitude":"83.653","accuracy":"4"},{"address3":"Baria Khas","state":"Uttar Pradesh","state_code":"36","district":"Gorakhpur","district_code":"188","address1":"Gola","address2":"","latitude":"26.2324","longitude":"83.4633","accuracy":"3"},{"address3":"Mahupar","state":"Uttar Pradesh","state_code":"36","district":"Gorakhpur","district_code":"188","address1":"Gola","address2":"","latitude":"26.5115","longitude":"83.4308","accuracy":"4"},{"address3":"Sidhagaur","state":"Uttar Pradesh","state_code":"36","district":"Gorakhpur","district_code":"188","address1":"Gola","address2":"","latitude":"26.2324","longitude":"83.4633","accuracy":"3"},{"address3":"Derwa","state":"Uttar Pradesh","state_code":"36","district":"Gorakhpur","district_code":"188","address1":"Gola","address2":"","latitude":"26.2877","longitude":"83.5901","accuracy":"4"}],"273403":[{"address3":"Sahupar","state":"Uttar Pradesh","state_code":"36","district":"Gorakhpur","district_code":"188","address1":"NA","address2":"","latitude":"26.6578","longitude":"83.3614","accuracy":"4"},