{"283101":[{"address3":"Rampur","state":"Uttar Pradesh","state_code":"36","district":"Agra","district_code":"146","address1":"NA","address2":"","latitude":"26.9761","longitude":"78.2307","accuracy":"4"},{"address3":"Daultabad","state":"Uttar Pradesh","state_code":"36","district":"Agra","district_code":"146","address1":"NA","address2":"","latitude":"27.0377","longitude":"78.0795","accuracy":"3"},{"address3":"Kathwari","state":"Uttar Pradesh","state_code":"36","district":"Agra","district_code":"146","address1":"NA","address2":"","latitude":"27.2016","longitude":"77.8217","accuracy":"4"},{"address3":"Hansela","state":"Uttar Pradesh","state_code":"36","district":"Agra","district_code":"146","address1":"NA","address2":"","latitude":"27.2215","longitude":"77.6572","accuracy":"4"},{"address3":"Biara","state":"Uttar Pradesh","state_code":"36","district":"Agra","district_code":"146","address1":"NA","address2":"","latitude":"27.1713","longitude":"77.8047","accuracy":"3"},{"address3":"Sandhan","state":"Uttar Pradesh","state_code":"36","district":"Agra","district_code":"146","address1":"NA","address2":"","latitude":"27.2278","longitude":"77.7083","accuracy":"4"},{"address3":"Raibha","state":"Uttar Pradesh","state_code":"36","district":"Agra","district_code":"146","address1":"Kiraoli","address2":"","latitude":"27.1796","longitude":"77.8048","accuracy":"4"},{"address3":"Achnera","state":"Uttar Pradesh","state_code":"36","district":"Agra","district_code":"146","address1":"NA","address2":"","latitude":"27.1783","longitude":"77.7567","accuracy":"4"},{"address3":"Arrua Khas","state":"Uttar Pradesh","state_code":"36","district":"Agra","district_code":"146","address1":"NA","address2":"","latitude":"27.1713","longitude":"77.8047","accuracy":"3"},{"address3":"Turkia","state":"Uttar Pradesh","state_code":"36","district":"Agra","district_code":"146","address1":"Kiraoli","address2":"","latitude":"27.1831","longitude":"77.6891","accuracy":"4"},{"address3":"Achnera Mandi","state":"Uttar Pradesh","state_code":"36","district":"Agra","district_code":"146","address1":"NA","address2":"","latitude":"27.1713","longitude":"77.8047","accuracy":"3"},{"address3":"Baharawati","state":"Uttar Pradesh","state_code":"36","district":"Agra","district_code":"146","address1":"NA","address2":"","latitude":"27.1713","longitude":"77.8047","accuracy":"3"},{"address3":"Kachaura","state":"Uttar Pradesh","state_code":"36","district":"Agra","district_code":"146","address1":"Kiraoli","address2":"","latitude":"27.2022","longitude":"77.7689","accuracy":"4"},{"address3":"Mangrol Jat","state":"Uttar Pradesh","state_code":"36","district":"Agra","district_code":"146","address1":"Kiraoli","address2":"","latitude":"27.1713","longitude":"77.8047","accuracy":"3"}],"283102":[{"address3":"Jarua Katra","state":"Uttar Pradesh","state_code":"36","district":"Agra","district_code":"146","address1":"Agra","address2":"","latitude":"27.0463","longitude":"77.9844","accuracy":"3"},{"address3":"Barara","state":"Uttar Pradesh","state_code":"36","district":"Agra","district_code":"146","address1":"NA","address2":"","latitude":"27.1333","longitude":"77.9007","accuracy":"4"},{"address3":"Kheria","state":"Uttar Pradesh","state_code":"36","district":"Agra","district_code":"146","address1":"NA","address2":"","latitude":"26.8741","longitude":"78.412","accuracy":"4"},{"address3":"Ujarai","state":"Uttar Pradesh","state_code":"36","district":"Agra","district_code":"146","address1":"Kiraoli","address2":"","latitude":"27.0463","longitude":"77.9844","accuracy":"3"},{"address3":"Dhanoli","state":"Uttar Pradesh","state_code":"36","district":"Agra","district_code":"146","address1":"Kiraoli","address2":"","latitude":"27.0463","longitude":"77.9844","accuracy":"3"},{"address3":"Malpura","state":"Uttar Pradesh","state_code":"36","district":"Agra","district_code":"146","address1":"Agra","address2":"","latitude":"27.124","longitude":"77.9303","accuracy":"4"},{"address3":"Berichahar","state":"Uttar Pradesh","state_code":"36","district":"Agra","district_code":"146","address1":"Kheragarh","address2":"","latitude":"27.0463","longitude":"77.8767","accuracy":"4"},{"address3":"Murkia","state":"Uttar Pradesh","state_code":"36","district":"Agra","district_code":"146","address1":"Kheragarh","address2":"","latitude":"27.0463","longitude":"77.9844","accuracy":"3"},{"address3":"Akhabai","state":"Uttar Pradesh","state_code":"36","district":"Agra","district_code":"146","address1":"Kiraoli","address2":"","latitude":"27.0463","longitude":"77.9844","accuracy":"3"},{"address3":"Bisalpur","state":"Uttar Pradesh","state_code":"36","district":"Agra","district_code":"146","address1":"Kheragarh","address2":"","latitude":"27.0346","longitude":"77.906","accuracy":"4"},{"address3":"Mankeda","state":"Uttar Pradesh","state_code":"36","district":"Agra","district_code":"146","address1":"Agra","address2":"","latitude":"27.0463","longitude":"77.9844","accuracy":"3"},{"address3":"Akola (Agra)","state":"Uttar Pradesh","state_code":"36","district":"Agra","district_code":"146","address1":"NA","address2":"","latitude":"27.0655","longitude":"77.8808","accuracy":"4"},{"address3":"Garsani","state":"Uttar Pradesh","state_code":"36","district":"Agra","district_code":"146","address1":"NA","address2":"","latitude":"27.0463","longitude":"77.9844","accuracy":"3"}],"283103":[{"address3":"Baghai","state":"Uttar Pradesh","state_code":"36","district":"Firozabad","district_code":"147","address1":"NA","address2":"","latitude":"27.2037","longitude":"78.2805","accuracy":"4"},{"address3":"Jarakhi","state":"Uttar Pradesh","state_code":"36","district":"Firozabad","district_code":"147","address1":"Firozabad","address2":"","latitude":"27.2055","longitude":"78.318","accuracy":"3"},{"address3":"Hirangaon","state":"Uttar Pradesh","state_code":"36","district":"Firozabad","district_code":"147","address1":"Firozabad","address2":"","latitude":"27.1776","longitude":"78.3305","accuracy":"4"},{"address3":"Usayani","state":"Uttar Pradesh","state_code":"36","district":"Firozabad","district_code":"147","address1":"Firozabad","address2":"","latitude":"27.2055","longitude":"78.318","accuracy":"3"},{"address3":"Husainpur","state":"Uttar Pradesh","state_code":"36","district":"Firozabad","district_code":"147","address1":"Firozabad","address2":"","latitude":"27.2353","longitude":"78.3431","accuracy":"4"},{"address3":"Oef  Firozabad","state":"Uttar Pradesh","state_code":"36","district":"Firozabad","district_code":"147","address1":"Firozabad","address2":"","latitude":"27.2055","longitude":"78.318","accuracy":"3"},{"address3":"Kurri Kuppa","state":"Uttar Pradesh","state_code":"36","district":"Firozabad","district_code":"147","address1":"Firozabad","address2":"","latitude":"27.2055","longitude":"78.318","accuracy":"3"},{"address3":"Kotaki","state":"Uttar Pradesh","state_code":"36","district":"Firozabad","district_code":"147","address1":"Firozabad","address2":"","latitude":"27.2055","longitude":"78.318","accuracy":"3"}],"283104":[{"address3":"Bateshwar","state":"Uttar Pradesh","state_code":"36","district":"Agra","district_code":"146","address1":"NA","address2":"","latitude":"26.8631","longitude":"79.3003","accuracy":"3"},{"address3":"Maloni","state":"Uttar Pradesh","state_code":"36","district":"Agra","district_code":"146","address1":"NA","address2":"","latitude":"27.0377","longitude":"78.0795","accuracy":"4"},{"address3":"Chaurangahar","state":"Uttar Pradesh","state_code":"36","district":"Agra","district_code":"146","address1":"NA","address2":"","latitude":"26.8631","longitude":"79.3003","accuracy":"3"},{"address3":"Pura Guman Singh","state":"Uttar Pradesh","state_code":"36","district":"Agra","district_code":"146","address1":"Bah","address2":"","latitude":"27.0377","longitude":"78.0795","accuracy":"4"},{"address3":"Gonseli","state":"Uttar Pradesh","state_code":"36","district":"Agra","district_code":"146","address1":"NA","address2":"","latitude":"26.8631","longitude":"79.3003","accuracy":"3"},{"address3":"Chamraua","state":"Uttar Pradesh","state_code":"36","district":"Agra","district_code":"146","address1":"NA","address2":"","latitude":"27.0377","longitude":"78.0795","accuracy":"4"},{"address3":"Pura Tinnet","state":"Uttar Pradesh","state_code":"36","district":"Agra","district_code":"146","address1":"NA","address2":"","latitude":"26.8631","longitude":"79.3003","accuracy":"3"},{"address3":"Vikrampur","state":"Uttar Pradesh","state_code":"36","district":"Agra","district_code":"146","address1":"NA","address2":"","latitude":"27.0319","longitude":"78.4014","accuracy":"4"},{"address3":"Sidhaoli","state":"Uttar Pradesh","state_code":"36","district":"Agra","district_code":"146","address1":"NA","address2":"","latitude":"26.8631","longitude":"79.3003","accuracy":"3"},{"address3":"Bamrauli","state":"Uttar Pradesh","state_code":"36","district":"Agra","district_code":"146","address1":"NA","address2":"","latitude":"27.0621","longitude":"78.3061","accuracy":"4"},{"address3":"Rudhmuli","state":"Uttar Pradesh","state_code":"36","district":"Agra","district_code":"146","address1":"NA","address2":"","latitude":"26.8631","longitude":"79.3003","accuracy":"3"},{"address3":"Kamtari","state":"Uttar Pradesh","state_code":"36","district":"Agra","district_code":"146","address1":"NA","address2":"","latitude":"26.8675","longitude":"78.6614","accuracy":"4"},{"address3":"Kwari","state":"Uttar Pradesh","state_code":"36","district":"Agra","district_code":"146","address1":"NA","address2":"","latitude":"26.8631","longitude":"79.3003","accuracy":"3"},{"address3":"Bah","state":"Uttar Pradesh","state_code":"36","district":"Agra","district_code":"146","address1":"NA","address2":"","latitude":"26.8691","longitude":"78.5939","accuracy":"4"},{"address3":"Jarar","state":"Uttar Pradesh","state_code":"36","district":"Agra","district_code":"146","address1":"NA","address2":"","latitude":"26.8698","longitude":"78.5692","accuracy":"4"}],"283105":[{"address3":"Kukthala","state":"Uttar Pradesh","state_code":"36","district":"Agra","district_code":"146","address1":"NA","address2":"","latitude":"27.1931","longitude":"77.8372","accuracy":"4"},{"address3":"Shahi","state":"Uttar Pradesh","state_code":"36","district":"Agra","district_code":"146","address1":"Agra","address2":"","latitude":"27.0377","longitude":"78.0795","accuracy":"4"},{"address3":"Sahata","state":"Uttar Pradesh","state_code":"36","district":"Agra","district_code":"146","address1":"NA","address2":"","latitude":"27.6236","longitude":"78.119","accuracy":"3"},{"address3":"Sunari","state":"Uttar Pradesh","state_code":"36","district":"Agra","district_code":"146","address1":"Agra","address2":"","latitude":"27.1913","longitude":"77.918","accuracy":"4"},{"address3":"Vayu Vihar","state":"Uttar Pradesh","state_code":"36","district":"Agra","district_code":"146","address1":"NA","address2":"","latitude":"27.6236","longitude":"78.119","accuracy":"3"},{"address3":"Sahara","state":"Uttar Pradesh","state_code":"36","district":"Agra","district_code":"146","address1":"Agra","address2":"","latitude":"27.1517","longitude":"77.8918","accuracy":"4"},{"address3":"Karahara","state":"Uttar Pradesh","state_code":"36","district":"Agra","district_code":"146","address1":"NA","address2":"","latitude":"27.0377","longitude":"78.0795","accuracy":"3"},{"address3":"Pathauli","state":"Uttar Pradesh","state_code":"36","district":"Agra","district_code":"146","address1":"Agra","address2":"","latitude":"27.0377","longitude":"78.0795","accuracy":"4"},{"address3":"Atoos","state":"Uttar Pradesh","state_code":"36","district":"Agra","district_code":"146","address1":"NA","address2":"","latitude":"27.6236","longitude":"78.119","accuracy":"3"},{"address3":"B.V. Bichpuri","state":"Uttar Pradesh","state_code":"36","district":"Agra","district_code":"146","address1":"NA","address2":"","latitude":"27.6236","longitude":"78.119","accuracy":"3"},{"address3":"Kalwari","state":"Uttar Pradesh","state_code":"36","district":"Agra","district_code":"146","address1":"Agra","address2":"","latitude":"27.179","longitude":"77.944","accuracy":"4"},{"address3":"Daoli","state":"Uttar Pradesh","state_code":"36","district":"Agra","district_code":"146","address1":"NA","address2":"","latitude":"27.6236","longitude":"78.119","accuracy":"3"},{"address3":"Midhakur","state":"Uttar Pradesh","state_code":"36","district":"Agra","district_code":"146","address1":"Agra","address2":"","latitude":"27.6236","longitude":"78.119","accuracy":"3"}],"283110":[{"address3":"Fatehapursikari","state":"Uttar Pradesh","state_code":"36","district":"Agra","district_code":"146","address1":"Kiraoli","address2":"","latitude":"26.9099","longitude":"77.8589","accuracy":"3"},{"address3":"Dulhara","state":"Uttar Pradesh","state_code":"36","district":"Agra","district_code":"146","address1":"Kiraoli","address2":"","latitude":"27.0479","longitude":"77.66","accuracy":"4"},{"address3":"Doora","state":"Uttar Pradesh","state_code":"36","district":"Agra","district_code":"146","address1":"Kiraoli","address2":"","latitude":"27.0377","longitude":"78.0795","accuracy":"4"},{"address3":"Baseri Kazi","state":"Uttar Pradesh","state_code":"36","district":"Agra","district_code":"146","address1":"Kiraoli","address2":"","latitude":"26.9099","longitude":"77.8589","accuracy":"3"},{"address3":"Arhera","state":"Uttar Pradesh","state_code":"36","district":"Agra","district_code":"146","address1":"Kiraoli","address2":"","latitude":"27.0752","longitude":"77.7463","accuracy":"4"},{"address3":"Churiyari","state":"Uttar Pradesh","state_code":"36","district":"Agra","district_code":"146","address1":"Kiraoli","address2":"","latitude":"26.9099","longitude":"77.8589","accuracy":"3"},{"address3":"Undera","state":"Uttar Pradesh","state_code":"36","district":"Agra","district_code":"146","address1":"Kiraoli","address2":"","latitude":"27.0694","longitude":"77.7031","accuracy":"4"},{"address3":"Jajau","state":"Uttar Pradesh","state_code":"36","district":"Agra","district_code":"146","address1":"Kiraoli","address2":"","latitude":"26.9233","longitude":"77.9168","accuracy":"4"},{"address3":"Nagar","state":"Uttar Pradesh","state_code":"36","district":"Agra","district_code":"146","address1":"Kiraoli","address2":"","latitude":"27.1865","longitude":"77.8629","accuracy":"4"},{"address3":"Gurki Mandi","state":"Uttar Pradesh","state_code":"36","district":"Agra","district_code":"146","address1":"NA","address2":"","latitude":"26.9099","longitude":"77.8589","accuracy":"3"},{"address3":"Bharkol","state":"Uttar Pradesh","state_code":"36","district":"Agra","district_code":"146","address1":"Kiraoli","address2":"","latitude":"27.124","longitude":"77.706","accuracy":"4"},{"address3":"Aulanda","state":"Uttar Pradesh","state_code":"36","district":"Agra","district_code":"146","address1":"NA","address2":"","latitude":"26.9099","longitude":"77.8589","accuracy":"3"},{"address3":"Dabar","state":"Uttar Pradesh","state_code":"36","district":"Agra","district_code":"146","address1":"NA","address2":"","latitude":"27.0479","longitude":"77.5923","accuracy":"4"},{"address3":"Mehdau","state":"Uttar Pradesh","state_code":"36","district":"Agra","district_code":"146","address1":"NA","address2":"","latitude":"26.9099","longitude":"77.8589","accuracy":"3"},{"address3":"Patsal","state":"Uttar Pradesh","state_code":"36","district":"Agra","district_code":"146","address1":"Kiraoli","address2":"","latitude":"27.1023","longitude":"77.615","accuracy":"4"},{"address3":"Jajauli","state":"Uttar Pradesh","state_code":"36","district":"Agra","district_code":"146","address1":"Kiraoli","address2":"","latitude":"27.0792","longitude":"77.5753","accuracy":"4"},{"address3":"Mandi Mirja Khan","state":"Uttar Pradesh","state_code":"36","district":"Agra","district_code":"146","address1":"Kiraoli","address2":"","latitude":"26.9099","longitude":"77.8589","accuracy":"3"},{"address3":"Korai","state":"Uttar Pradesh","state_code":"36","district":"Agra","district_code":"146","address1":"NA","address2":"","latitude":"27.0377","longitude":"78.0795","accuracy":"3"},{"address3":"Samara","state":"Uttar Pradesh","state_code":"36","district":"Agra","district_code":"146","address1":"Kiraoli","address2":"","latitude":"26.9099","longitude":"77.8589","accuracy":"3"},{"address3":"Sikraondha","state":"Uttar Pradesh","state_code":"36","district":"Agra","district_code":"146","address1":"Kiraoli","address2":"","latitude":"26.9099","longitude":"77.8589","accuracy":"3"},{"address3":"Chauma Shahpur","state":"Uttar Pradesh","state_code":"36","district":"Agra","district_code":"146","address1":"Kiraoli","address2":"","latitude":"26.9099","longitude":"77.8589","accuracy":"3"}],"283111":[{"address3":"Rasoolpur","state":"Uttar Pradesh","state_code":"36","district":"Agra","district_code":"146","address1":"Fatehabad","address2":"","latitude":"27.0512","longitude":"78.2467","accuracy":"3"},{"address3":"Tiwaha","state":"Uttar Pradesh","state_code":"36","district":"Agra","district_code":"146","address1":"Fatehabad","address2":"","latitude":"27.0241","longitude":"78.4059","accuracy":"4"},{"address3":"Kaulara Kalan","state":"Uttar Pradesh","state_code":"36","district":"Agra","district_code":"146","address1":"NA","address2":"","latitude":"27.0822","longitude":"78.1645","accuracy":"4"},{"address3":"Wazitpur","state":"Uttar Pradesh","state_code":"36","district":"Agra","district_code":"146","address1":"Fatehabad","address2":"","latitude":"27.0512","longitude":"78.2467","accuracy":"3"},{"address3":"Nagar Chand","state":"Uttar Pradesh","state_code":"36","district":"Agra","district_code":"146","address1":"Bah","address2":"","latitude":"27.0512","longitude":"78.2467","accuracy":"3"},{"address3":"Nagaria","state":"Uttar Pradesh","state_code":"36","district":"Agra","district_code":"146","address1":"Fatehabad","address2":"","latitude":"27.143","longitude":"77.7135","accuracy":"4"},{"address3":"Bijhamai","state":"Uttar Pradesh","state_code":"36","district":"Agra","district_code":"146","address1":"Bah","address2":"","latitude":"27.1347","longitude":"78.1415","accuracy":"4"},{"address3":"Bhalokhara","state":"Uttar Pradesh","state_code":"36","district":"Agra","district_code":"146","address1":"Bah","address2":"","latitude":"27.0428","longitude":"78.3483","accuracy":"4"},{"address3":"Mehra Chudhary","state":"Uttar Pradesh","state_code":"36","district":"Agra","district_code":"146","address1":"Fatehabad","address2":"","latitude":"27.0512","longitude":"78.2467","accuracy":"3"},{"address3":"Tanora Noorpur","state":"Uttar Pradesh","state_code":"36","district":"Agra","district_code":"146","address1":"Fatehabad","address2":"","latitude":"27.0512","longitude":"78.2467","accuracy":"3"},{"address3":"Dauki","state":"Uttar Pradesh","state_code":"36","district":"Agra","district_code":"146","address1":"Bah","address2":"","latitude":"27.081","longitude":"78.1899","accuracy":"4"},{"address3":"Fatehabad (Agra)","state":"Uttar Pradesh","state_code":"36","district":"Agra","district_code":"146","address1":"Fatehabad","address2":"","latitude":"27.0512","longitude":"78.2467","accuracy":"3"},{"address3":"Nibohara","state":"Uttar Pradesh","state_code":"36","district":"Agra","district_code":"146","address1":"Fatehabad","address2":"","latitude":"27.0512","longitude":"78.2467","accuracy":"3"},{"address3":"Barauli Gujar","state":"Uttar Pradesh","state_code":"36","district":"Agra","district_code":"146","address1":"NA","address2":"","latitude":"27.1488","longitude":"78.1902","accuracy":"4"},{"address3":"Arnota","state":"Uttar Pradesh","state_code":"36","district":"Agra","district_code":"146","address1":"Bah","address2":"","latitude":"26.9571","longitude":"78.3695","accuracy":"4"},{"address3":"Gubroth","state":"Uttar Pradesh","state_code":"36","district":"Agra","district_code":"146","address1":"NA","address2":"","latitude":"27.0512","longitude":"78.2467","accuracy":"3"},{"address3":"Bihari","state":"Uttar Pradesh","state_code":"36","district":"Agra","district_code":"146","address1":"Bah","address2":"","latitude":"26.9589","longitude":"78.3068","accuracy":"4"},{"address3":"Fatehabad Bazaar","state":"Uttar Pradesh","state_code":"36","district":"Agra","district_code":"146","address1":"Bah","address2":"","latitude":"27.0512","longitude":"78.2467","accuracy":"3"},{"address3":"Jarari","state":"Uttar Pradesh","state_code":"36","district":"Agra","district_code":"146","address1":"NA","address2":"","latitude":"27.0111","longitude":"78.3616","accuracy":"4"},{"address3":"Palia","state":"Uttar Pradesh","state_code":"36","district":"Agra","district_code":"146","address1":"Fatehabad","address2":"","latitude":"27.0406","longitude":"78.2751","accuracy":"4"},{"address3":"Kundaul","state":"Uttar Pradesh","state_code":"36","district":"Agra","district_code":"146","address1":"Bah","address2":"","latitude":"27.1077","longitude":"78.1581","accuracy":"4"},{"address3":"Khander","state":"Uttar Pradesh","state_code":"36","district":"Agra","district_code":"146","address1":"NA","address2":"","latitude":"27.0512","longitude":"78.2467","accuracy":"3"},{"address3":"Tarauli Gujar","state":"Uttar Pradesh","state_code":"36","district":"Agra","district_code":"146","address1":"NA","address2":"","latitude":"26.9835","longitude":"78.4211","accuracy":"4"},{"address3":"Jagrajpur","state":"Uttar Pradesh","state_code":"36","district":"Agra","district_code":"146","address1":"NA","address2":"","latitude":"27.0305","longitude":"78.2593","accuracy":"4"},{"address3":"Sikrara","state":"Uttar Pradesh","state_code":"36","district":"Agra","district_code":"146","address1":"Fatehabad","address2":"","latitude":"27.0623","longitude":"78.2498","accuracy":"4"},{"address3":"Maharajpur","state":"Uttar Pradesh","state_code":"36","district":"Agra","district_code":"146","address1":"Bah","address2":"","latitude":"27.01","longitude":"78.2408","accuracy":"4"},{"address3":"Swara","state":"Uttar Pradesh","state_code":"36","district":"Agra","district_code":"146","address1":"Fatehabad","address2":"","latitude":"27.0516","longitude":"78.3982","accuracy":"4"}],"283112":[{"address3":"Rahlai","state":"Uttar Pradesh","state_code":"36","district":"Agra","district_code":"146","address1":"NA","address2":"","latitude":"26.9334","longitude":"78.1598","accuracy":"3"},{"address3":"Iradat Nagar","state":"Uttar Pradesh","state_code":"36","district":"Agra","district_code":"146","address1":"NA","address2":"","latitude":"26.9334","longitude":"78.1598","accuracy":"3"},{"address3":"Puseta","state":"Uttar Pradesh","state_code":"36","district":"Agra","district_code":"146","address1":"NA","address2":"","latitude":"26.9334","longitude":"78.1598","accuracy":"3"},{"address3":"Nagla Patam","state":"Uttar Pradesh","state_code":"36","district":"Agra","district_code":"146","address1":"Fetehabad","address2":"","latitude":"27.0118","longitude":"78.0474","accuracy":"4"},{"address3":"Mihawa","state":"Uttar Pradesh","state_code":"36","district":"Agra","district_code":"146","address1":"Kheragarh","address2":"","latitude":"26.9334","longitude":"78.1598","accuracy":"3"},{"address3":"Birthala","state":"Uttar Pradesh","state_code":"36","district":"Agra","district_code":"146","address1":"NA","address2":"","latitude":"26.9142","longitude":"78.0199","accuracy":"4"},{"address3":"Mahab","state":"Uttar Pradesh","state_code":"36","district":"Agra","district_code":"146","address1":"Kheragarh","address2":"","latitude":"26.9334","longitude":"78.1598","accuracy":"3"},{"address3":"Kheria","state":"Uttar Pradesh","state_code":"36","district":"Agra","district_code":"146","address1":"Kheragarh","address2":"","latitude":"26.8741","longitude":"78.412","accuracy":"4"},{"address3":"Darki","state":"Uttar Pradesh","state_code":"36","district":"Agra","district_code":"146","address1":"NA","address2":"","latitude":"26.9334","longitude":"78.1598","accuracy":"3"},{"address3":"Bikapur Tap Kharga","state":"Uttar Pradesh","state_code":"36","district":"Agra","district_code":"146","address1":"Kheragarh","address2":"","latitude":"26.9334","longitude":"78.1598","accuracy":"3"}],"283113":[{"address3":"Pharera","state":"Uttar Pradesh","state_code":"36","district":"Agra","district_code":"146","address1":"Bah","address2":"","latitude":"26.8912","longitude":"78.531","accuracy":"4"},{"address3":"Rajora","state":"Uttar Pradesh","state_code":"36","district":"Agra","district_code":"146","address1":"Bah","address2":"","latitude":"26.882","longitude":"78.5069","accuracy":"3"},{"address3":"Holipura","state":"Uttar Pradesh","state_code":"36","district":"Agra","district_code":"146","address1":"Bah","address2":"","latitude":"26.9046","longitude":"78.5173","accuracy":"4"},{"address3":"Ratoti","state":"Uttar Pradesh","state_code":"36","district":"Agra","district_code":"146","address1":"Bah","address2":"","latitude":"26.882","longitude":"78.5069","accuracy":"3"},{"address3":"Bhadrauli","state":"Uttar Pradesh","state_code":"36","district":"Agra","district_code":"146","address1":"Agra","address2":"","latitude":"26.8988","longitude":"78.4728","accuracy":"4"},{"address3":"Pura Kanhera","state":"Uttar Pradesh","state_code":"36","district":"Agra","district_code":"146","address1":"Bah","address2":"","latitude":"26.882","longitude":"78.5069","accuracy":"3"},{"address3":"Bichola","state":"Uttar Pradesh","state_code":"36","district":"Agra","district_code":"146","address1":"Bah","address2":"","latitude":"26.8334","longitude":"78.5065","accuracy":"4"},{"address3":"Pidhora","state":"Uttar Pradesh","state_code":"36","district":"Agra","district_code":"146","address1":"Bah","address2":"","latitude":"26.882","longitude":"78.5069","accuracy":"3"},{"address3":"Bitholi","state":"Uttar Pradesh","state_code":"36","district":"Agra","district_code":"146","address1":"Bah","address2":"","latitude":"26.882","longitude":"78.5069","accuracy":"3"}],"283114":[{"address3":"Richhpura","state":"Uttar Pradesh","state_code":"36","district":"Agra","district_code":"146","address1":"Bah","address2":"","latitude":"27.0377","longitude":"78.0795","accuracy":"4"},{"address3":"Naugawan","state":"Uttar Pradesh","state_code":"36","district":"Agra","district_code":"146","address1":"Bah","address2":"","latitude":"26.8803","longitude":"78.7702","accuracy":"4"},{"address3":"Sanjeti","state":"Uttar Pradesh","state_code":"36","district":"Agra","district_code":"146","address1":"Bah","address2":"","latitude":"27.0377","longitude":"78.0795","accuracy":"4"},{"address3":"Chitra Hat","state":"Uttar Pradesh","state_code":"36","district":"Agra","district_code":"146","address1":"Bah","address2":"","latitude":"26.8465","longitude":"78.77","accuracy":"4"},{"address3":"Parna","state":"Uttar Pradesh","state_code":"36","district":"Agra","district_code":"146","address1":"Bah","address2":"","latitude":"26.8853","longitude":"78.7407","accuracy":"4"},{"address3":"Khilawali","state":"Uttar Pradesh","state_code":"36","district":"Agra","district_code":"146","address1":"Bah","address2":"","latitude":"26.9182","longitude":"78.7974","accuracy":"3"},{"address3":"Nadgawan","state":"Uttar Pradesh","state_code":"36","district":"Agra","district_code":"146","address1":"Bah","address2":"","latitude":"27.0377","longitude":"78.0795","accuracy":"4"},{"address3":"Mau","state":"Uttar Pradesh","state_code":"36","district":"Agra","district_code":"146","address1":"Bah","address2":"","latitude":"26.8014","longitude":"78.7455","accuracy":"4"},{"address3":"Garhwar","state":"Uttar Pradesh","state_code":"36","district":"Agra","district_code":"146","address1":"Bah","address2":"","latitude":"26.8868","longitude":"78.6882","accuracy":"4"},{"address3":"Shahpur Brahman","state":"Uttar Pradesh","state_code":"36","district":"Agra","district_code":"146","address1":"Bah","address2":"","latitude":"26.9182","longitude":"78.7974","accuracy":"3"},{"address3":"Kukapur","state":"Uttar Pradesh","state_code":"36","district":"Agra","district_code":"146","address1":"Bah","address2":"","latitude":"26.8156","longitude":"78.7793","accuracy":"4"},{"address3":"Jaitpur (Agra)","state":"Uttar Pradesh","state_code":"36","district":"Agra","district_code":"146","address1":"NA","address2":"","latitude":"26.9182","longitude":"78.7974","accuracy":"3"},{"address3":"Kachora Ghat","state":"Uttar Pradesh","state_code":"36","district":"Agra","district_code":"146","address1":"Bah","address2":"","latitude":"26.9182","longitude":"78.7974","accuracy":"3"},{"address3":"Shiv Nagar","state":"Uttar Pradesh","state_code":"36","district":"Agra","district_code":"146","address1":"Bah","address2":"","latitude":"26.9182","longitude":"78.7974","accuracy":"3"},{"address3":"Shiaupura","state":"Uttar Pradesh","state_code":"36","district":"Agra","district_code":"146","address1":"Bah","address2":"","latitude":"26.9182","longitude":"78.7974","accuracy":"3"}],"283115":[{"address3":"Bamnai Kalan","state":"Uttar Pradesh","state_code":"36","district":"Agra","district_code":"146","address1":"NA","address2":"","latitude":"26.9684","longitude":"77.6969","accuracy":"3"},{"address3":"Tnatpur","state":"Uttar Pradesh","state_code":"36","district":"Agra","district_code":"146","address1":"Kheragarh","address2":"","latitude":"26.9684","longitude":"77.6969","accuracy":"3"},{"address3":"Dehgawan","state":"Uttar Pradesh","state_code":"36","district":"Agra","district_code":"146","address1":"NA","address2":"","latitude":"27.0377","longitude":"78.0795","accuracy":"4"},{"address3":"Richoba","state":"Uttar Pradesh","state_code":"36","district":"Agra","district_code":"146","address1":"NA","address2":"","latitude":"26.9684","longitude":"77.6969","accuracy":"3"},{"address3":"Dhanina","state":"Uttar Pradesh","state_code":"36","district":"Agra","district_code":"146","address1":"NA","address2":"","latitude":"26.8367","longitude":"77.5647","accuracy":"4"},{"address3":"Soni Khera","state":"Uttar Pradesh","state_code":"36","district":"Agra","district_code":"146","address1":"NA","address2":"","latitude":"26.9684","longitude":"77.6969","accuracy":"3"},{"address3":"Jagner","state":"Uttar Pradesh","state_code":"36","district":"Agra","district_code":"146","address1":"NA","address2":"","latitude":"26.8064","longitude":"77.472","accuracy":"4"},{"address3":"Singaich","state":"Uttar Pradesh","state_code":"36","district":"Agra","district_code":"146","address1":"Kheragarh","address2":"","latitude":"26.9684","longitude":"77.6969","accuracy":"3"},{"address3":"Basai Jagner","state":"Uttar Pradesh","state_code":"36","district":"Agra","district_code":"146","address1":"Keragarh","address2":"","latitude":"26.8064","longitude":"77.472","accuracy":"4"},{"address3":"Noni","state":"Uttar Pradesh","state_code":"36","district":"Agra","district_code":"146","address1":"NA","address2":"","latitude":"26.8992","longitude":"77.6711","accuracy":"4"},{"address3":"Bhara","state":"Uttar Pradesh","state_code":"36","district":"Agra","district_code":"146","address1":"Kheragarh","address2":"","latitude":"26.8476","longitude":"77.5433","accuracy":"4"}],"283119":[{"address3":"Kagrol","state":"Uttar Pradesh","state_code":"36","district":"Agra","district_code":"146","address1":"Kheragah","address2":"","latitude":"26.5141","longitude":"78.2984","accuracy":"3"},{"address3":"Barwar","state":"Uttar Pradesh","state_code":"36","district":"Agra","district_code":"146","address1":"Kheragarh","address2":"","latitude":"27.0377","longitude":"78.0795","accuracy":"4"},{"address3":"Cheet","state":"Uttar Pradesh","state_code":"36","district":"Agra","district_code":"146","address1":"NA","address2":"","latitude":"26.5141","longitude":"78.2984","accuracy":"3"},{"address3":"Garh Mukha","state":"Uttar Pradesh","state_code":"36","district":"Agra","district_code":"146","address1":"Kheragarh","address2":"","latitude":"27.0263","longitude":"77.8667","accuracy":"4"},{"address3":"Waha","state":"Uttar Pradesh","state_code":"36","district":"Agra","district_code":"146","address1":"Kiraoli","address2":"","latitude":"26.5141","longitude":"78.2984","accuracy":"3"},{"address3":"Digrauta","state":"Uttar Pradesh","state_code":"36","district":"Agra","district_code":"146","address1":"NA","address2":"","latitude":"27.0101","longitude":"77.8903","accuracy":"4"},{"address3":"Sarendi","state":"Uttar Pradesh","state_code":"36","district":"Agra","district_code":"146","address1":"NA","address2":"","latitude":"26.5141","longitude":"78.2984","accuracy":"3"},{"address3":"Sarendha","state":"Uttar Pradesh","state_code":"36","district":"Agra","district_code":"146","address1":"NA","address2":"","latitude":"26.5141","longitude":"78.2984","accuracy":"3"}],"283121":[{"address3":"Bhakar","state":"Uttar Pradesh","state_code":"36","district":"Agra","district_code":"146","address1":"NA","address2":"","latitude":"26.9597","longitude":"77.8586","accuracy":"4"},{"address3":"Kheragarh","state":"Uttar Pradesh","state_code":"36","district":"Agra","district_code":"146","address1":"NA","address2":"","latitude":"26.9597","longitude":"77.8586","accuracy":"3"},{"address3":"Bhilawali","state":"Uttar Pradesh","state_code":"36","district":"Agra","district_code":"146","address1":"NA","address2":"","latitude":"26.9597","longitude":"77.8586","accuracy":"3"},{"address3":"Nagla Dulhe Khan","state":"Uttar Pradesh","state_code":"36","district":"Agra","district_code":"146","address1":"NA","address2":"","latitude":"26.9597","longitude":"77.8586","accuracy":"3"},{"address3":"Rasoolpur","state":"Uttar Pradesh","state_code":"36","district":"Agra","district_code":"146","address1":"NA","address2":"","latitude":"26.9597","longitude":"77.8586","accuracy":"3"}],"283122":[{"address3":"Mahuar","state":"Uttar Pradesh","state_code":"36","district":"Agra","district_code":"146","address1":"NA","address2":"","latitude":"27.0377","longitude":"78.0795","accuracy":"3"},{"address3":"Rojholi","state":"Uttar Pradesh","state_code":"36","district":"Agra","district_code":"146","address1":"Kiraoli","address2":"","latitude":"27.1276","longitude":"77.9188","accuracy":"3"},{"address3":"Deoretha","state":"Uttar Pradesh","state_code":"36","district":"Agra","district_code":"146","address1":"Agra","address2":"","latitude":"27.172","longitude":"77.9591","accuracy":"4"},{"address3":"Puramana","state":"Uttar Pradesh","state_code":"36","district":"Agra","district_code":"146","address1":"NA","address2":"","latitude":"27.1276","longitude":"77.9188","accuracy":"3"},{"address3":"Jaingara","state":"Uttar Pradesh","state_code":"36","district":"Agra","district_code":"146","address1":"Kiraoli","address2":"","latitude":"27.1276","longitude":"77.9188","accuracy":"3"},{"address3":"Salemabad","state":"Uttar Pradesh","state_code":"36","district":"Agra","district_code":"146","address1":"NA","address2":"","latitude":"27.0732","longitude":"78.012","accuracy":"4"},{"address3":"Beman","state":"Uttar Pradesh","state_code":"36","district":"Agra","district_code":"146","address1":"NA","address2":"","latitude":"27.1276","longitude":"77.9188","accuracy":"3"},{"address3":"Kiraoli","state":"Uttar Pradesh","state_code":"36","district":"Agra","district_code":"146","address1":"NA","address2":"","latitude":"27.1377","longitude":"77.7852","accuracy":"4"},{"address3":"Nahchani","state":"Uttar Pradesh","state_code":"36","district":"Agra","district_code":"146","address1":"Kiraoli","address2":"","latitude":"27.1276","longitude":"77.9188","accuracy":"3"},{"address3":"Baseri Chahar","state":"Uttar Pradesh","state_code":"36","district":"Agra","district_code":"146","address1":"NA","address2":"","latitude":"27.1276","longitude":"77.9188","accuracy":"3"}],"283123":[{"address3":"Umretha","state":"Uttar Pradesh","state_code":"36","district":"Agra","district_code":"146","address1":"Bah","address2":"","latitude":"26.7925","longitude":"78.6064","accuracy":"3"},{"address3":"Reha","state":"Uttar Pradesh","state_code":"36","district":"Agra","district_code":"146","address1":"Bah","address2":"","latitude":"27.0377","longitude":"78.0795","accuracy":"4"},{"address3":"Tasond","state":"Uttar Pradesh","state_code":"36","district":"Agra","district_code":"146","address1":"Bah","address2":"","latitude":"26.7925","longitude":"78.6064","accuracy":"3"},{"address3":"Karkoli","state":"Uttar Pradesh","state_code":"36","district":"Agra","district_code":"146","address1":"Bah","address2":"","latitude":"27.0377","longitude":"78.0795","accuracy":"3"},{"address3":"Biprawali","state":"Uttar Pradesh","state_code":"36","district":"Agra","district_code":"146","address1":"Bah","address2":"","latitude":"26.7925","longitude":"78.6064","accuracy":"3"},{"address3":"Pinahat","state":"Uttar Pradesh","state_code":"36","district":"Agra","district_code":"146","address1":"NA","address2":"","latitude":"26.8849","longitude":"78.3765","accuracy":"4"},{"address3":"Barenda","state":"Uttar Pradesh","state_code":"36","district":"Agra","district_code":"146","address1":"Bah","address2":"","latitude":"26.8504","longitude":"78.2651","accuracy":"4"},{"address3":"Basoni","state":"Uttar Pradesh","state_code":"36","district":"Agra","district_code":"146","address1":"Bah","address2":"","latitude":"26.8372","longitude":"78.4621","accuracy":"4"},{"address3":"Kukthari","state":"Uttar Pradesh","state_code":"36","district":"Agra","district_code":"146","address1":"Bah","address2":"","latitude":"26.8904","longitude":"78.4315","accuracy":"4"},{"address3":"Manikpura","state":"Uttar Pradesh","state_code":"36","district":"Agra","district_code":"146","address1":"Bah","address2":"","latitude":"27.0377","longitude":"78.0795","accuracy":"4"},{"address3":"Sabora","state":"Uttar Pradesh","state_code":"36","district":"Agra","district_code":"146","address1":"Bah","address2":"","latitude":"26.9318","longitude":"78.3636","accuracy":"4"},{"address3":"Gajaura","state":"Uttar Pradesh","state_code":"36","district":"Agra","district_code":"146","address1":"Bah","address2":"","latitude":"26.9104","longitude":"78.4493","accuracy":"4"}],"283124":[{"address3":"Rithori","state":"Uttar Pradesh","state_code":"36","district":"Agra","district_code":"146","address1":"NA","address2":"","latitude":"26.9858","longitude":"77.9036","accuracy":"4"},{"address3":"Garshan","state":"Uttar Pradesh","state_code":"36","district":"Agra","district_code":"146","address1":"NA","address2":"","latitude":"26.9675","longitude":"77.9392","accuracy":"3"},{"address3":"Nadeem","state":"Uttar Pradesh","state_code":"36","district":"Agra","district_code":"146","address1":"NA","address2":"","latitude":"26.9675","longitude":"77.9392","accuracy":"3"},{"address3":"Tehra","state":"Uttar Pradesh","state_code":"36","district":"Agra","district_code":"146","address1":"NA","address2":"","latitude":"26.9987","longitude":"77.964","accuracy":"4"},{"address3":"Dankasha","state":"Uttar Pradesh","state_code":"36","district":"Agra","district_code":"146","address1":"NA","address2":"","latitude":"26.9675","longitude":"77.9392","accuracy":"3"},{"address3":"Ladhu Khera","state":"Uttar Pradesh","state_code":"36","district":"Agra","district_code":"146","address1":"NA","address2":"","latitude":"26.9675","longitude":"77.9392","accuracy":"3"},{"address3":"Birharu","state":"Uttar Pradesh","state_code":"36","district":"Agra","district_code":"146","address1":"NA","address2":"","latitude":"26.9675","longitude":"77.9392","accuracy":"3"},{"address3":"Hironda","state":"Uttar Pradesh","state_code":"36","district":"Agra","district_code":"146","address1":"NA","address2":"","latitude":"26.9175","longitude":"77.9619","accuracy":"4"},{"address3":"Ayela","state":"Uttar Pradesh","state_code":"36","district":"Agra","district_code":"146","address1":"NA","address2":"","latitude":"26.9675","longitude":"77.9392","accuracy":"3"},{"address3":"Jonai","state":"Uttar Pradesh","state_code":"36","district":"Agra","district_code":"146","address1":"NA","address2":"","latitude":"27.0261","longitude":"77.942","accuracy":"4"},{"address3":"Jajau","state":"Uttar Pradesh","state_code":"36","district":"Agra","district_code":"146","address1":"NA","address2":"","latitude":"26.9233","longitude":"77.9168","accuracy":"4"},{"address3":"Saiyan","state":"Uttar Pradesh","state_code":"36","district":"Agra","district_code":"146","address1":"NA","address2":"","latitude":"26.9433","longitude":"77.942","accuracy":"4"},{"address3":"Birai","state":"Uttar Pradesh","state_code":"36","district":"Agra","district_code":"146","address1":"NA","address2":"","latitude":"26.9779","longitude":"77.9441","accuracy":"4"}],"283125":[{"address3":"Lakhurani","state":"Uttar Pradesh","state_code":"36","district":"Agra","district_code":"146","address1":"Fatehabad","address2":"","latitude":"27.016","longitude":"78.0858","accuracy":"4"},{"address3":"Samsabad","state":"Uttar Pradesh","state_code":"36","district":"Agra","district_code":"146","address1":"NA","address2":"","latitude":"27.0377","longitude":"78.0795","accuracy":"3"},{"address3":"Pentikhera","state":"Uttar Pradesh","state_code":"36","district":"Agra","district_code":"146","address1":"NA","address2":"","latitude":"27.0564","longitude":"78.0946","accuracy":"3"},{"address3":"Therai","state":"Uttar Pradesh","state_code":"36","district":"Agra","district_code":"146","address1":"Fatehabad","address2":"","latitude":"27.0565","longitude":"78.0597","accuracy":"4"},{"address3":"Phool Pur","state":"Uttar Pradesh","state_code":"36","district":"Agra","district_code":"146","address1":"NA","address2":"","latitude":"27.0564","longitude":"78.0946","accuracy":"3"},{"address3":"Shyamo","state":"Uttar Pradesh","state_code":"36","district":"Agra","district_code":"146","address1":"Agra","address2":"","latitude":"27.1028","longitude":"78.0857","accuracy":"4"},{"address3":"Shahpur Toola","state":"Uttar Pradesh","state_code":"36","district":"Agra","district_code":"146","address1":"NA","address2":"","latitude":"27.0564","longitude":"78.0946","accuracy":"3"},{"address3":"Lahra","state":"Uttar Pradesh","state_code":"36","district":"Agra","district_code":"146","address1":"Fatehabad","address2":"","latitude":"27.0244","longitude":"78.0674","accuracy":"4"},{"address3":"Garhi Lal Kalan","state":"Uttar Pradesh","state_code":"36","district":"Agra","district_code":"146","address1":"NA","address2":"","latitude":"27.0564","longitude":"78.0946","accuracy":"3"},{"address3":"Digner","state":"Uttar Pradesh","state_code":"36","district":"Agra","district_code":"146","address1":"Agra","address2":"","latitude":"27.0752","longitude":"78.0901","accuracy":"4"},{"address3":"Thana Shankar Dwari","state":"Uttar Pradesh","state_code":"36","district":"Agra","district_code":"146","address1":"Fatehabad","address2":"","latitude":"27.0564","longitude":"78.0946","accuracy":"3"},{"address3":"Chitaura","state":"Uttar Pradesh","state_code":"36","district":"Agra","district_code":"146","address1":"Fatehabad","address2":"","latitude":"27.0427","longitude":"78.1458","accuracy":"4"},{"address3":"Dhim Shree","state":"Uttar Pradesh","state_code":"36","district":"Agra","district_code":"146","address1":"Fatehabad","address2":"","latitude":"27.0564","longitude":"78.0946","accuracy":"3"},{"address3":"Barobara Khurd","state":"Uttar Pradesh","state_code":"36","district":"Agra","district_code":"146","address1":"NA","address2":"","latitude":"27.0113","longitude":"78.1646","accuracy":"4"},{"address3":"Dhanaula Kalan","state":"Uttar Pradesh","state_code":"36","district":"Agra","district_code":"146","address1":"Fatahabad","address2":"","latitude":"27.0564","longitude":"78.0946","accuracy":"3"},{"address3":"Barauli Ahir","state":"Uttar Pradesh","state_code":"36","district":"Agra","district_code":"146","address1":"NA","address2":"","latitude":"27.1225","longitude":"78.0576","accuracy":"4"},{"address3":"Gutila","state":"Uttar Pradesh","state_code":"36","district":"Agra","district_code":"146","address1":"Agra","address2":"","latitude":"27.0564","longitude":"78.0946","accuracy":"3"},{"address3":"H.N.Khera","state":"Uttar Pradesh","state_code":"36","district":"Agra","district_code":"146","address1":"NA","address2":"","latitude":"27.0564","longitude":"78.0946","accuracy":"3"}],"283126":[{"address3":"Malupur","state":"Uttar Pradesh","state_code":"36","district":"Agra","district_code":"146","address1":"Etmadpur","address2":"","latitude":"27.0377","longitude":"78.0795","accuracy":"4"},{"address3":"Kanjauli","state":"Uttar Pradesh","state_code":"36","district":"Agra","district_code":"146","address1":"NA","address2":"","latitude":"27.0377","longitude":"78.0795","accuracy":"3"},{"address3":"Hasanpur","state":"Uttar Pradesh","state_code":"36","district":"Agra","district_code":"146","address1":"Etmadpur","address2":"","latitude":"27.2871","longitude":"78.0689","accuracy":"4"},{"address3":"Sarai","state":"Uttar Pradesh","state_code":"36","district":"Agra","district_code":"146","address1":"Etmadpur","address2":"","latitude":"27.1527","longitude":"78.043","accuracy":"4"},{"address3":"Baman","state":"Uttar Pradesh","state_code":"36","district":"Agra","district_code":"146","address1":"NA","address2":"","latitude":"27.3442","longitude":"78.0856","accuracy":"4"},{"address3":"Khandauli","state":"Uttar Pradesh","state_code":"36","district":"Agra","district_code":"146","address1":"NA","address2":"","latitude":"27.3126","longitude":"78.0289","accuracy":"4"},{"address3":"Semera","state":"Uttar Pradesh","state_code":"36","district":"Agra","district_code":"146","address1":"Etmadpur","address2":"","latitude":"27.2544","longitude":"78.2309","accuracy":"3"},{"address3":"Pent Khera","state":"Uttar Pradesh","state_code":"36","district":"Agra","district_code":"146","address1":"Etmadpur","address2":"","latitude":"27.2544","longitude":"78.2309","accuracy":"3"},{"address3":"Uncha","state":"Uttar Pradesh","state_code":"36","district":"Agra","district_code":"146","address1":"Etmadpur","address2":"","latitude":"27.3039","longitude":"78.092","accuracy":"4"},{"address3":"Poiya Tarrakpur","state":"Uttar Pradesh","state_code":"36","district":"Agra","district_code":"146","address1":"Etdmadpur","address2":"","latitude":"27.2544","longitude":"78.2309","accuracy":"3"},{"address3":"Basona","state":"Uttar Pradesh","state_code":"36","district":"Agra","district_code":"146","address1":"NA","address2":"","latitude":"27.2544","longitude":"78.2309","accuracy":"3"}],"283130":[{"address3":"Kadipur","state":"Uttar Pradesh","state_code":"36","district":"Firozabad","district_code":"147","address1":"Jasarana","address2":"","latitude":"27.1806","longitude":"78.5399","accuracy":"4"},{"address3":"Nagla Kanchan","state":"Uttar Pradesh","state_code":"36","district":"Firozabad","district_code":"147","address1":"Jasarana","address2":"","latitude":"27.1806","longitude":"78.5399","accuracy":"4"},{"address3":"Usneedha","state":"Uttar Pradesh","state_code":"36","district":"Firozabad","district_code":"147","address1":"Jasrana","address2":"","latitude":"27.3269","longitude":"79.3119","accuracy":"3"},{"address3":"Parham","state":"Uttar Pradesh","state_code":"36","district":"Firozabad","district_code":"147","address1":"Jasrana","address2":"","latitude":"27.3188","longitude":"78.6654","accuracy":"4"},{"address3":"Kheria Patikara","state":"Uttar Pradesh","state_code":"36","district":"Firozabad","district_code":"147","address1":"Jasarana","address2":"","latitude":"27.3269","longitude":"79.3119","accuracy":"3"},{"address3":"Kharit","state":"Uttar Pradesh","state_code":"36","district":"Firozabad","district_code":"147","address1":"Jasarana","address2":"","latitude":"27.3705","longitude":"78.7011","accuracy":"4"},{"address3":"Nagla Dheer","state":"Uttar Pradesh","state_code":"36","district":"Firozabad","district_code":"147","address1":"Jasarana","address2":"","latitude":"27.3269","longitude":"79.3119","accuracy":"3"},{"address3":"Bara Gaon","state":"Uttar Pradesh","state_code":"36","district":"Firozabad","district_code":"147","address1":"Jasarana","address2":"","latitude":"27.3269","longitude":"79.3119","accuracy":"3"}],"283135":[{"address3":"Dhatari","state":"Uttar Pradesh","state_code":"36","district":"Firozabad","district_code":"147","address1":"Shikohabad","address2":"","latitude":"27.1806","longitude":"78.5399","accuracy":"3"},{"address3":"Urmura","state":"Uttar Pradesh","state_code":"36","district":"Firozabad","district_code":"147","address1":"Shikohabad","address2":"","latitude":"27.1382","longitude":"78.6075","accuracy":"3"},{"address3":"Thanumai","state":"Uttar Pradesh","state_code":"36","district":"Firozabad","district_code":"147","address1":"Shikohabad","address2":"","latitude":"27.1766","longitude":"78.5966","accuracy":"4"},{"address3":"Bara Bazar Shikohabad","state":"Uttar Pradesh","state_code":"36","district":"Firozabad","district_code":"147","address1":"Shikohabad","address2":"","latitude":"27.1382","longitude":"78.6075","accuracy":"3"},{"address3":"Dakhinara","state":"Uttar Pradesh","state_code":"36","district":"Firozabad","district_code":"147","address1":"Shikohabad","address2":"","latitude":"27.1384","longitude":"78.5919","accuracy":"4"},{"address3":"Mandai","state":"Uttar Pradesh","state_code":"36","district":"Firozabad","district_code":"147","address1":"Shikohabad","address2":"","latitude":"27.13","longitude":"78.655","accuracy":"4"},{"address3":"Shikohabad","state":"Uttar Pradesh","state_code":"36","district":"Firozabad","district_code":"147","address1":"Shikohabad","address2":"","latitude":"27.108","longitude":"78.5866","accuracy":"4"}],"283136":[{"address3":"Patti","state":"Uttar Pradesh","state_code":"36","district":"Firozabad","district_code":"147","address1":"Jasrana","address2":"","latitude":"27.2528","longitude":"78.5986","accuracy":"4"},{"address3":"Bahat","state":"Uttar Pradesh","state_code":"36","district":"Firozabad","district_code":"147","address1":"Jasrana","address2":"","latitude":"27.2668","longitude":"78.5822","accuracy":"4"},{"address3":"Akbarpur Kutukpur","state":"Uttar Pradesh","state_code":"36","district":"Firozabad","district_code":"147","address1":"Jasrana","address2":"","latitude":"27.3084","longitude":"78.6499","accuracy":"3"},{"address3":"Jhapara","state":"Uttar Pradesh","state_code":"36","district":"Firozabad","district_code":"147","address1":"Jasrana","address2":"","latitude":"27.2636","longitude":"78.6469","accuracy":"4"},{"address3":"Kushiyari","state":"Uttar Pradesh","state_code":"36","district":"Firozabad","district_code":"147","address1":"Jasrana","address2":"","latitude":"27.3084","longitude":"78.6499","accuracy":"3"},{"address3":"Milawali","state":"Uttar Pradesh","state_code":"36","district":"Firozabad","district_code":"147","address1":"Jasrana","address2":"","latitude":"27.1806","longitude":"78.5399","accuracy":"4"},{"address3":"Kaurara Bujurga","state":"Uttar Pradesh","state_code":"36","district":"Firozabad","district_code":"147","address1":"Jasrana","address2":"","latitude":"27.3084","longitude":"78.6499","accuracy":"3"},{"address3":"Salempur","state":"Uttar Pradesh","state_code":"36","district":"Firozabad","district_code":"147","address1":"Jasrana","address2":"","latitude":"27.2218","longitude":"78.6728","accuracy":"4"},{"address3":"Banbara","state":"Uttar Pradesh","state_code":"36","district":"Firozabad","district_code":"147","address1":"Jasrana","address2":"","latitude":"27.3084","longitude":"78.6499","accuracy":"3"},{"address3":"Jasrana","state":"Uttar Pradesh","state_code":"36","district":"Firozabad","district_code":"147","address1":"Jasrana","address2":"","latitude":"27.2359","longitude":"78.6524","accuracy":"4"}],"283141":[{"address3":"Madhoganj","state":"Uttar Pradesh","state_code":"36","district":"Firozabad","district_code":"147","address1":"Shikohabad","address2":"","latitude":"27.1806","longitude":"78.5399","accuracy":"4"},{"address3":"Gurha","state":"Uttar Pradesh","state_code":"36","district":"Firozabad","district_code":"147","address1":"Shikohabad","address2":"","latitude":"26.9874","longitude":"78.6196","accuracy":"4"},{"address3":"Ghaghau","state":"Uttar Pradesh","state_code":"36","district":"Firozabad","district_code":"147","address1":"Shikohabad","address2":"","latitude":"27.2474","longitude":"78.6111","accuracy":"4"},{"address3":"Asua","state":"Uttar Pradesh","state_code":"36","district":"Firozabad","district_code":"147","address1":"Shikohabad","address2":"","latitude":"27.0802","longitude":"78.6065","accuracy":"4"},{"address3":"Nagla Bajdar","state":"Uttar Pradesh","state_code":"36","district":"Firozabad","district_code":"147","address1":"Shikohabad","address2":"","latitude":"27.0659","longitude":"78.8448","accuracy":"3"},{"address3":"Nasirpur","state":"Uttar Pradesh","state_code":"36","district":"Firozabad","district_code":"147","address1":"Shikohabad","address2":"","latitude":"26.9917","longitude":"78.5807","accuracy":"4"},{"address3":"Shikohabad RS","state":"Uttar Pradesh","state_code":"36","district":"Firozabad","district_code":"147","address1":"Shikohabad","address2":"","latitude":"27.0659","longitude":"78.8448","accuracy":"3"},{"address3":"Harha","state":"Uttar Pradesh","state_code":"36","district":"Firozabad","district_code":"147","address1":"Shikohabad","address2":"","latitude":"26.9704","longitude":"78.5103","accuracy":"4"},{"address3":"Keshari","state":"Uttar Pradesh","state_code":"36","district":"Firozabad","district_code":"147","address1":"Shikohabad","address2":"","latitude":"27.0659","longitude":"78.8448","accuracy":"3"},{"address3":"I L C Shikohabad","state":"Uttar Pradesh","state_code":"36","district":"Firozabad","district_code":"147","address1":"Shikohabad","address2":"","latitude":"27.0659","longitude":"78.8448","accuracy":"3"}],"283142":[{"address3":"Kharaua","state":"Uttar Pradesh","state_code":"36","district":"Firozabad","district_code":"147","address1":"Jasarana","address2":"","latitude":"27.1806","longitude":"78.5399","accuracy":"4"},{"address3":"Bachhela Bachheli","state":"Uttar Pradesh","state_code":"36","district":"Firozabad","district_code":"147","address1":"Jasarana","address2":"","latitude":"27.1792","longitude":"78.8002","accuracy":"3"},{"address3":"Ruchan  Manikpur","state":"Uttar Pradesh","state_code":"36","district":"Firozabad","district_code":"147","address1":"Jasarana","address2":"","latitude":"26.9542","longitude":"78.7295","accuracy":"4"},{"address3":"Urawar--hastref","state":"Uttar Pradesh","state_code":"36","district":"Firozabad","district_code":"147","address1":"Jasarana","address2":"","latitude":"27.1792","longitude":"78.8002","accuracy":"3"},{"address3":"Bhadan","state":"Uttar Pradesh","state_code":"36","district":"Firozabad","district_code":"147","address1":"Jasarana","address2":"","latitude":"26.9784","longitude":"78.7584","accuracy":"4"},{"address3":"Kaurari Kherha","state":"Uttar Pradesh","state_code":"36","district":"Firozabad","district_code":"147","address1":"Jasarana","address2":"","latitude":"27.1792","longitude":"78.8002","accuracy":"3"},{"address3":"Balipur","state":"Uttar Pradesh","state_code":"36","district":"Firozabad","district_code":"147","address1":"Jasarana","address2":"","latitude":"26.9883","longitude":"78.6843","accuracy":"4"},{"address3":"Pariyar","state":"Uttar Pradesh","state_code":"36","district":"Firozabad","district_code":"147","address1":"Shikohabad","address2":"","latitude":"27.1792","longitude":"78.8002","accuracy":"3"},{"address3":"Garhsan","state":"Uttar Pradesh","state_code":"36","district":"Firozabad","district_code":"147","address1":"Jasarana","address2":"","latitude":"26.9696","longitude":"78.6446","accuracy":"4"},{"address3":"Nagla Gulal","state":"Uttar Pradesh","state_code":"36","district":"Firozabad","district_code":"147","address1":"Shikohabad","address2":"","latitude":"26.9574","longitude":"78.6573","accuracy":"4"},{"address3":"Ukhrend","state":"Uttar Pradesh","state_code":"36","district":"Firozabad","district_code":"147","address1":"Jasarana","address2":"","latitude":"27.0034","longitude":"78.7661","accuracy":"4"}],"283145":[{"address3":"Khairgarh","state":"Uttar Pradesh","state_code":"36","district":"Firozabad","district_code":"147","address1":"Shikohabad","address2":"","latitude":"27.1885","longitude":"78.4829","accuracy":"4"},{"address3":"Ketana Harsha","state":"Uttar Pradesh","state_code":"36","district":"Firozabad","district_code":"147","address1":"Shikohabad","address2":"","latitude":"27.1775","longitude":"78.4601","accuracy":"3"},{"address3":"Sekhupur  Hatwant","state":"Uttar Pradesh","state_code":"36","district":"Firozabad","district_code":"147","address1":"Shikohabad","address2":"","latitude":"27.1775","longitude":"78.4601","accuracy":"3"},{"address3":"Makkhanpur","state":"Uttar Pradesh","state_code":"36","district":"Firozabad","district_code":"147","address1":"Shikohabad","address2":"","latitude":"27.1236","longitude":"78.4833","accuracy":"4"},{"address3":"Viltigarh","state":"Uttar Pradesh","state_code":"36","district":"Firozabad","district_code":"147","address1":"Shikohabad","address2":"","latitude":"27.1775","longitude":"78.4601","accuracy":"3"},{"address3":"Kanwara","state":"Uttar Pradesh","state_code":"36","district":"Firozabad","district_code":"147","address1":"Shikohabad","address2":"","latitude":"27.2121","longitude":"78.4831","accuracy":"4"},{"address3":"Sarhupur","state":"Uttar Pradesh","state_code":"36","district":"Firozabad","district_code":"147","address1":"Shjkohabad","address2":"","latitude":"27.0863","longitude":"78.5022","accuracy":"4"},{"address3":"Jajumai","state":"Uttar Pradesh","state_code":"36","district":"Firozabad","district_code":"147","address1":"Shikohabad","address2":"","latitude":"27.2101","longitude":"78.5662","accuracy":"4"},{"address3":"Pratappur","state":"Uttar Pradesh","state_code":"36","district":"Firozabad","district_code":"147","address1":"Shikohabad","address2":"","latitude":"27.2442","longitude":"78.2428","accuracy":"4"}],"283151":[{"address3":"Sothara","state":"Uttar Pradesh","state_code":"36","district":"Firozabad","district_code":"147","address1":"Shikohabad","address2":"","latitude":"27.0909","longitude":"78.8605","accuracy":"3"},{"address3":"Tilyani","state":"Uttar Pradesh","state_code":"36","district":"Firozabad","district_code":"147","address1":"Shikohabad","address2":"","latitude":"27.1806","longitude":"78.5399","accuracy":"4"},{"address3":"Saray Murlidhar","state":"Uttar Pradesh","state_code":"36","district":"Firozabad","district_code":"147","address1":"Shikohabad","address2":"","latitude":"27.0909","longitude":"78.8605","accuracy":"3"},{"address3":"Madanpur","state":"Uttar Pradesh","state_code":"36","district":"Firozabad","district_code":"147","address1":"Shikohabad","address2":"","latitude":"27.0256","longitude":"78.6445","accuracy":"4"},{"address3":"Jaymai","state":"Uttar Pradesh","state_code":"36","district":"Firozabad","district_code":"147","address1":"Shikohabad","address2":"","latitude":"27.0909","longitude":"78.8605","accuracy":"3"},{"address3":"A G M Bhawali","state":"Uttar Pradesh","state_code":"36","district":"Firozabad","district_code":"147","address1":"Shikohabad","address2":"","latitude":"27.0909","longitude":"78.8605","accuracy":"3"},{"address3":"Karhara","state":"Uttar Pradesh","state_code":"36","district":"Firozabad","district_code":"147","address1":"Shikohabad","address2":"","latitude":"27.0909","longitude":"78.8605","accuracy":"3"},{"address3":"Paigu","state":"Uttar Pradesh","state_code":"36","district":"Firozabad","district_code":"147","address1":"Shikohabad","address2":"","latitude":"27.1122","longitude":"78.7427","accuracy":"4"},{"address3":"Saray Bhartara","state":"Uttar Pradesh","state_code":"36","district":"Firozabad","district_code":"147","address1":"Shikohabad","address2":"","latitude":"27.0909","longitude":"78.8605","accuracy":"3"},{"address3":"Amaur Nagla Jeevan","state":"Uttar Pradesh","state_code":"36","district":"Firozabad","district_code":"147","address1":"Shikohabad","address2":"","latitude":"27.0909","longitude":"78.8605","accuracy":"3"},{"address3":"Sirsaganj","state":"Uttar Pradesh","state_code":"36","district":"Firozabad","district_code":"147","address1":"Shikohabad","address2":"","latitude":"27.0572","longitude":"78.6866","accuracy":"4"}],"283152":[{"address3":"Bhadana","state":"Uttar Pradesh","state_code":"36","district":"Firozabad","district_code":"147","address1":"Jasrana","address2":"","latitude":"27.3888","longitude":"78.5271","accuracy":"4"},{"address3":"Kailai","state":"Uttar Pradesh","state_code":"36","district":"Firozabad","district_code":"147","address1":"Jasrana","address2":"","latitude":"27.1806","longitude":"78.5399","accuracy":"4"},{"address3":"Uresar","state":"Uttar Pradesh","state_code":"36","district":"Firozabad","district_code":"147","address1":"Jasrana","address2":"","latitude":"27.4316","longitude":"78.5937","accuracy":"4"},{"address3":"Eka","state":"Uttar Pradesh","state_code":"36","district":"Firozabad","district_code":"147","address1":"Jasrana","address2":"","latitude":"27.384","longitude":"78.6052","accuracy":"4"},{"address3":"Farida","state":"Uttar Pradesh","state_code":"36","district":"Firozabad","district_code":"147","address1":"Jasrana","address2":"","latitude":"27.3025","longitude":"78.7273","accuracy":"3"},{"address3":"Suraya","state":"Uttar Pradesh","state_code":"36","district":"Firozabad","district_code":"147","address1":"Jasrana","address2":"","latitude":"27.4383","longitude":"78.5213","accuracy":"4"},{"address3":"Gopalpur","state":"Uttar Pradesh","state_code":"36","district":"Firozabad","district_code":"147","address1":"Jasrana","address2":"","latitude":"27.4578","longitude":"78.595","accuracy":"4"},{"address3":"Bhagner","state":"Uttar Pradesh","state_code":"36","district":"Firozabad","district_code":"147","address1":"Jasrana","address2":"","latitude":"27.4473","longitude":"78.6303","accuracy":"4"},{"address3":"Pendat","state":"Uttar Pradesh","state_code":"36","district":"Firozabad","district_code":"147","address1":"Jasrana","address2":"","latitude":"27.3025","longitude":"78.7273","accuracy":"3"},{"address3":"Nagla Nahar","state":"Uttar Pradesh","state_code":"36","district":"Firozabad","district_code":"147","address1":"Jasrana","address2":"","latitude":"27.4752","longitude":"78.6343","accuracy":"4"},{"address3":"Katana","state":"Uttar Pradesh","state_code":"36","district":"Firozabad","district_code":"147","address1":"Jasrana","address2":"","latitude":"27.3966","longitude":"78.5575","accuracy":"4"}],"283201":[{"address3":"Ushmanpur","state":"Uttar Pradesh","state_code":"36","district":"Agra","district_code":"146","address1":"Etmadpur","address2":"","latitude":"27.5239","longitude":"78.1928","accuracy":"3"},{"address3":"Anwal Khera","state":"Uttar Pradesh","state_code":"36","district":"Agra","district_code":"146","address1":"Etmadpur","address2":"","latitude":"27.3334","longitude":"78.1364","accuracy":"4"},{"address3":"Chamraula","state":"Uttar Pradesh","state_code":"36","district":"Agra","district_code":"146","address1":"Etmadpur","address2":"","latitude":"27.0377","longitude":"78.0795","accuracy":"4"},{"address3":"Aharan","state":"Uttar Pradesh","state_code":"36","district":"Agra","district_code":"146","address1":"NA","address2":"","latitude":"27.3578","longitude":"78.2375","accuracy":"4"},{"address3":"Mukhbar","state":"Uttar Pradesh","state_code":"36","district":"Agra","district_code":"146","address1":"Etmadpur","address2":"","latitude":"27.5239","longitude":"78.1928","accuracy":"3"},{"address3":"Mahwatpur","state":"Uttar Pradesh","state_code":"36","district":"Agra","district_code":"146","address1":"Etmadpur","address2":"","latitude":"27.5239","longitude":"78.1928","accuracy":"3"},{"address3":"Chaoli","state":"Uttar Pradesh","state_code":"36","district":"Agra","district_code":"146","address1":"Etmadpur","address2":"","latitude":"27.0377","longitude":"78.0795","accuracy":"4"},{"address3":"Murthar Alipur","state":"Uttar Pradesh","state_code":"36","district":"Agra","district_code":"146","address1":"Etmadpur","address2":"","latitude":"27.3719","longitude":"78.2746","accuracy":"4"},{"address3":"Tehu","state":"Uttar Pradesh","state_code":"36","district":"Agra","district_code":"146","address1":"Etmadpur","address2":"","latitude":"27.385","longitude":"78.2295","accuracy":"4"},{"address3":"Chokda","state":"Uttar Pradesh","state_code":"36","district":"Agra","district_code":"146","address1":"Etmadpur","address2":"","latitude":"27.5239","longitude":"78.1928","accuracy":"3"},{"address3":"Siktara","state":"Uttar Pradesh","state_code":"36","district":"Agra","district_code":"146","address1":"Etmadpur","address2":"","latitude":"27.2757","longitude":"78.1767","accuracy":"4"},{"address3":"Barhan","state":"Uttar Pradesh","state_code":"36","district":"Agra","district_code":"146","address1":"Etmadpur","address2":"","latitude":"27.3321","longitude":"78.1909","accuracy":"4"},{"address3":"Khanda","state":"Uttar Pradesh","state_code":"36","district":"Agra","district_code":"146","address1":"Etmadpur","address2":"","latitude":"27.3657","longitude":"78.1556","accuracy":"4"},{"address3":"Nagla Bari","state":"Uttar Pradesh","state_code":"36","district":"Agra","district_code":"146","address1":"NA","address2":"","latitude":"27.3317","longitude":"78.2446","accuracy":"4"},{"address3":"Arela","state":"Uttar Pradesh","state_code":"36","district":"Agra","district_code":"146","address1":"NA","address2":"","latitude":"27.2878","longitude":"78.1146","accuracy":"4"},{"address3":"Mitaoli","state":"Uttar Pradesh","state_code":"36","district":"Agra","district_code":"146","address1":"Etmadpur","address2":"","latitude":"26.8678","longitude":"78.4442","accuracy":"4"},{"address3":"Nagla Bel","state":"Uttar Pradesh","state_code":"36","district":"Agra","district_code":"146","address1":"NA","address2":"","latitude":"27.3434","longitude":"78.1719","accuracy":"4"}],"283202":[{"address3":"Behrampur","state":"Uttar Pradesh","state_code":"36","district":"Agra","district_code":"146","address1":"Etmadpur","address2":"","latitude":"27.0377","longitude":"78.0795","accuracy":"4"},{"address3":"Etmadpur","state":"Uttar Pradesh","state_code":"36","district":"Agra","district_code":"146","address1":"Etmadpur","address2":"","latitude":"27.0377","longitude":"78.0795","accuracy":"4"},{"address3":"Dharera","state":"Uttar Pradesh","state_code":"36","district":"Agra","district_code":"146","address1":"Etmadpur","address2":"","latitude":"27.3586","longitude":"78.4069","accuracy":"3"},{"address3":"Agwar","state":"Uttar Pradesh","state_code":"36","district":"Agra","district_code":"146","address1":"NA","address2":"","latitude":"27.2483","longitude":"78.1403","accuracy":"4"},{"address3":"Sawain","state":"Uttar Pradesh","state_code":"36","district":"Agra","district_code":"146","address1":"Etmadpur","address2":"","latitude":"27.2509","longitude":"78.1941","accuracy":"4"},{"address3":"Dhaurra","state":"Uttar Pradesh","state_code":"36","district":"Agra","district_code":"146","address1":"Etmadpur","address2":"","latitude":"27.0434","longitude":"78.3149","accuracy":"4"},{"address3":"Bhagupur","state":"Uttar Pradesh","state_code":"36","district":"Agra","district_code":"146","address1":"Etmadpur","address2":"","latitude":"27.2326","longitude":"78.1309","accuracy":"4"}],"283203":[{"address3":"Gazipur","state":"Uttar Pradesh","state_code":"36","district":"Firozabad","district_code":"147","address1":"Firozabad","address2":"","latitude":"27.1806","longitude":"78.5399","accuracy":"4"},{"address3":"Railway Road Firozabad","state":"Uttar Pradesh","state_code":"36","district":"Firozabad","district_code":"147","address1":"Firozabad","address2":"","latitude":"27.337","longitude":"78.3438","accuracy":"3"},{"address3":"Jalalpur","state":"Uttar Pradesh","state_code":"36","district":"Firozabad","district_code":"147","address1":"Firozabad","address2":"","latitude":"27.2476","longitude":"78.5234","accuracy":"4"},{"address3":"Raipura","state":"Uttar Pradesh","state_code":"36","district":"Firozabad","district_code":"147","address1":"Firozabad","address2":"","latitude":"27.2014","longitude":"78.4729","accuracy":"4"},{"address3":"Matsena","state":"Uttar Pradesh","state_code":"36","district":"Firozabad","district_code":"147","address1":"Firozabad","address2":"","latitude":"27.337","longitude":"78.3438","accuracy":"3"},{"address3":"Nepai","state":"Uttar Pradesh","state_code":"36","district":"Firozabad","district_code":"147","address1":"Firozabad","address2":"","latitude":"27.2007","longitude":"78.4331","accuracy":"4"},{"address3":"Chandwar","state":"Uttar Pradesh","state_code":"36","district":"Firozabad","district_code":"147","address1":"Firozabad","address2":"","latitude":"27.1069","longitude":"78.3703","accuracy":"4"},{"address3":"Jarauli Kalan","state":"Uttar Pradesh","state_code":"36","district":"Firozabad","district_code":"147","address1":"Firozabad","address2":"","latitude":"27.1992","longitude":"78.3474","accuracy":"4"},{"address3":"Muiddinpur","state":"Uttar Pradesh","state_code":"36","district":"Firozabad","district_code":"147","address1":"Firozabad","address2":"","latitude":"27.337","longitude":"78.3438","accuracy":"3"},{"address3":"Rupaspur","state":"Uttar Pradesh","state_code":"36","district":"Firozabad","district_code":"147","address1":"Firozabad","address2":"","latitude":"27.1547","longitude":"78.3548","accuracy":"4"},{"address3":"Datawali","state":"Uttar Pradesh","state_code":"36","district":"Firozabad","district_code":"147","address1":"Firozabad","address2":"","latitude":"27.1806","longitude":"78.5399","accuracy":"4"},{"address3":"Asafabad","state":"Uttar Pradesh","state_code":"36","district":"Firozabad","district_code":"147","address1":"Firozabad","address2":"","latitude":"27.1376","longitude":"78.4196","accuracy":"4"},{"address3":"Gudaun","state":"Uttar Pradesh","state_code":"36","district":"Firozabad","district_code":"147","address1":"Firozbaad","address2":"","latitude":"27.337","longitude":"78.3438","accuracy":"3"},{"address3":"Gonchh","state":"Uttar Pradesh","state_code":"36","district":"Firozabad","district_code":"147","address1":"Firozabad","address2":"","latitude":"27.2192","longitude":"78.428","accuracy":"4"},{"address3":"Dokeli","state":"Uttar Pradesh","state_code":"36","district":"Firozabad","district_code":"147","address1":"Firozabad","address2":"","latitude":"27.337","longitude":"78.3438","accuracy":"3"},{"address3":"Asan","state":"Uttar Pradesh","state_code":"36","district":"Firozabad","district_code":"147","address1":"Firozabad","address2":"","latitude":"27.2549","longitude":"78.3805","accuracy":"4"},{"address3":"Mainpuri Gate  Firozabad","state":"Uttar Pradesh","state_code":"36","district":"Firozabad","district_code":"147","address1":"Firozabad","address2":"","latitude":"27.337","longitude":"78.3438","accuracy":"3"},{"address3":"Pachwan","state":"Uttar Pradesh","state_code":"36","district":"Firozabad","district_code":"147","address1":"Firozabad","address2":"","latitude":"27.2157","longitude":"78.378","accuracy":"4"},{"address3":"Akalabad Hasanpur","state":"Uttar Pradesh","state_code":"36","district":"Firozabad","district_code":"147","address1":"Firozabad","address2":"","latitude":"27.337","longitude":"78.3438","accuracy":"3"},{"address3":"Jakhai","state":"Uttar Pradesh","state_code":"36","district":"Firozabad","district_code":"147","address1":"Firozabad","address2":"","latitude":"27.2398","longitude":"78.3872","accuracy":"4"},{"address3":"Alhadadpur","state":"Uttar Pradesh","state_code":"36","district":"Firozabad","district_code":"147","address1":"Firozabad","address2":"","latitude":"27.337","longitude":"78.3438","accuracy":"3"},{"address3":"Basai Mohammadpur","state":"Uttar Pradesh","state_code":"36","district":"Firozabad","district_code":"147","address1":"Firozabad","address2":"","latitude":"27.337","longitude":"78.3438","accuracy":"3"},{"address3":"Bilhena","state":"Uttar Pradesh","state_code":"36","district":"Firozabad","district_code":"147","address1":"Firozabad","address2":"","latitude":"27.337","longitude":"78.3438","accuracy":"3"},{"address3":"Firozabad H.O","state":"Uttar Pradesh","state_code":"36","district":"Firozabad","district_code":"147","address1":"Firozabad","address2":"","latitude":"27.337","longitude":"78.3438","accuracy":"3"},{"address3":"Ali Nagar Kenjra","state":"Uttar Pradesh","state_code":"36","district":"Firozabad","district_code":"147","address1":"Firozabad","address2":"","latitude":"27.337","longitude":"78.3438","accuracy":"3"},{"address3":"Sarhamai","state":"Uttar Pradesh","state_code":"36","district":"Firozabad","district_code":"147","address1":"Firozabad","address2":"","latitude":"27.337","longitude":"78.3438","accuracy":"3"},{"address3":"Dolupura","state":"Uttar Pradesh","state_code":"36","district":"Firozabad","district_code":"147","address1":"NA","address2":"","latitude":"27.337","longitude":"78.3438","accuracy":"3"},{"address3":"Firozabad Bazar","state":"Uttar Pradesh","state_code":"36","district":"Firozabad","district_code":"147","address1":"Firozabad","address2":"","latitude":"27.337","longitude":"78.3438","accuracy":"3"},{"address3":"Labour Collony  Firozabad","state":"Uttar Pradesh","state_code":"36","district":"Firozabad","district_code":"147","address1":"Firozabad","address2":"","latitude":"27.337","longitude":"78.3438","accuracy":"3"},{"address3":"S N H Road Firozabad","state":"Uttar Pradesh","state_code":"36","district":"Firozabad","district_code":"147","address1":"Firozabad","address2":"","latitude":"27.337","longitude":"78.3438","accuracy":"3"},{"address3":"Narayan Nagar","state":"Uttar Pradesh","state_code":"36","district":"Firozabad","district_code":"147","address1":"Firozabad","address2":"","latitude":"27.337","longitude":"78.3438","accuracy":"3"}],"283204":[{"address3":"Tikari","state":"Uttar Pradesh","state_code":"36","district":"Firozabad","district_code":"147","address1":"Firozabad","address2":"","latitude":"27.1806","longitude":"78.5399","accuracy":"4"},{"address3":"Pamari","state":"Uttar Pradesh","state_code":"36","district":"Firozabad","district_code":"147","address1":"Firozabad","address2":"","latitude":"27.1806","longitude":"78.5399","accuracy":"4"},{"address3":"Bachhagaon","state":"Uttar Pradesh","state_code":"36","district":"Firozabad","district_code":"147","address1":"Firozabad","address2":"","latitude":"27.27","longitude":"78.4667","accuracy":"3"},{"address3":"Chulhawali","state":"Uttar Pradesh","state_code":"36","district":"Firozabad","district_code":"147","address1":"Firozabad","address2":"","latitude":"27.2008","longitude":"78.256","accuracy":"4"},{"address3":"Gondai","state":"Uttar Pradesh","state_code":"36","district":"Firozabad","district_code":"147","address1":"Firozabad","address2":"","latitude":"27.2711","longitude":"78.3801","accuracy":"4"},{"address3":"Nagla Sikander","state":"Uttar Pradesh","state_code":"36","district":"Firozabad","district_code":"147","address1":"Firozabad","address2":"","latitude":"27.27","longitude":"78.4667","accuracy":"3"},{"address3":"Himmatpur","state":"Uttar Pradesh","state_code":"36","district":"Firozabad","district_code":"147","address1":"Firozabad","address2":"","latitude":"27.2794","longitude":"78.3278","accuracy":"4"},{"address3":"Salempur","state":"Uttar Pradesh","state_code":"36","district":"Firozabad","district_code":"147","address1":"Firozabad","address2":"","latitude":"27.3048","longitude":"78.2338","accuracy":"4"},{"address3":"Mersena","state":"Uttar Pradesh","state_code":"36","district":"Firozabad","district_code":"147","address1":"Firozabad","address2":"","latitude":"27.27","longitude":"78.4667","accuracy":"3"},{"address3":"Rajmal","state":"Uttar Pradesh","state_code":"36","district":"Firozabad","district_code":"147","address1":"Firozabad","address2":"","latitude":"27.1806","longitude":"78.5399","accuracy":"4"},{"address3":"Jaundhary","state":"Uttar Pradesh","state_code":"36","district":"Firozabad","district_code":"147","address1":"Firozabad","address2":"","latitude":"27.27","longitude":"78.4667","accuracy":"3"},{"address3":"Tundla","state":"Uttar Pradesh","state_code":"36","district":"Firozabad","district_code":"147","address1":"Firozabad","address2":"","latitude":"27.2146","longitude":"78.2368","accuracy":"4"},{"address3":"Gwari Nagla Singhi","state":"Uttar Pradesh","state_code":"36","district":"Firozabad","district_code":"147","address1":"Firozabad","address2":"","latitude":"27.27","longitude":"78.4667","accuracy":"3"},{"address3":"Mohammadi","state":"Uttar Pradesh","state_code":"36","district":"Firozabad","district_code":"147","address1":"Firozabad","address2":"","latitude":"27.27","longitude":"78.4667","accuracy":"3"},{"address3":"Dheerpura","state":"Uttar Pradesh","state_code":"36","district":"Firozabad","district_code":"147","address1":"Firozabad","address2":"","latitude":"27.27","longitude":"78.4667","accuracy":"3"},{"address3":"Katki","state":"Uttar Pradesh","state_code":"36","district":"Firozabad","district_code":"147","address1":"Firozabad","address2":"","latitude":"27.3307","longitude":"78.3577","accuracy":"4"},{"address3":"Dev Kherha","state":"Uttar Pradesh","state_code":"36","district":"Firozabad","district_code":"147","address1":"Firozabad","address2":"","latitude":"27.27","longitude":"78.4667","accuracy":"3"},{"address3":"Ummargarh","state":"Uttar Pradesh","state_code":"36","district":"Firozabad","district_code":"147","address1":"Firozabad","address2":"","latitude":"27.27","longitude":"78.4667","accuracy":"3"},{"address3":"Bhondela","state":"Uttar Pradesh","state_code":"36","district":"Firozabad","district_code":"147","address1":"Firozabad","address2":"","latitude":"27.2214","longitude":"78.3287","accuracy":"4"},{"address3":"Pachokhara","state":"Uttar Pradesh","state_code":"36","district":"Firozabad","district_code":"147","address1":"Firozabad","address2":"","latitude":"27.1806","longitude":"78.5399","accuracy":"4"},{"address3":"Nagla Beech","state":"Uttar Pradesh","state_code":"36","district":"Firozabad","district_code":"147","address1":"Firozabad","address2":"","latitude":"27.27","longitude":"78.4667","accuracy":"3"},{"address3":"Rasoolabad","state":"Uttar Pradesh","state_code":"36","district":"Firozabad","district_code":"147","address1":"Firozabad","address2":"","latitude":"27.27","longitude":"78.4667","accuracy":"3"},{"address3":"Rajawali","state":"Uttar Pradesh","state_code":"36","district":"Firozabad","district_code":"147","address1":"Firozabad","address2":"","latitude":"27.27","longitude":"78.4667","accuracy":"3"},{"address3":"Tundla Chauraha","state":"Uttar Pradesh","state_code":"36","district":"Firozabad","district_code":"147","address1":"Firozabad","address2":"","latitude":"27.27","longitude":"78.4667","accuracy":"3"},{"address3":"Mohammdabad","state":"Uttar Pradesh","state_code":"36","district":"Firozabad","district_code":"147","address1":"Firozabad","address2":"","latitude":"27.27","longitude":"78.4667","accuracy":"3"},{"address3":"Nagla Dutt","state":"Uttar Pradesh","state_code":"36","district":"Firozabad","district_code":"147","address1":"Firozabad","address2":"","latitude":"27.27","longitude":"78.4667","accuracy":"3"}],"283205":[{"address3":"Collectorate -firozabad","state":"Uttar Pradesh","state_code":"36","district":"Firozabad","district_code":"147","address1":"Firozabad","address2":"","latitude":"27.3685","longitude":"78.3544","accuracy":"1"}],"283206":[{"address3":"Kotla (Firozabad)","state":"Uttar Pradesh","state_code":"36","district":"Firozabad","district_code":"147","address1":"Firozabad","address2":"","latitude":"27.28","longitude":"78.4329","accuracy":"3"},{"address3":"Gangni","state":"Uttar Pradesh","state_code":"36","district":"Firozabad","district_code":"147","address1":"Firozabad","address2":"","latitude":"27.3272","longitude":"78.449","accuracy":"4"},{"address3":"Okhra","state":"Uttar Pradesh","state_code":"36","district":"Firozabad","district_code":"147","address1":"Firozabad","address2":"","latitude":"27.28","longitude":"78.4329","accuracy":"3"},{"address3":"Bartara","state":"Uttar Pradesh","state_code":"36","district":"Firozabad","district_code":"147","address1":"Shikohabad","address2":"","latitude":"27.2488","longitude":"78.4353","accuracy":"4"},{"address3":"Dodsa Mohammadpur","state":"Uttar Pradesh","state_code":"36","district":"Firozabad","district_code":"147","address1":"Firozabad","address2":"","latitude":"27.28","longitude":"78.4329","accuracy":"3"},{"address3":"Dorsa","state":"Uttar Pradesh","state_code":"36","district":"Firozabad","district_code":"147","address1":"Firozabad","address2":"","latitude":"27.2981","longitude":"78.4373","accuracy":"4"},{"address3":"Narkhi","state":"Uttar Pradesh","state_code":"36","district":"Firozabad","district_code":"147","address1":"Firozabad","address2":"","latitude":"27.28","longitude":"78.4329","accuracy":"3"},{"address3":"Jatau","state":"Uttar Pradesh","state_code":"36","district":"Firozabad","district_code":"147","address1":"Firozabad","address2":"","latitude":"27.2458","longitude":"78.41","accuracy":"4"}],"283207":[{"address3":"Kaitha","state":"Uttar Pradesh","state_code":"36","district":"Firozabad","district_code":"147","address1":"Firozabad","address2":"","latitude":"27.3565","longitude":"78.4578","accuracy":"4"},{"address3":"Konder","state":"Uttar Pradesh","state_code":"36","district":"Firozabad","district_code":"147","address1":"Jasrana","address2":"","latitude":"27.1806","longitude":"78.5399","accuracy":"3"},{"address3":"Phariha","state":"Uttar Pradesh","state_code":"36","district":"Firozabad","district_code":"147","address1":"Jasrana","address2":"","latitude":"27.3217","longitude":"78.4727","accuracy":"4"},{"address3":"Mustfabad","state":"Uttar Pradesh","state_code":"36","district":"Firozabad","district_code":"147","address1":"Jasarana","address2":"","latitude":"27.3309","longitude":"78.4797","accuracy":"3"},{"address3":"Keshpura","state":"Uttar Pradesh","state_code":"36","district":"Firozabad","district_code":"147","address1":"Jasarana","address2":"","latitude":"27.3147","longitude":"78.5086","accuracy":"4"},{"address3":"Pilakhatar","state":"Uttar Pradesh","state_code":"36","district":"Firozabad","district_code":"147","address1":"Jasarana","address2":"","latitude":"27.3309","longitude":"78.4797","accuracy":"3"}],"credits":[{"name":"geonames","url":"https://www.geonames.org"}],"last_update":"2019-03-01T09:01:38.730Z"}