{"302001":[{"address3":"Purani Basti (Jaipur)","state":"Rajasthan","state_code":"24","district":"Jaipur","district_code":"110","address1":"Jaipur","address2":"","latitude":"26.9196","longitude":"75.7878","accuracy":"1"},{"address3":"Jaipur G.P.O.","state":"Rajasthan","state_code":"24","district":"Jaipur","district_code":"110","address1":"Jaipur","address2":"","latitude":"26.9196","longitude":"75.7878","accuracy":"1"},{"address3":"C.P.M.G","state":"Rajasthan","state_code":"24","district":"Jaipur","district_code":"110","address1":"Jaipur","address2":"","latitude":"26.9196","longitude":"75.7878","accuracy":"1"},{"address3":"Indra Bazar","state":"Rajasthan","state_code":"24","district":"Jaipur","district_code":"110","address1":"Jaipur","address2":"","latitude":"26.9196","longitude":"75.7878","accuracy":"1"},{"address3":"Chandpole Bazar","state":"Rajasthan","state_code":"24","district":"Jaipur","district_code":"110","address1":"Jaipur","address2":"","latitude":"26.9196","longitude":"75.7878","accuracy":"1"},{"address3":"M.I.Road","state":"Rajasthan","state_code":"24","district":"Jaipur","district_code":"110","address1":"Jaipur","address2":"","latitude":"26.9196","longitude":"75.7878","accuracy":"1"},{"address3":"Rajasthan State Hotel","state":"Rajasthan","state_code":"24","district":"Jaipur","district_code":"110","address1":"Jaipur","address2":"","latitude":"26.9196","longitude":"75.7878","accuracy":"1"}],"302002":[{"address3":"Tripolia Bazar","state":"Rajasthan","state_code":"24","district":"Jaipur","district_code":"110","address1":"Jaipur","address2":"","latitude":"26.9196","longitude":"75.7878","accuracy":"1"},{"address3":"Amer Road","state":"Rajasthan","state_code":"24","district":"Jaipur","district_code":"110","address1":"Jaipur","address2":"","latitude":"26.9196","longitude":"75.7878","accuracy":"1"},{"address3":"Kishanpole Bazar","state":"Rajasthan","state_code":"24","district":"Jaipur","district_code":"110","address1":"Jaipur","address2":"","latitude":"26.9196","longitude":"75.7878","accuracy":"1"},{"address3":"Govind Nagar (Jaipur)","state":"Rajasthan","state_code":"24","district":"Jaipur","district_code":"110","address1":"Jaipur","address2":"","latitude":"26.9196","longitude":"75.7878","accuracy":"1"}],"302003":[{"address3":"Jaipur City","state":"Rajasthan","state_code":"24","district":"Jaipur","district_code":"110","address1":"Jaipur","address2":"","latitude":"26.9196","longitude":"75.7878","accuracy":"4"},{"address3":"Ramganj Bazar","state":"Rajasthan","state_code":"24","district":"Jaipur","district_code":"110","address1":"Jaipur","address2":"","latitude":"26.9196","longitude":"75.7878","accuracy":"3"},{"address3":"Haldiyon Ka Rasta","state":"Rajasthan","state_code":"24","district":"Jaipur","district_code":"110","address1":"Jaipur","address2":"","latitude":"26.9196","longitude":"75.7878","accuracy":"3"},{"address3":"Krishi Upaj Mandi","state":"Rajasthan","state_code":"24","district":"Jaipur","district_code":"110","address1":"Jaipur","address2":"","latitude":"26.9196","longitude":"75.7878","accuracy":"3"}],"302004":[{"address3":"Tilak Nagar (Jaipur)","state":"Rajasthan","state_code":"24","district":"Jaipur","district_code":"110","address1":"Jaipur","address2":"","latitude":"26.9196","longitude":"75.7878","accuracy":"1"},{"address3":"Raja Park Colony","state":"Rajasthan","state_code":"24","district":"Jaipur","district_code":"110","address1":"Jaipur","address2":"","latitude":"26.9196","longitude":"75.7878","accuracy":"1"},{"address3":"S.M.S.Hospital","state":"Rajasthan","state_code":"24","district":"Jaipur","district_code":"110","address1":"Jaipur","address2":"","latitude":"26.9196","longitude":"75.7878","accuracy":"1"},{"address3":"Arjun Lal Sethi Nagar","state":"Rajasthan","state_code":"24","district":"Jaipur","district_code":"110","address1":"Jaipur","address2":"","latitude":"26.9196","longitude":"75.7878","accuracy":"1"},{"address3":"Rajasthan University","state":"Rajasthan","state_code":"24","district":"Jaipur","district_code":"110","address1":"Jaipur","address2":"","latitude":"26.9196","longitude":"75.7878","accuracy":"1"},{"address3":"Krishna Mandir","state":"Rajasthan","state_code":"24","district":"Jaipur","district_code":"110","address1":"Jaipur","address2":"","latitude":"26.9196","longitude":"75.7878","accuracy":"1"},{"address3":"Jawahar Nagar H.O","state":"Rajasthan","state_code":"24","district":"Jaipur","district_code":"110","address1":"Jaipur","address2":"","latitude":"26.9196","longitude":"75.7878","accuracy":"1"},{"address3":"Janta Colony","state":"Rajasthan","state_code":"24","district":"Jaipur","district_code":"110","address1":"Jaipur","address2":"","latitude":"26.9196","longitude":"75.7878","accuracy":"1"},{"address3":"Jhalana Doongri","state":"Rajasthan","state_code":"24","district":"Jaipur","district_code":"110","address1":"Jaipur","address2":"","latitude":"26.9196","longitude":"75.7878","accuracy":"1"}],"302005":[{"address3":"Vidyut Bhawan","state":"Rajasthan","state_code":"24","district":"Jaipur","district_code":"110","address1":"Jaipur","address2":"","latitude":"26.9196","longitude":"75.7878","accuracy":"1"},{"address3":"Rajasthan Secretariate","state":"Rajasthan","state_code":"24","district":"Jaipur","district_code":"110","address1":"Jaipur","address2":"","latitude":"26.9196","longitude":"75.7878","accuracy":"1"},{"address3":"High Court (Jaipur)","state":"Rajasthan","state_code":"24","district":"Jaipur","district_code":"110","address1":"Jaipur","address2":"","latitude":"26.9196","longitude":"75.7878","accuracy":"1"},{"address3":"Legislative Assembly","state":"Rajasthan","state_code":"24","district":"Jaipur","district_code":"110","address1":"Jaipur","address2":"","latitude":"26.9196","longitude":"75.7878","accuracy":"1"},{"address3":"N.C.R.Building","state":"Rajasthan","state_code":"24","district":"Jaipur","district_code":"110","address1":"Jaipur","address2":"","latitude":"26.9196","longitude":"75.7878","accuracy":"1"}],"302006":[{"address3":"Ajmer Road","state":"Rajasthan","state_code":"24","district":"Jaipur","district_code":"110","address1":"Jaipur","address2":"","latitude":"26.9196","longitude":"75.7878","accuracy":"1"},{"address3":"Station Road (Jaipur)","state":"Rajasthan","state_code":"24","district":"Jaipur","district_code":"110","address1":"Jaipur","address2":"","latitude":"26.9196","longitude":"75.7878","accuracy":"1"},{"address3":"Raj Bhawan (Jaipur)","state":"Rajasthan","state_code":"24","district":"Jaipur","district_code":"110","address1":"Jaipur","address2":"","latitude":"26.9196","longitude":"75.7878","accuracy":"1"},{"address3":"Jaipur R.S.","state":"Rajasthan","state_code":"24","district":"Jaipur","district_code":"110","address1":"Jaipur","address2":"","latitude":"26.9196","longitude":"75.7878","accuracy":"1"},{"address3":"P.W.D.Office","state":"Rajasthan","state_code":"24","district":"Jaipur","district_code":"110","address1":"Jaipur","address2":"","latitude":"26.9196","longitude":"75.7878","accuracy":"1"}],"302012":[{"address3":"Kishanpura","state":"Rajasthan","state_code":"24","district":"Jaipur","district_code":"110","address1":"Jaipur","address2":"","latitude":"27.0197","longitude":"75.6719","accuracy":"4"},{"address3":"Industrial Area Jhotwara","state":"Rajasthan","state_code":"24","district":"Jaipur","district_code":"110","address1":"Jaipur","address2":"","latitude":"26.9632","longitude":"75.7256","accuracy":"3"},{"address3":"Khatipura","state":"Rajasthan","state_code":"24","district":"Jaipur","district_code":"110","address1":"Jaipur","address2":"","latitude":"26.9245","longitude":"75.7461","accuracy":"4"},{"address3":"Rojda","state":"Rajasthan","state_code":"24","district":"Jaipur","district_code":"110","address1":"Jaipur","address2":"","latitude":"26.9632","longitude":"75.7256","accuracy":"3"},{"address3":"Jhotwara","state":"Rajasthan","state_code":"24","district":"Jaipur","district_code":"110","address1":"Jaipur","address2":"","latitude":"26.9454","longitude":"75.7589","accuracy":"4"},{"address3":"Niwaroo","state":"Rajasthan","state_code":"24","district":"Jaipur","district_code":"110","address1":"Jaipur","address2":"","latitude":"26.9632","longitude":"75.7256","accuracy":"3"},{"address3":"Neendar Banar","state":"Rajasthan","state_code":"24","district":"Jaipur","district_code":"110","address1":"Jaipur","address2":"","latitude":"26.9632","longitude":"75.7256","accuracy":"3"},{"address3":"Meena Wala","state":"Rajasthan","state_code":"24","district":"Jaipur","district_code":"110","address1":"Jaipur","address2":"","latitude":"26.9632","longitude":"75.7256","accuracy":"3"},{"address3":"Khora Bisal","state":"Rajasthan","state_code":"24","district":"Jaipur","district_code":"110","address1":"Jaipur","address2":"","latitude":"26.9632","longitude":"75.7256","accuracy":"3"},{"address3":"Hathoj","state":"Rajasthan","state_code":"24","district":"Jaipur","district_code":"110","address1":"Jaipur","address2":"","latitude":"26.9632","longitude":"75.7256","accuracy":"3"}],"302013":[{"address3":"Akhepura","state":"Rajasthan","state_code":"24","district":"Jaipur","district_code":"110","address1":"Jaipur","address2":"","latitude":"27.0261","longitude":"75.8138","accuracy":"4"},{"address3":"Harmada","state":"Rajasthan","state_code":"24","district":"Jaipur","district_code":"110","address1":"Jaipur","address2":"","latitude":"26.9805","longitude":"75.7243","accuracy":"4"},{"address3":"Road No-5 Vkia","state":"Rajasthan","state_code":"24","district":"Jaipur","district_code":"110","address1":"Jaipur","address2":"","latitude":"26.3961","longitude":"75.0325","accuracy":"3"},{"address3":"Nangal Purohitan","state":"Rajasthan","state_code":"24","district":"Jaipur","district_code":"110","address1":"Amber","address2":"","latitude":"26.3961","longitude":"75.0325","accuracy":"3"},{"address3":"Neendar","state":"Rajasthan","state_code":"24","district":"Jaipur","district_code":"110","address1":"Jaipur","address2":"","latitude":"26.3961","longitude":"75.0325","accuracy":"3"},{"address3":"Vishwakarma Industrial Area","state":"Rajasthan","state_code":"24","district":"Jaipur","district_code":"110","address1":"Jaipur","address2":"","latitude":"26.3961","longitude":"75.0325","accuracy":"3"}],"302015":[{"address3":"Gandhi Nagar (Jaipur)","state":"Rajasthan","state_code":"24","district":"Jaipur","district_code":"110","address1":"Jaipur","address2":"","latitude":"26.7865","longitude":"75.5809","accuracy":"1"},{"address3":"Barkat Nagar","state":"Rajasthan","state_code":"24","district":"Jaipur","district_code":"110","address1":"Jaipur","address2":"","latitude":"26.7865","longitude":"75.5809","accuracy":"1"}],"302016":[{"address3":"Sindhi Colony","state":"Rajasthan","state_code":"24","district":"Jaipur","district_code":"110","address1":"Jaipur","address2":"","latitude":"26.9258","longitude":"75.787","accuracy":"3"},{"address3":"Collectorate (Jaipur)","state":"Rajasthan","state_code":"24","district":"Jaipur","district_code":"110","address1":"Jaipur","address2":"","latitude":"26.9258","longitude":"75.787","accuracy":"3"},{"address3":"Bani Park","state":"Rajasthan","state_code":"24","district":"Jaipur","district_code":"110","address1":"Jaipur","address2":"","latitude":"26.9258","longitude":"75.787","accuracy":"4"},{"address3":"Shastri Nagar H.O","state":"Rajasthan","state_code":"24","district":"Jaipur","district_code":"110","address1":"Jaipur","address2":"","latitude":"26.9258","longitude":"75.787","accuracy":"3"},{"address3":"Dwarikapuri","state":"Rajasthan","state_code":"24","district":"Jaipur","district_code":"110","address1":"Jaipur","address2":"","latitude":"26.9258","longitude":"75.787","accuracy":"3"}],"302017":[{"address3":"Malviya Nagar (Jaipur)","state":"Rajasthan","state_code":"24","district":"Jaipur","district_code":"110","address1":"Jaipur","address2":"","latitude":"26.8378","longitude":"75.8256","accuracy":"3"},{"address3":"Mrec Jaipur","state":"Rajasthan","state_code":"24","district":"Jaipur","district_code":"110","address1":"Jaipur","address2":"","latitude":"26.8378","longitude":"75.8256","accuracy":"3"},{"address3":"Jagatpura","state":"Rajasthan","state_code":"24","district":"Jaipur","district_code":"110","address1":"Jaipur","address2":"","latitude":"26.8378","longitude":"75.8256","accuracy":"4"},{"address3":"Saraswati Nagar","state":"Rajasthan","state_code":"24","district":"Jaipur","district_code":"110","address1":"Jaipur","address2":"","latitude":"26.8378","longitude":"75.8256","accuracy":"3"}],"302018":[{"address3":"Durgapura","state":"Rajasthan","state_code":"24","district":"Jaipur","district_code":"110","address1":"Jaipur","address2":"","latitude":"26.8468","longitude":"75.7924","accuracy":"4"}],"302019":[{"address3":"Shyam Nagar (Jaipur)","state":"Rajasthan","state_code":"24","district":"Jaipur","district_code":"110","address1":"Jaipur","address2":"","latitude":"26.7865","longitude":"75.5809","accuracy":"1"}],"302020":[{"address3":"S.F.S.Mansarovar","state":"Rajasthan","state_code":"24","district":"Jaipur","district_code":"110","address1":"Jaipur","address2":"","latitude":"26.8626","longitude":"75.7633","accuracy":"3"},{"address3":"Mansarovar","state":"Rajasthan","state_code":"24","district":"Jaipur","district_code":"110","address1":"Jaipur","address2":"","latitude":"26.8626","longitude":"75.7633","accuracy":"4"}],"302021":[{"address3":"Heerapura","state":"Rajasthan","state_code":"24","district":"Jaipur","district_code":"110","address1":"Jaipur","address2":"","latitude":"26.9126","longitude":"75.7441","accuracy":"3"},{"address3":"Vaishali Nagar","state":"Rajasthan","state_code":"24","district":"Jaipur","district_code":"110","address1":"Jaipur","address2":"","latitude":"26.9126","longitude":"75.7441","accuracy":"4"}],"302022":[{"address3":"Bilwa","state":"Rajasthan","state_code":"24","district":"Jaipur","district_code":"110","address1":"Sanganer","address2":"","latitude":"26.9295","longitude":"75.7962","accuracy":"1"},{"address3":"Sitapura Industrial Area","state":"Rajasthan","state_code":"24","district":"Jaipur","district_code":"110","address1":"Jaipur","address2":"","latitude":"26.9295","longitude":"75.7962","accuracy":"1"},{"address3":"Shri Ram Ki Nangal","state":"Rajasthan","state_code":"24","district":"Jaipur","district_code":"110","address1":"Jaipur","address2":"","latitude":"26.9295","longitude":"75.7962","accuracy":"1"}],"302026":[{"address3":"Bhankrota","state":"Rajasthan","state_code":"24","district":"Jaipur","district_code":"110","address1":"Jaipur","address2":"","latitude":"26.7654","longitude":"75.5691","accuracy":"4"},{"address3":"Mukandpura","state":"Rajasthan","state_code":"24","district":"Jaipur","district_code":"110","address1":"Jaipur","address2":"","latitude":"26.8783","longitude":"75.6621","accuracy":"4"},{"address3":"Jaisinghpura Bas","state":"Rajasthan","state_code":"24","district":"Jaipur","district_code":"110","address1":"Sanganer","address2":"","latitude":"26.8303","longitude":"75.6335","accuracy":"3"},{"address3":"Mahapura","state":"Rajasthan","state_code":"24","district":"Jaipur","district_code":"110","address1":"Sanganer","address2":"","latitude":"26.8471","longitude":"75.6693","accuracy":"4"}],"302027":[{"address3":"Roop Was","state":"Rajasthan","state_code":"24","district":"Jaipur","district_code":"110","address1":"Amer","address2":"","latitude":"26.9972","longitude":"75.929","accuracy":"3"},{"address3":"Crpf Campus  Lalwas","state":"Rajasthan","state_code":"24","district":"Jaipur","district_code":"110","address1":"Amer","address2":"","latitude":"26.9972","longitude":"75.929","accuracy":"3"},{"address3":"Langareeyawas","state":"Rajasthan","state_code":"24","district":"Jaipur","district_code":"110","address1":"Amer","address2":"","latitude":"26.9972","longitude":"75.929","accuracy":"3"},{"address3":"Saipura","state":"Rajasthan","state_code":"24","district":"Jaipur","district_code":"110","address1":"Amer","address2":"","latitude":"26.9835","longitude":"75.9247","accuracy":"4"},{"address3":"Rahori","state":"Rajasthan","state_code":"24","district":"Jaipur","district_code":"110","address1":"Amer","address2":"","latitude":"26.9972","longitude":"75.929","accuracy":"3"},{"address3":"Saiwar","state":"Rajasthan","state_code":"24","district":"Jaipur","district_code":"110","address1":"Amer","address2":"","latitude":"27.0109","longitude":"75.9333","accuracy":"4"},{"address3":"Indergarh","state":"Rajasthan","state_code":"24","district":"Jaipur","district_code":"110","address1":"Amer","address2":"","latitude":"26.9972","longitude":"75.929","accuracy":"3"}],"302028":[{"address3":"Amer","state":"Rajasthan","state_code":"24","district":"Jaipur","district_code":"110","address1":"Amer","address2":"","latitude":"26.9879","longitude":"75.8588","accuracy":"4"},{"address3":"Toda Meena","state":"Rajasthan","state_code":"24","district":"Jaipur","district_code":"110","address1":"Amer","address2":"","latitude":"27.0449","longitude":"75.9218","accuracy":"3"},{"address3":"Basna","state":"Rajasthan","state_code":"24","district":"Jaipur","district_code":"110","address1":"Amer","address2":"","latitude":"27.103","longitude":"75.9913","accuracy":"4"},{"address3":"Bhanpur Kalan","state":"Rajasthan","state_code":"24","district":"Jaipur","district_code":"110","address1":"Amer","address2":"","latitude":"27.0449","longitude":"75.9218","accuracy":"3"},{"address3":"Natata","state":"Rajasthan","state_code":"24","district":"Jaipur","district_code":"110","address1":"Amer","address2":"","latitude":"27.0148","longitude":"75.9004","accuracy":"4"},{"address3":"Bilod","state":"Rajasthan","state_code":"24","district":"Jaipur","district_code":"110","address1":"Amer","address2":"","latitude":"27.0449","longitude":"75.9218","accuracy":"3"},{"address3":"Dhand","state":"Rajasthan","state_code":"24","district":"Jaipur","district_code":"110","address1":"Amer","address2":"","latitude":"27.0737","longitude":"75.9368","accuracy":"4"},{"address3":"Khora Meena","state":"Rajasthan","state_code":"24","district":"Jaipur","district_code":"110","address1":"Amer","address2":"","latitude":"27.0449","longitude":"75.9218","accuracy":"3"},{"address3":"Nangal Soosawatan","state":"Rajasthan","state_code":"24","district":"Jaipur","district_code":"110","address1":"Amer","address2":"","latitude":"27.0449","longitude":"75.9218","accuracy":"3"},{"address3":"Kookas","state":"Rajasthan","state_code":"24","district":"Jaipur","district_code":"110","address1":"Amer","address2":"","latitude":"27.0449","longitude":"75.9218","accuracy":"3"}],"302029":[{"address3":"Neota","state":"Rajasthan","state_code":"24","district":"Jaipur","district_code":"110","address1":"Sanganer","address2":"","latitude":"26.8218","longitude":"75.6987","accuracy":"3"},{"address3":"Airport Sanganer","state":"Rajasthan","state_code":"24","district":"Jaipur","district_code":"110","address1":"Sanganer","address2":"","latitude":"26.8218","longitude":"75.6987","accuracy":"3"},{"address3":"Mahapura","state":"Rajasthan","state_code":"24","district":"Jaipur","district_code":"110","address1":"Sanganer","address2":"","latitude":"26.8471","longitude":"75.6693","accuracy":"4"},{"address3":"Sanganer Bazar","state":"Rajasthan","state_code":"24","district":"Jaipur","district_code":"110","address1":"Sanganer","address2":"","latitude":"26.8218","longitude":"75.6987","accuracy":"3"},{"address3":"Muhana","state":"Rajasthan","state_code":"24","district":"Jaipur","district_code":"110","address1":"Sanganer","address2":"","latitude":"26.7965","longitude":"75.728","accuracy":"4"},{"address3":"Lakhana","state":"Rajasthan","state_code":"24","district":"Jaipur","district_code":"110","address1":"Sanganer","address2":"","latitude":"26.8218","longitude":"75.6987","accuracy":"3"}],"302031":[{"address3":"Luniawas","state":"Rajasthan","state_code":"24","district":"Jaipur","district_code":"110","address1":"Amber","address2":"","latitude":"26.8709","longitude":"75.893","accuracy":"4"},{"address3":"Jamdoli","state":"Rajasthan","state_code":"24","district":"Jaipur","district_code":"110","address1":"Jaipur","address2":"","latitude":"26.6572","longitude":"76.2486","accuracy":"3"},{"address3":"Sumel","state":"Rajasthan","state_code":"24","district":"Jaipur","district_code":"110","address1":"Jaipur","address2":"","latitude":"26.9805","longitude":"75.7243","accuracy":"4"}],"302033":[{"address3":"Pratap Nagar Sector 11","state":"Rajasthan","state_code":"24","district":"Jaipur","district_code":"110","address1":"Sanganer","address2":"","latitude":"26.7602","longitude":"76.0868","accuracy":"1"},{"address3":"Pratap Nagar Housing Board","state":"Rajasthan","state_code":"24","district":"Jaipur","district_code":"110","address1":"Jaipur","address2":"","latitude":"26.7602","longitude":"76.0868","accuracy":"1"}],"302034":[{"address3":"Panchyawala","state":"Rajasthan","state_code":"24","district":"Jaipur","district_code":"110","address1":"Jaipur","address2":"","latitude":"26.7602","longitude":"76.0868","accuracy":"1"}],"302036":[{"address3":"Jaisinghpura Khore","state":"Rajasthan","state_code":"24","district":"Jaipur","district_code":"110","address1":"Jaipur","address2":"","latitude":"26.7602","longitude":"76.0868","accuracy":"1"}],"302037":[{"address3":"Mahindra World City (Jaipur)","state":"Rajasthan","state_code":"24","district":"Jaipur","district_code":"110","address1":"Sanganer","address2":"","latitude":"26.7602","longitude":"76.0868","accuracy":"1"}],"302038":[{"address3":"Kookas","state":"Rajasthan","state_code":"24","district":"Jaipur","district_code":"110","address1":"Jaipur","address2":"","latitude":"26.7602","longitude":"76.0868","accuracy":"1"}],"302039":[{"address3":"Murlipura","state":"Rajasthan","state_code":"24","district":"Jaipur","district_code":"110","address1":"Jaipur","address2":"","latitude":"26.966","longitude":"75.7632","accuracy":"4"},{"address3":"Amba Bari","state":"Rajasthan","state_code":"24","district":"Jaipur","district_code":"110","address1":"Jaipur","address2":"","latitude":"26.966","longitude":"75.7632","accuracy":"3"},{"address3":"Vidhyadhar Nagar","state":"Rajasthan","state_code":"24","district":"Jaipur","district_code":"110","address1":"Jaipur","address2":"","latitude":"26.966","longitude":"75.7632","accuracy":"3"}],"302040":[{"address3":"Nangal Jaisabohara","state":"Rajasthan","state_code":"24","district":"Jaipur","district_code":"110","address1":"Jaipur","address2":"","latitude":"26.8805","longitude":"75.6577","accuracy":"1"}],"302041":[{"address3":"Bindayaka.","state":"Rajasthan","state_code":"24","district":"Jaipur","district_code":"110","address1":"Jaipur","address2":"","latitude":"26.9162","longitude":"75.66","accuracy":"4"},{"address3":"Mundia Rampura","state":"Rajasthan","state_code":"24","district":"Jaipur","district_code":"110","address1":"Jaipur","address2":"","latitude":"26.9225","longitude":"75.6226","accuracy":"3"},{"address3":"Dhankya","state":"Rajasthan","state_code":"24","district":"Jaipur","district_code":"110","address1":"Kalwad","address2":"","latitude":"26.9288","longitude":"75.5852","accuracy":"4"}],"302042":[{"address3":"Bad ke Balaji","state":"Rajasthan","state_code":"24","district":"Jaipur","district_code":"110","address1":"Jaipur","address2":"","latitude":"26.8805","longitude":"75.6577","accuracy":"1"}],"302043":[{"address3":"Muhana","state":"Rajasthan","state_code":"24","district":"Jaipur","district_code":"110","address1":"Jaipur","address2":"","latitude":"26.7965","longitude":"75.728","accuracy":"4"}],"credits":[{"name":"geonames","url":"https://www.geonames.org"}],"last_update":"2019-03-01T09:01:34.452Z"}