{"307001":[{"address3":"Padiv","state":"Rajasthan","state_code":"24","district":"Sirohi","district_code":"117","address1":"NA","address2":"","latitude":"24.9288","longitude":"72.7736","accuracy":"4"},{"address3":"Rampura","state":"Rajasthan","state_code":"24","district":"Sirohi","district_code":"117","address1":"NA","address2":"","latitude":"24.7912","longitude":"72.5215","accuracy":"4"},{"address3":"Dhanta","state":"Rajasthan","state_code":"24","district":"Sirohi","district_code":"117","address1":"Sirohi","address2":"","latitude":"24.8658","longitude":"72.7117","accuracy":"3"},{"address3":"Balda","state":"Rajasthan","state_code":"24","district":"Sirohi","district_code":"117","address1":"Sirohi","address2":"","latitude":"24.8188","longitude":"72.7038","accuracy":"4"},{"address3":"Mandwa","state":"Rajasthan","state_code":"24","district":"Sirohi","district_code":"117","address1":"NA","address2":"","latitude":"24.9243","longitude":"72.8479","accuracy":"4"},{"address3":"Gohili","state":"Rajasthan","state_code":"24","district":"Sirohi","district_code":"117","address1":"NA","address2":"","latitude":"24.8658","longitude":"72.7117","accuracy":"3"},{"address3":"Khambal","state":"Rajasthan","state_code":"24","district":"Sirohi","district_code":"117","address1":"NA","address2":"","latitude":"24.8658","longitude":"72.7117","accuracy":"3"},{"address3":"Krishnaganj","state":"Rajasthan","state_code":"24","district":"Sirohi","district_code":"117","address1":"NA","address2":"","latitude":"24.8658","longitude":"72.7117","accuracy":"3"},{"address3":"Makroda","state":"Rajasthan","state_code":"24","district":"Sirohi","district_code":"117","address1":"NA","address2":"","latitude":"24.8658","longitude":"72.7117","accuracy":"3"},{"address3":"Mamawali","state":"Rajasthan","state_code":"24","district":"Sirohi","district_code":"117","address1":"NA","address2":"","latitude":"24.8658","longitude":"72.7117","accuracy":"3"},{"address3":"Vellangari","state":"Rajasthan","state_code":"24","district":"Sirohi","district_code":"117","address1":"NA","address2":"","latitude":"24.8658","longitude":"72.7117","accuracy":"3"},{"address3":"Sindrath","state":"Rajasthan","state_code":"24","district":"Sirohi","district_code":"117","address1":"NA","address2":"","latitude":"24.8658","longitude":"72.7117","accuracy":"3"},{"address3":"Sirohi Bhatkra","state":"Rajasthan","state_code":"24","district":"Sirohi","district_code":"117","address1":"Sirohi","address2":"","latitude":"24.8658","longitude":"72.7117","accuracy":"3"},{"address3":"Sirohi Sarupvilas","state":"Rajasthan","state_code":"24","district":"Sirohi","district_code":"117","address1":"Sirohi","address2":"","latitude":"24.8658","longitude":"72.7117","accuracy":"3"},{"address3":"Sirohi H.O","state":"Rajasthan","state_code":"24","district":"Sirohi","district_code":"117","address1":"Sirohi","address2":"","latitude":"24.8658","longitude":"72.7117","accuracy":"3"},{"address3":"Dodua","state":"Rajasthan","state_code":"24","district":"Sirohi","district_code":"117","address1":"Sirohi","address2":"","latitude":"24.8658","longitude":"72.7117","accuracy":"3"}],"307019":[{"address3":"Basantgarh","state":"Rajasthan","state_code":"24","district":"Sirohi","district_code":"117","address1":"Pindwara","address2":"","latitude":"24.954","longitude":"73.1047","accuracy":"1"},{"address3":"Jkpuram","state":"Rajasthan","state_code":"24","district":"Sirohi","district_code":"117","address1":"Pindwara","address2":"","latitude":"24.954","longitude":"73.1047","accuracy":"1"}],"307022":[{"address3":"Nandia","state":"Rajasthan","state_code":"24","district":"Sirohi","district_code":"117","address1":"NA","address2":"","latitude":"24.7589","longitude":"72.7743","accuracy":"4"},{"address3":"Pindwara","state":"Rajasthan","state_code":"24","district":"Sirohi","district_code":"117","address1":"Pindwara","address2":"","latitude":"24.7975","longitude":"73.055","accuracy":"4"},{"address3":"Peshua","state":"Rajasthan","state_code":"24","district":"Sirohi","district_code":"117","address1":"NA","address2":"","latitude":"24.8097","longitude":"72.8838","accuracy":"3"},{"address3":"Sanwara","state":"Rajasthan","state_code":"24","district":"Sirohi","district_code":"117","address1":"NA","address2":"","latitude":"24.596","longitude":"72.9732","accuracy":"4"},{"address3":"Ajari","state":"Rajasthan","state_code":"24","district":"Sirohi","district_code":"117","address1":"NA","address2":"","latitude":"24.7608","longitude":"73.0442","accuracy":"4"},{"address3":"Kojra","state":"Rajasthan","state_code":"24","district":"Sirohi","district_code":"117","address1":"NA","address2":"","latitude":"24.7488","longitude":"72.9966","accuracy":"4"},{"address3":"Verwara","state":"Rajasthan","state_code":"24","district":"Sirohi","district_code":"117","address1":"NA","address2":"","latitude":"24.8097","longitude":"72.8838","accuracy":"3"},{"address3":"Janapur","state":"Rajasthan","state_code":"24","district":"Sirohi","district_code":"117","address1":"NA","address2":"","latitude":"24.779","longitude":"73.007","accuracy":"4"},{"address3":"Telpur","state":"Rajasthan","state_code":"24","district":"Sirohi","district_code":"117","address1":"NA","address2":"","latitude":"24.8326","longitude":"72.9358","accuracy":"4"},{"address3":"Moras","state":"Rajasthan","state_code":"24","district":"Sirohi","district_code":"117","address1":"NA","address2":"","latitude":"24.6784","longitude":"73.0918","accuracy":"4"},{"address3":"Jhadoli","state":"Rajasthan","state_code":"24","district":"Sirohi","district_code":"117","address1":"NA","address2":"","latitude":"24.8097","longitude":"72.8838","accuracy":"3"},{"address3":"Sivera","state":"Rajasthan","state_code":"24","district":"Sirohi","district_code":"117","address1":"NA","address2":"","latitude":"24.8097","longitude":"72.8838","accuracy":"3"},{"address3":"Varli","state":"Rajasthan","state_code":"24","district":"Sirohi","district_code":"117","address1":"NA","address2":"","latitude":"24.8097","longitude":"72.8838","accuracy":"3"}],"307023":[{"address3":"Ishra","state":"Rajasthan","state_code":"24","district":"Sirohi","district_code":"117","address1":"NA","address2":"","latitude":"25.2004","longitude":"73.5459","accuracy":"3"},{"address3":"Bhawari","state":"Rajasthan","state_code":"24","district":"Sirohi","district_code":"117","address1":"NA","address2":"","latitude":"24.7589","longitude":"72.7743","accuracy":"4"},{"address3":"Dhanari","state":"Rajasthan","state_code":"24","district":"Sirohi","district_code":"117","address1":"NA","address2":"","latitude":"24.6839","longitude":"72.9274","accuracy":"4"},{"address3":"Sarupganj","state":"Rajasthan","state_code":"24","district":"Sirohi","district_code":"117","address1":"Pindwara","address2":"","latitude":"24.7589","longitude":"72.7743","accuracy":"4"},{"address3":"Nitora","state":"Rajasthan","state_code":"24","district":"Sirohi","district_code":"117","address1":"NA","address2":"","latitude":"25.2004","longitude":"73.5459","accuracy":"3"},{"address3":"Kachholi","state":"Rajasthan","state_code":"24","district":"Sirohi","district_code":"117","address1":"NA","address2":"","latitude":"25.2004","longitude":"73.5459","accuracy":"3"},{"address3":"Mandwarakhalsa","state":"Rajasthan","state_code":"24","district":"Sirohi","district_code":"117","address1":"NA","address2":"","latitude":"25.2004","longitude":"73.5459","accuracy":"3"},{"address3":"Kermandwara","state":"Rajasthan","state_code":"24","district":"Sirohi","district_code":"117","address1":"NA","address2":"","latitude":"25.2004","longitude":"73.5459","accuracy":"3"}],"307024":[{"address3":"Paba","state":"Rajasthan","state_code":"24","district":"Sirohi","district_code":"117","address1":"NA","address2":"","latitude":"24.4727","longitude":"72.9664","accuracy":"4"},{"address3":"Bhula","state":"Rajasthan","state_code":"24","district":"Sirohi","district_code":"117","address1":"NA","address2":"","latitude":"24.5516","longitude":"72.9911","accuracy":"4"},{"address3":"Vasa","state":"Rajasthan","state_code":"24","district":"Sirohi","district_code":"117","address1":"NA","address2":"","latitude":"24.5455","longitude":"72.9727","accuracy":"3"},{"address3":"Rohida","state":"Rajasthan","state_code":"24","district":"Sirohi","district_code":"117","address1":"Aburoad","address2":"","latitude":"24.6122","longitude":"72.9606","accuracy":"4"},{"address3":"Doytra","state":"Rajasthan","state_code":"24","district":"Sirohi","district_code":"117","address1":"NA","address2":"","latitude":"24.5455","longitude":"72.9727","accuracy":"3"},{"address3":"Bhimana R.S.","state":"Rajasthan","state_code":"24","district":"Sirohi","district_code":"117","address1":"NA","address2":"","latitude":"24.5455","longitude":"72.9727","accuracy":"3"},{"address3":"Valoriya","state":"Rajasthan","state_code":"24","district":"Sirohi","district_code":"117","address1":"NA","address2":"","latitude":"24.5455","longitude":"72.9727","accuracy":"3"},{"address3":"Vatera","state":"Rajasthan","state_code":"24","district":"Sirohi","district_code":"117","address1":"NA","address2":"","latitude":"24.5455","longitude":"72.9727","accuracy":"3"}],"307025":[{"address3":"Juda","state":"Rajasthan","state_code":"24","district":"Udaipur","district_code":"130","address1":"Kotra","address2":"","latitude":"24.3298","longitude":"73.2809","accuracy":"3"},{"address3":"Nayawas","state":"Rajasthan","state_code":"24","district":"Udaipur","district_code":"130","address1":"Kotra","address2":"","latitude":"24.4077","longitude":"73.7064","accuracy":"3"},{"address3":"Mahadi","state":"Rajasthan","state_code":"24","district":"Udaipur","district_code":"130","address1":"Kotra","address2":"","latitude":"24.3298","longitude":"73.2809","accuracy":"3"},{"address3":"Barli","state":"Rajasthan","state_code":"24","district":"Udaipur","district_code":"130","address1":"Kotra","address2":"","latitude":"24.3216","longitude":"73.2035","accuracy":"4"},{"address3":"Mahad","state":"Rajasthan","state_code":"24","district":"Udaipur","district_code":"130","address1":"Kotra","address2":"","latitude":"24.3298","longitude":"73.2809","accuracy":"3"},{"address3":"Sada","state":"Rajasthan","state_code":"24","district":"Udaipur","district_code":"130","address1":"Kotra","address2":"","latitude":"24.4077","longitude":"73.7064","accuracy":"3"},{"address3":"Mandawal","state":"Rajasthan","state_code":"24","district":"Udaipur","district_code":"130","address1":"Kotra","address2":"","latitude":"24.3298","longitude":"73.2809","accuracy":"3"},{"address3":"Merpur","state":"Rajasthan","state_code":"24","district":"Udaipur","district_code":"130","address1":"Kotra","address2":"","latitude":"24.6434","longitude":"73.2375","accuracy":"4"},{"address3":"Medi","state":"Rajasthan","state_code":"24","district":"Udaipur","district_code":"130","address1":"Kotra","address2":"","latitude":"24.3298","longitude":"73.2809","accuracy":"3"},{"address3":"Jogiwara","state":"Rajasthan","state_code":"24","district":"Udaipur","district_code":"130","address1":"Kotra","address2":"","latitude":"24.4077","longitude":"73.7064","accuracy":"4"},{"address3":"Sandraf","state":"Rajasthan","state_code":"24","district":"Udaipur","district_code":"130","address1":"Kotra","address2":"","latitude":"24.3298","longitude":"73.2809","accuracy":"3"},{"address3":"Khajuria","state":"Rajasthan","state_code":"24","district":"Udaipur","district_code":"130","address1":"Kotra","address2":"","latitude":"24.4769","longitude":"73.1448","accuracy":"4"},{"address3":"Jed","state":"Rajasthan","state_code":"24","district":"Udaipur","district_code":"130","address1":"Kotra","address2":"","latitude":"24.3298","longitude":"73.2809","accuracy":"3"},{"address3":"Samoli","state":"Rajasthan","state_code":"24","district":"Udaipur","district_code":"130","address1":"Kotra","address2":"","latitude":"24.4077","longitude":"73.7064","accuracy":"3"},{"address3":"Guran","state":"Rajasthan","state_code":"24","district":"Udaipur","district_code":"130","address1":"Kotra","address2":"","latitude":"24.3298","longitude":"73.2809","accuracy":"3"},{"address3":"Mamer","state":"Rajasthan","state_code":"24","district":"Udaipur","district_code":"130","address1":"Kotra","address2":"","latitude":"24.1713","longitude":"73.1297","accuracy":"4"},{"address3":"Dhedmaria","state":"Rajasthan","state_code":"24","district":"Udaipur","district_code":"130","address1":"Kotra","address2":"","latitude":"24.3298","longitude":"73.2809","accuracy":"3"},{"address3":"Mandwa","state":"Rajasthan","state_code":"24","district":"Udaipur","district_code":"130","address1":"Kotra","address2":"","latitude":"24.1902","longitude":"73.2768","accuracy":"4"},{"address3":"Bakhel","state":"Rajasthan","state_code":"24","district":"Udaipur","district_code":"130","address1":"Kotra","address2":"","latitude":"24.3298","longitude":"73.2809","accuracy":"3"},{"address3":"Kagwas","state":"Rajasthan","state_code":"24","district":"Udaipur","district_code":"130","address1":"Kotra","address2":"","latitude":"24.49","longitude":"73.1478","accuracy":"4"},{"address3":"Kotra (Udaipur)","state":"Rajasthan","state_code":"24","district":"Udaipur","district_code":"130","address1":"Kotra","address2":"","latitude":"24.3298","longitude":"73.2809","accuracy":"3"},{"address3":"Bikarni","state":"Rajasthan","state_code":"24","district":"Udaipur","district_code":"130","address1":"Kotra","address2":"","latitude":"24.5371","longitude":"73.1826","accuracy":"4"}],"307026":[{"address3":"Tartoli","state":"Rajasthan","state_code":"24","district":"Sirohi","district_code":"117","address1":"NA","address2":"","latitude":"24.4951","longitude":"72.7955","accuracy":"4"},{"address3":"Derri","state":"Rajasthan","state_code":"24","district":"Sirohi","district_code":"117","address1":"NA","address2":"","latitude":"24.4798","longitude":"72.7153","accuracy":"3"},{"address3":"Bahadurpura","state":"Rajasthan","state_code":"24","district":"Sirohi","district_code":"117","address1":"NA","address2":"","latitude":"24.7589","longitude":"72.7743","accuracy":"3"},{"address3":"Jamburi","state":"Rajasthan","state_code":"24","district":"Sirohi","district_code":"117","address1":"NA","address2":"","latitude":"24.3771","longitude":"72.9259","accuracy":"4"},{"address3":"Dattani","state":"Rajasthan","state_code":"24","district":"Sirohi","district_code":"117","address1":"NA","address2":"","latitude":"24.5303","longitude":"72.5885","accuracy":"4"},{"address3":"Aburoad Diesel Shed","state":"Rajasthan","state_code":"24","district":"Sirohi","district_code":"117","address1":"Abu Road","address2":"","latitude":"24.4798","longitude":"72.7153","accuracy":"3"},{"address3":"Awal","state":"Rajasthan","state_code":"24","district":"Sirohi","district_code":"117","address1":"NA","address2":"","latitude":"24.7589","longitude":"72.7743","accuracy":"3"},{"address3":"Girwar","state":"Rajasthan","state_code":"24","district":"Sirohi","district_code":"117","address1":"NA","address2":"","latitude":"24.4985","longitude":"72.6648","accuracy":"4"},{"address3":"Mawal","state":"Rajasthan","state_code":"24","district":"Sirohi","district_code":"117","address1":"NA","address2":"","latitude":"24.4393","longitude":"72.7118","accuracy":"4"},{"address3":"Aburoad","state":"Rajasthan","state_code":"24","district":"Sirohi","district_code":"117","address1":"Abu Road","address2":"","latitude":"24.4798","longitude":"72.7153","accuracy":"3"},{"address3":"Ore","state":"Rajasthan","state_code":"24","district":"Sirohi","district_code":"117","address1":"NA","address2":"","latitude":"24.4798","longitude":"72.7153","accuracy":"3"},{"address3":"Aburoad Gandhi Nagar","state":"Rajasthan","state_code":"24","district":"Sirohi","district_code":"117","address1":"Abu Road","address2":"","latitude":"24.4798","longitude":"72.7153","accuracy":"3"},{"address3":"Mungthala","state":"Rajasthan","state_code":"24","district":"Sirohi","district_code":"117","address1":"NA","address2":"","latitude":"24.4909","longitude":"72.7203","accuracy":"4"},{"address3":"A.I.A. Aburoad","state":"Rajasthan","state_code":"24","district":"Sirohi","district_code":"117","address1":"Abu Road","address2":"","latitude":"24.4798","longitude":"72.7153","accuracy":"3"},{"address3":"Vasda","state":"Rajasthan","state_code":"24","district":"Sirohi","district_code":"117","address1":"NA","address2":"","latitude":"24.4798","longitude":"72.7153","accuracy":"3"},{"address3":"Chandela","state":"Rajasthan","state_code":"24","district":"Sirohi","district_code":"117","address1":"NA","address2":"","latitude":"24.4798","longitude":"72.7153","accuracy":"3"},{"address3":"Makawal","state":"Rajasthan","state_code":"24","district":"Sirohi","district_code":"117","address1":"NA","address2":"","latitude":"24.5369","longitude":"72.5455","accuracy":"4"},{"address3":"Channar","state":"Rajasthan","state_code":"24","district":"Sirohi","district_code":"117","address1":"NA","address2":"","latitude":"24.4798","longitude":"72.7153","accuracy":"3"},{"address3":"Dhavli","state":"Rajasthan","state_code":"24","district":"Sirohi","district_code":"117","address1":"NA","address2":"","latitude":"24.4798","longitude":"72.7153","accuracy":"3"},{"address3":"Chandrawati","state":"Rajasthan","state_code":"24","district":"Sirohi","district_code":"117","address1":"NA","address2":"","latitude":"24.4798","longitude":"72.7153","accuracy":"3"},{"address3":"Santpur","state":"Rajasthan","state_code":"24","district":"Sirohi","district_code":"117","address1":"NA","address2":"","latitude":"24.4705","longitude":"72.7703","accuracy":"4"},{"address3":"Khadat","state":"Rajasthan","state_code":"24","district":"Sirohi","district_code":"117","address1":"NA","address2":"","latitude":"24.4798","longitude":"72.7153","accuracy":"3"},{"address3":"Kyariya","state":"Rajasthan","state_code":"24","district":"Sirohi","district_code":"117","address1":"NA","address2":"","latitude":"24.4798","longitude":"72.7153","accuracy":"3"},{"address3":"Morthala","state":"Rajasthan","state_code":"24","district":"Sirohi","district_code":"117","address1":"NA","address2":"","latitude":"24.4798","longitude":"72.7153","accuracy":"3"},{"address3":"Siyawa","state":"Rajasthan","state_code":"24","district":"Sirohi","district_code":"117","address1":"NA","address2":"","latitude":"24.4798","longitude":"72.7153","accuracy":"3"},{"address3":"Soorpagla","state":"Rajasthan","state_code":"24","district":"Sirohi","district_code":"117","address1":"NA","address2":"","latitude":"24.4798","longitude":"72.7153","accuracy":"3"}],"307027":[{"address3":"Dhurbana","state":"Rajasthan","state_code":"24","district":"Sirohi","district_code":"117","address1":"NA","address2":"","latitude":"25.1861","longitude":"73.1738","accuracy":"3"},{"address3":"Badgaon","state":"Rajasthan","state_code":"24","district":"Sirohi","district_code":"117","address1":"NA","address2":"","latitude":"24.7589","longitude":"72.7743","accuracy":"4"},{"address3":"Jetpura","state":"Rajasthan","state_code":"24","district":"Sirohi","district_code":"117","address1":"NA","address2":"","latitude":"24.7589","longitude":"72.7743","accuracy":"4"},{"address3":"Sheoganj (Sirohi)","state":"Rajasthan","state_code":"24","district":"Sirohi","district_code":"117","address1":"Sheoganj","address2":"","latitude":"25.1391","longitude":"73.0678","accuracy":"4"},{"address3":"Kesharpura","state":"Rajasthan","state_code":"24","district":"Sirohi","district_code":"117","address1":"NA","address2":"","latitude":"24.7589","longitude":"72.7743","accuracy":"4"}],"307028":[{"address3":"Posalia","state":"Rajasthan","state_code":"24","district":"Sirohi","district_code":"117","address1":"Sheoganj","address2":"","latitude":"24.9141","longitude":"73.0989","accuracy":"1"},{"address3":"Chuli","state":"Rajasthan","state_code":"24","district":"Sirohi","district_code":"117","address1":"NA","address2":"","latitude":"24.7589","longitude":"72.7743","accuracy":"1"},{"address3":"Alpa","state":"Rajasthan","state_code":"24","district":"Sirohi","district_code":"117","address1":"NA","address2":"","latitude":"24.9141","longitude":"73.0989","accuracy":"1"},{"address3":"Bhev","state":"Rajasthan","state_code":"24","district":"Sirohi","district_code":"117","address1":"NA","address2":"","latitude":"24.9141","longitude":"73.0989","accuracy":"1"},{"address3":"Jogapura","state":"Rajasthan","state_code":"24","district":"Sirohi","district_code":"117","address1":"NA","address2":"","latitude":"24.9141","longitude":"73.0989","accuracy":"1"},{"address3":"Joyla","state":"Rajasthan","state_code":"24","district":"Sirohi","district_code":"117","address1":"NA","address2":"","latitude":"24.9141","longitude":"73.0989","accuracy":"1"},{"address3":"Arathwara","state":"Rajasthan","state_code":"24","district":"Sirohi","district_code":"117","address1":"NA","address2":"","latitude":"24.9141","longitude":"73.0989","accuracy":"1"},{"address3":"Khandera","state":"Rajasthan","state_code":"24","district":"Sirohi","district_code":"117","address1":"NA","address2":"","latitude":"24.9141","longitude":"73.0989","accuracy":"1"},{"address3":"Rowada","state":"Rajasthan","state_code":"24","district":"Sirohi","district_code":"117","address1":"NA","address2":"","latitude":"24.9141","longitude":"73.0989","accuracy":"1"}],"307029":[{"address3":"Sanwara","state":"Rajasthan","state_code":"24","district":"Jalor","district_code":"116","address1":"NA","address2":"","latitude":"25.0978","longitude":"72.2119","accuracy":"4"},{"address3":"Bankli","state":"Rajasthan","state_code":"24","district":"Jalor","district_code":"116","address1":"NA","address2":"","latitude":"25.0978","longitude":"72.2119","accuracy":"4"},{"address3":"Nosra","state":"Rajasthan","state_code":"24","district":"Jalor","district_code":"116","address1":"NA","address2":"","latitude":"25.5392","longitude":"72.7865","accuracy":"4"},{"address3":"Samuja","state":"Rajasthan","state_code":"24","district":"Jalor","district_code":"116","address1":"NA","address2":"","latitude":"25.0978","longitude":"72.2119","accuracy":"4"},{"address3":"Bala","state":"Rajasthan","state_code":"24","district":"Jalor","district_code":"116","address1":"NA","address2":"","latitude":"25.0978","longitude":"72.2119","accuracy":"4"},{"address3":"Nimbla","state":"Rajasthan","state_code":"24","district":"Jalor","district_code":"116","address1":"NA","address2":"","latitude":"25.0978","longitude":"72.2119","accuracy":"4"},{"address3":"Ghana","state":"Rajasthan","state_code":"24","district":"Jalor","district_code":"116","address1":"NA","address2":"","latitude":"25.7566","longitude":"72.8229","accuracy":"4"},{"address3":"Sankhwali","state":"Rajasthan","state_code":"24","district":"Jalor","district_code":"116","address1":"NA","address2":"","latitude":"25.466","longitude":"72.8816","accuracy":"4"},{"address3":"Baori","state":"Rajasthan","state_code":"24","district":"Jalor","district_code":"116","address1":"NA","address2":"","latitude":"25.0978","longitude":"72.2119","accuracy":"4"},{"address3":"Aipura","state":"Rajasthan","state_code":"24","district":"Jalor","district_code":"116","address1":"NA","address2":"","latitude":"25.6542","longitude":"73.2873","accuracy":"3"},{"address3":"Rama","state":"Rajasthan","state_code":"24","district":"Jalor","district_code":"116","address1":"NA","address2":"","latitude":"25.6553","longitude":"72.8352","accuracy":"4"},{"address3":"Kishangarh","state":"Rajasthan","state_code":"24","district":"Jalor","district_code":"116","address1":"NA","address2":"","latitude":"25.0978","longitude":"72.2119","accuracy":"4"},{"address3":"Deoki","state":"Rajasthan","state_code":"24","district":"Jalor","district_code":"116","address1":"NA","address2":"","latitude":"25.0978","longitude":"72.2119","accuracy":"3"},{"address3":"Vedia","state":"Rajasthan","state_code":"24","district":"Jalor","district_code":"116","address1":"NA","address2":"","latitude":"25.6542","longitude":"73.2873","accuracy":"3"},{"address3":"Govindla","state":"Rajasthan","state_code":"24","district":"Jalor","district_code":"116","address1":"NA","address2":"","latitude":"25.6542","longitude":"73.2873","accuracy":"3"},{"address3":"Sugalia Jodha","state":"Rajasthan","state_code":"24","district":"Jalor","district_code":"116","address1":"NA","address2":"","latitude":"25.6542","longitude":"73.2873","accuracy":"3"},{"address3":"Neelkanth","state":"Rajasthan","state_code":"24","district":"Jalor","district_code":"116","address1":"NA","address2":"","latitude":"25.6542","longitude":"73.2873","accuracy":"3"},{"address3":"Godan","state":"Rajasthan","state_code":"24","district":"Jalor","district_code":"116","address1":"NA","address2":"","latitude":"25.6542","longitude":"73.2873","accuracy":"3"},{"address3":"Kamba","state":"Rajasthan","state_code":"24","district":"Jalor","district_code":"116","address1":"NA","address2":"","latitude":"25.6542","longitude":"73.2873","accuracy":"3"},{"address3":"Norwa","state":"Rajasthan","state_code":"24","district":"Jalor","district_code":"116","address1":"NA","address2":"","latitude":"25.6542","longitude":"73.2873","accuracy":"3"},{"address3":"Chunda","state":"Rajasthan","state_code":"24","district":"Jalor","district_code":"116","address1":"NA","address2":"","latitude":"25.6542","longitude":"73.2873","accuracy":"3"},{"address3":"Bhadrajun","state":"Rajasthan","state_code":"24","district":"Jalor","district_code":"116","address1":"NA","address2":"","latitude":"25.6542","longitude":"73.2873","accuracy":"3"},{"address3":"Bhorda","state":"Rajasthan","state_code":"24","district":"Jalor","district_code":"116","address1":"NA","address2":"","latitude":"25.6542","longitude":"73.2873","accuracy":"3"},{"address3":"Ahore","state":"Rajasthan","state_code":"24","district":"Jalor","district_code":"116","address1":"Ahore","address2":"","latitude":"25.6542","longitude":"73.2873","accuracy":"3"},{"address3":"Bhenswara","state":"Rajasthan","state_code":"24","district":"Jalor","district_code":"116","address1":"NA","address2":"","latitude":"25.6542","longitude":"73.2873","accuracy":"3"},{"address3":"Badanwari","state":"Rajasthan","state_code":"24","district":"Jalor","district_code":"116","address1":"NA","address2":"","latitude":"25.6542","longitude":"73.2873","accuracy":"3"},{"address3":"Charli","state":"Rajasthan","state_code":"24","district":"Jalor","district_code":"116","address1":"NA","address2":"","latitude":"25.6542","longitude":"73.2873","accuracy":"3"}],"307030":[{"address3":"Chandrai","state":"Rajasthan","state_code":"24","district":"Jalor","district_code":"116","address1":"NA","address2":"","latitude":"25.4281","longitude":"72.9405","accuracy":"4"},{"address3":"Gudabalotan","state":"Rajasthan","state_code":"24","district":"Jalor","district_code":"116","address1":"Ahore","address2":"","latitude":"25.3944","longitude":"73.2853","accuracy":"3"},{"address3":"Paota","state":"Rajasthan","state_code":"24","district":"Jalor","district_code":"116","address1":"NA","address2":"","latitude":"25.0978","longitude":"72.2119","accuracy":"4"},{"address3":"Kawarada","state":"Rajasthan","state_code":"24","district":"Jalor","district_code":"116","address1":"NA","address2":"","latitude":"25.3944","longitude":"73.2853","accuracy":"3"},{"address3":"Bhuti","state":"Rajasthan","state_code":"24","district":"Jalor","district_code":"116","address1":"NA","address2":"","latitude":"25.4636","longitude":"73.0189","accuracy":"4"},{"address3":"Bedana","state":"Rajasthan","state_code":"24","district":"Jalor","district_code":"116","address1":"NA","address2":"","latitude":"25.3944","longitude":"73.2853","accuracy":"3"},{"address3":"Dayalpura","state":"Rajasthan","state_code":"24","district":"Jalor","district_code":"116","address1":"NA","address2":"","latitude":"25.0978","longitude":"72.2119","accuracy":"4"},{"address3":"Bithura","state":"Rajasthan","state_code":"24","district":"Jalor","district_code":"116","address1":"NA","address2":"","latitude":"25.3944","longitude":"73.2853","accuracy":"3"},{"address3":"Palasia","state":"Rajasthan","state_code":"24","district":"Jalor","district_code":"116","address1":"NA","address2":"","latitude":"25.0978","longitude":"72.2119","accuracy":"4"},{"address3":"Panchota","state":"Rajasthan","state_code":"24","district":"Jalor","district_code":"116","address1":"NA","address2":"","latitude":"25.3944","longitude":"73.2853","accuracy":"3"},{"address3":"Rodla","state":"Rajasthan","state_code":"24","district":"Jalor","district_code":"116","address1":"Ahore","address2":"","latitude":"25.4336","longitude":"73.0262","accuracy":"4"},{"address3":"Kawlan","state":"Rajasthan","state_code":"24","district":"Jalor","district_code":"116","address1":"NA","address2":"","latitude":"25.3944","longitude":"73.2853","accuracy":"3"},{"address3":"Padarli","state":"Rajasthan","state_code":"24","district":"Jalor","district_code":"116","address1":"NA","address2":"","latitude":"25.3822","longitude":"72.9714","accuracy":"4"},{"address3":"Agawari","state":"Rajasthan","state_code":"24","district":"Jalor","district_code":"116","address1":"NA","address2":"","latitude":"25.3944","longitude":"73.2853","accuracy":"3"},{"address3":"Umedpur","state":"Rajasthan","state_code":"24","district":"Jalor","district_code":"116","address1":"NA","address2":"","latitude":"25.0978","longitude":"72.2119","accuracy":"4"},{"address3":"Dodiyali","state":"Rajasthan","state_code":"24","district":"Jalor","district_code":"116","address1":"NA","address2":"","latitude":"25.3944","longitude":"73.2853","accuracy":"3"},{"address3":"Valdara","state":"Rajasthan","state_code":"24","district":"Jalor","district_code":"116","address1":"NA","address2":"","latitude":"25.3944","longitude":"73.2853","accuracy":"3"}],"307031":[{"address3":"Amli","state":"Rajasthan","state_code":"24","district":"Sirohi","district_code":"117","address1":"NA","address2":"","latitude":"24.8394","longitude":"73.1245","accuracy":"4"},{"address3":"Thandi Beri","state":"Rajasthan","state_code":"24","district":"Sirohi","district_code":"117","address1":"Pindwara","address2":"","latitude":"24.8394","longitude":"73.1245","accuracy":"3"},{"address3":"Binanigram","state":"Rajasthan","state_code":"24","district":"Sirohi","district_code":"117","address1":"Pindwara","address2":"","latitude":"24.8394","longitude":"73.1245","accuracy":"3"}],"307032":[{"address3":"Deldar","state":"Rajasthan","state_code":"24","district":"Sirohi","district_code":"117","address1":"NA","address2":"","latitude":"25.0225","longitude":"72.6905","accuracy":"4"},{"address3":"Jayadara","state":"Rajasthan","state_code":"24","district":"Sirohi","district_code":"117","address1":"NA","address2":"","latitude":"24.791","longitude":"72.7865","accuracy":"3"},{"address3":"Bharja","state":"Rajasthan","state_code":"24","district":"Sirohi","district_code":"117","address1":"Sirohi","address2":"","latitude":"24.5596","longitude":"72.8825","accuracy":"4"},{"address3":"Uplagarh","state":"Rajasthan","state_code":"24","district":"Sirohi","district_code":"117","address1":"NA","address2":"","latitude":"24.791","longitude":"72.7865","accuracy":"3"},{"address3":"Tankiya","state":"Rajasthan","state_code":"24","district":"Sirohi","district_code":"117","address1":"NA","address2":"","latitude":"24.791","longitude":"72.7865","accuracy":"3"},{"address3":"Nichalagarh","state":"Rajasthan","state_code":"24","district":"Sirohi","district_code":"117","address1":"NA","address2":"","latitude":"24.791","longitude":"72.7865","accuracy":"3"}],"307043":[{"address3":"Bagseen","state":"Rajasthan","state_code":"24","district":"Sirohi","district_code":"117","address1":"NA","address2":"","latitude":"24.02","longitude":"74.1061","accuracy":"3"},{"address3":"Palri M","state":"Rajasthan","state_code":"24","district":"Sirohi","district_code":"117","address1":"Sirohi","address2":"","latitude":"24.02","longitude":"74.1061","accuracy":"3"},{"address3":"Morli","state":"Rajasthan","state_code":"24","district":"Sirohi","district_code":"117","address1":"NA","address2":"","latitude":"24.7589","longitude":"72.7743","accuracy":"4"},{"address3":"Chhibagaon","state":"Rajasthan","state_code":"24","district":"Sirohi","district_code":"117","address1":"NA","address2":"","latitude":"24.02","longitude":"74.1061","accuracy":"3"},{"address3":"Uthman","state":"Rajasthan","state_code":"24","district":"Sirohi","district_code":"117","address1":"NA","address2":"","latitude":"24.02","longitude":"74.1061","accuracy":"3"},{"address3":"Van","state":"Rajasthan","state_code":"24","district":"Sirohi","district_code":"117","address1":"NA","address2":"","latitude":"24.02","longitude":"74.1061","accuracy":"3"},{"address3":"Andore","state":"Rajasthan","state_code":"24","district":"Sirohi","district_code":"117","address1":"NA","address2":"","latitude":"24.02","longitude":"74.1061","accuracy":"3"}],"307501":[{"address3":"Abu","state":"Rajasthan","state_code":"24","district":"Sirohi","district_code":"117","address1":"Aburoad","address2":"","latitude":"24.5936","longitude":"72.7176","accuracy":"4"},{"address3":"Delwara","state":"Rajasthan","state_code":"24","district":"Sirohi","district_code":"117","address1":"Abu Road","address2":"","latitude":"24.6084","longitude":"72.7231","accuracy":"4"},{"address3":"Oriya","state":"Rajasthan","state_code":"24","district":"Sirohi","district_code":"117","address1":"Abu Road","address2":"","latitude":"24.6211","longitude":"72.7423","accuracy":"3"},{"address3":"Utraj","state":"Rajasthan","state_code":"24","district":"Sirohi","district_code":"117","address1":"NA","address2":"","latitude":"24.6614","longitude":"72.7863","accuracy":"4"}],"307510":[{"address3":"Shantivan","state":"Rajasthan","state_code":"24","district":"Sirohi","district_code":"117","address1":"Abu Road","address2":"","latitude":"24.6916","longitude":"72.8039","accuracy":"1"},{"address3":"Akrabhatta","state":"Rajasthan","state_code":"24","district":"Sirohi","district_code":"117","address1":"Abu Road","address2":"","latitude":"24.6916","longitude":"72.8039","accuracy":"1"},{"address3":"Amthala","state":"Rajasthan","state_code":"24","district":"Sirohi","district_code":"117","address1":"NA","address2":"","latitude":"24.6916","longitude":"72.8039","accuracy":"1"},{"address3":"Achpura","state":"Rajasthan","state_code":"24","district":"Sirohi","district_code":"117","address1":"NA","address2":"","latitude":"24.6916","longitude":"72.8039","accuracy":"1"},{"address3":"Ganka","state":"Rajasthan","state_code":"24","district":"Sirohi","district_code":"117","address1":"Abu Road","address2":"","latitude":"24.6916","longitude":"72.8039","accuracy":"1"},{"address3":"Muderla","state":"Rajasthan","state_code":"24","district":"Sirohi","district_code":"117","address1":"NA","address2":"","latitude":"24.6916","longitude":"72.8039","accuracy":"1"},{"address3":"Kiverli","state":"Rajasthan","state_code":"24","district":"Sirohi","district_code":"117","address1":"NA","address2":"","latitude":"24.6916","longitude":"72.8039","accuracy":"1"}],"307511":[{"address3":"Pamera","state":"Rajasthan","state_code":"24","district":"Sirohi","district_code":"117","address1":"NA","address2":"","latitude":"24.6997","longitude":"72.6537","accuracy":"4"},{"address3":"Sanwara","state":"Rajasthan","state_code":"24","district":"Sirohi","district_code":"117","address1":"NA","address2":"","latitude":"24.596","longitude":"72.9732","accuracy":"4"},{"address3":"Dabani","state":"Rajasthan","state_code":"24","district":"Sirohi","district_code":"117","address1":"NA","address2":"","latitude":"24.6203","longitude":"72.6186","accuracy":"4"},{"address3":"Dak","state":"Rajasthan","state_code":"24","district":"Sirohi","district_code":"117","address1":"NA","address2":"","latitude":"24.6122","longitude":"72.6316","accuracy":"4"},{"address3":"Hathal","state":"Rajasthan","state_code":"24","district":"Sirohi","district_code":"117","address1":"NA","address2":"","latitude":"24.6469","longitude":"72.6898","accuracy":"3"},{"address3":"Nagani","state":"Rajasthan","state_code":"24","district":"Sirohi","district_code":"117","address1":"NA","address2":"","latitude":"24.716","longitude":"72.6086","accuracy":"4"},{"address3":"Anadra","state":"Rajasthan","state_code":"24","district":"Sirohi","district_code":"117","address1":"Reodar","address2":"","latitude":"24.6369","longitude":"72.6529","accuracy":"4"},{"address3":"Udwaria","state":"Rajasthan","state_code":"24","district":"Sirohi","district_code":"117","address1":"NA","address2":"","latitude":"24.6469","longitude":"72.6898","accuracy":"3"},{"address3":"Sirodi","state":"Rajasthan","state_code":"24","district":"Sirohi","district_code":"117","address1":"NA","address2":"","latitude":"24.6469","longitude":"72.6898","accuracy":"3"},{"address3":"Positra","state":"Rajasthan","state_code":"24","district":"Sirohi","district_code":"117","address1":"NA","address2":"","latitude":"24.6469","longitude":"72.6898","accuracy":"3"},{"address3":"Malgaon","state":"Rajasthan","state_code":"24","district":"Sirohi","district_code":"117","address1":"NA","address2":"","latitude":"24.6469","longitude":"72.6898","accuracy":"3"},{"address3":"Gulabganj","state":"Rajasthan","state_code":"24","district":"Sirohi","district_code":"117","address1":"NA","address2":"","latitude":"24.6469","longitude":"72.6898","accuracy":"3"}],"307512":[{"address3":"Sanpur","state":"Rajasthan","state_code":"24","district":"Sirohi","district_code":"117","address1":"NA","address2":"","latitude":"25.085","longitude":"72.9061","accuracy":"3"},{"address3":"Dhan","state":"Rajasthan","state_code":"24","district":"Sirohi","district_code":"117","address1":"NA","address2":"","latitude":"24.7051","longitude":"72.5574","accuracy":"4"},{"address3":"Amlari","state":"Rajasthan","state_code":"24","district":"Sirohi","district_code":"117","address1":"NA","address2":"","latitude":"24.7729","longitude":"72.5475","accuracy":"4"},{"address3":"Dantrai","state":"Rajasthan","state_code":"24","district":"Sirohi","district_code":"117","address1":"Reodar","address2":"","latitude":"24.7121","longitude":"72.5185","accuracy":"4"},{"address3":"Nimbaj","state":"Rajasthan","state_code":"24","district":"Sirohi","district_code":"117","address1":"NA","address2":"","latitude":"24.7589","longitude":"72.7743","accuracy":"4"}],"307513":[{"address3":"Mandar (Sirohi)","state":"Rajasthan","state_code":"24","district":"Sirohi","district_code":"117","address1":"Reodar","address2":"","latitude":"24.5591","longitude":"72.3822","accuracy":"4"},{"address3":"Bant","state":"Rajasthan","state_code":"24","district":"Sirohi","district_code":"117","address1":"NA","address2":"","latitude":"24.4606","longitude":"73.5779","accuracy":"3"},{"address3":"Pithapura","state":"Rajasthan","state_code":"24","district":"Sirohi","district_code":"117","address1":"NA","address2":"","latitude":"24.7589","longitude":"72.7743","accuracy":"4"},{"address3":"Sorda","state":"Rajasthan","state_code":"24","district":"Sirohi","district_code":"117","address1":"NA","address2":"","latitude":"24.4606","longitude":"73.5779","accuracy":"3"},{"address3":"Raipur","state":"Rajasthan","state_code":"24","district":"Sirohi","district_code":"117","address1":"NA","address2":"","latitude":"24.7589","longitude":"72.7743","accuracy":"4"},{"address3":"Jetawara","state":"Rajasthan","state_code":"24","district":"Sirohi","district_code":"117","address1":"NA","address2":"","latitude":"24.4606","longitude":"73.5779","accuracy":"3"}],"307514":[{"address3":"Bherugarh","state":"Rajasthan","state_code":"24","district":"Sirohi","district_code":"117","address1":"NA","address2":"","latitude":"24.571","longitude":"72.5201","accuracy":"3"},{"address3":"Lunol","state":"Rajasthan","state_code":"24","district":"Sirohi","district_code":"117","address1":"NA","address2":"","latitude":"24.6135","longitude":"72.584","accuracy":"4"},{"address3":"Varman","state":"Rajasthan","state_code":"24","district":"Sirohi","district_code":"117","address1":"NA","address2":"","latitude":"24.571","longitude":"72.5201","accuracy":"3"},{"address3":"Jolapur","state":"Rajasthan","state_code":"24","district":"Sirohi","district_code":"117","address1":"NA","address2":"","latitude":"24.571","longitude":"72.5201","accuracy":"3"},{"address3":"Reodar","state":"Rajasthan","state_code":"24","district":"Sirohi","district_code":"117","address1":"Reodar","address2":"","latitude":"24.6197","longitude":"72.5262","accuracy":"4"},{"address3":"Marol","state":"Rajasthan","state_code":"24","district":"Sirohi","district_code":"117","address1":"NA","address2":"","latitude":"24.5728","longitude":"72.5207","accuracy":"4"},{"address3":"Jeerawal","state":"Rajasthan","state_code":"24","district":"Sirohi","district_code":"117","address1":"NA","address2":"","latitude":"24.571","longitude":"72.5201","accuracy":"3"},{"address3":"Padar","state":"Rajasthan","state_code":"24","district":"Sirohi","district_code":"117","address1":"NA","address2":"","latitude":"24.4869","longitude":"72.4747","accuracy":"4"},{"address3":"Magriwara","state":"Rajasthan","state_code":"24","district":"Sirohi","district_code":"117","address1":"NA","address2":"","latitude":"24.571","longitude":"72.5201","accuracy":"3"},{"address3":"Basan","state":"Rajasthan","state_code":"24","district":"Sirohi","district_code":"117","address1":"NA","address2":"","latitude":"24.6223","longitude":"72.509","accuracy":"4"},{"address3":"Bhatana","state":"Rajasthan","state_code":"24","district":"Sirohi","district_code":"117","address1":"NA","address2":"","latitude":"24.5109","longitude":"72.5057","accuracy":"4"}],"307515":[{"address3":"Golana","state":"Rajasthan","state_code":"24","district":"Jalor","district_code":"116","address1":"NA","address2":"","latitude":"25.0978","longitude":"72.2119","accuracy":"3"},{"address3":"Jaswantpura","state":"Rajasthan","state_code":"24","district":"Jalor","district_code":"116","address1":"Bhinmal","address2":"","latitude":"24.8036","longitude":"72.46","accuracy":"4"},{"address3":"Dantlawas","state":"Rajasthan","state_code":"24","district":"Jalor","district_code":"116","address1":"NA","address2":"","latitude":"24.8036","longitude":"72.46","accuracy":"3"},{"address3":"Dorda","state":"Rajasthan","state_code":"24","district":"Jalor","district_code":"116","address1":"NA","address2":"","latitude":"24.8036","longitude":"72.46","accuracy":"3"},{"address3":"Gajapura","state":"Rajasthan","state_code":"24","district":"Jalor","district_code":"116","address1":"NA","address2":"","latitude":"24.8036","longitude":"72.46","accuracy":"3"},{"address3":"Kalapura","state":"Rajasthan","state_code":"24","district":"Jalor","district_code":"116","address1":"NA","address2":"","latitude":"24.8036","longitude":"72.46","accuracy":"3"},{"address3":"Rajikawas","state":"Rajasthan","state_code":"24","district":"Jalor","district_code":"116","address1":"NA","address2":"","latitude":"24.8036","longitude":"72.46","accuracy":"3"},{"address3":"Sundhaparbat","state":"Rajasthan","state_code":"24","district":"Sirohi","district_code":"117","address1":"NA","address2":"","latitude":"24.8036","longitude":"72.46","accuracy":"3"}],"307801":[{"address3":"Gol","state":"Rajasthan","state_code":"24","district":"Sirohi","district_code":"117","address1":"NA","address2":"","latitude":"24.7589","longitude":"72.7743","accuracy":"4"},{"address3":"Oda","state":"Rajasthan","state_code":"24","district":"Sirohi","district_code":"117","address1":"NA","address2":"","latitude":"24.7589","longitude":"72.7743","accuracy":"4"},{"address3":"Mandwaria","state":"Rajasthan","state_code":"24","district":"Sirohi","district_code":"117","address1":"NA","address2":"","latitude":"25.1369","longitude":"72.8267","accuracy":"3"},{"address3":"Manadar","state":"Rajasthan","state_code":"24","district":"Sirohi","district_code":"117","address1":"NA","address2":"","latitude":"25.1875","longitude":"72.8279","accuracy":"4"},{"address3":"Jawal","state":"Rajasthan","state_code":"24","district":"Sirohi","district_code":"117","address1":"Sirohi","address2":"","latitude":"24.9919","longitude":"72.7486","accuracy":"4"},{"address3":"Mandwara","state":"Rajasthan","state_code":"24","district":"Sirohi","district_code":"117","address1":"NA","address2":"","latitude":"24.8295","longitude":"72.5527","accuracy":"4"},{"address3":"Lass","state":"Rajasthan","state_code":"24","district":"Sirohi","district_code":"117","address1":"NA","address2":"","latitude":"25.1369","longitude":"72.8267","accuracy":"3"},{"address3":"Deldar","state":"Rajasthan","state_code":"24","district":"Sirohi","district_code":"117","address1":"NA","address2":"","latitude":"25.0225","longitude":"72.6905","accuracy":"4"},{"address3":"Varada","state":"Rajasthan","state_code":"24","district":"Sirohi","district_code":"117","address1":"NA","address2":"","latitude":"25.1369","longitude":"72.8267","accuracy":"3"},{"address3":"Jhadoliveer","state":"Rajasthan","state_code":"24","district":"Sirohi","district_code":"117","address1":"NA","address2":"","latitude":"25.1369","longitude":"72.8267","accuracy":"3"},{"address3":"Manora","state":"Rajasthan","state_code":"24","district":"Sirohi","district_code":"117","address1":"NA","address2":"","latitude":"25.1369","longitude":"72.8267","accuracy":"3"},{"address3":"Mandani","state":"Rajasthan","state_code":"24","district":"Sirohi","district_code":"117","address1":"NA","address2":"","latitude":"24.7589","longitude":"72.7743","accuracy":"3"},{"address3":"Naradara","state":"Rajasthan","state_code":"24","district":"Sirohi","district_code":"117","address1":"NA","address2":"","latitude":"25.1369","longitude":"72.8267","accuracy":"3"},{"address3":"Barloot","state":"Rajasthan","state_code":"24","district":"Sirohi","district_code":"117","address1":"NA","address2":"","latitude":"25.1369","longitude":"72.8267","accuracy":"3"},{"address3":"Udd","state":"Rajasthan","state_code":"24","district":"Sirohi","district_code":"117","address1":"NA","address2":"","latitude":"25.1369","longitude":"72.8267","accuracy":"3"},{"address3":"Bhutgaon","state":"Rajasthan","state_code":"24","district":"Sirohi","district_code":"117","address1":"NA","address2":"","latitude":"25.1369","longitude":"72.8267","accuracy":"3"}],"307802":[{"address3":"Sildar","state":"Rajasthan","state_code":"24","district":"Sirohi","district_code":"117","address1":"NA","address2":"","latitude":"24.7958","longitude":"72.5218","accuracy":"4"},{"address3":"Phungani","state":"Rajasthan","state_code":"24","district":"Sirohi","district_code":"117","address1":"NA","address2":"","latitude":"24.8731","longitude":"72.562","accuracy":"3"},{"address3":"Jela","state":"Rajasthan","state_code":"24","district":"Sirohi","district_code":"117","address1":"NA","address2":"","latitude":"24.8743","longitude":"72.5777","accuracy":"4"},{"address3":"Chadual","state":"Rajasthan","state_code":"24","district":"Sirohi","district_code":"117","address1":"NA","address2":"","latitude":"24.8731","longitude":"72.562","accuracy":"3"},{"address3":"Haliwara","state":"Rajasthan","state_code":"24","district":"Sirohi","district_code":"117","address1":"NA","address2":"","latitude":"24.8474","longitude":"72.5033","accuracy":"4"},{"address3":"Madia","state":"Rajasthan","state_code":"24","district":"Sirohi","district_code":"117","address1":"NA","address2":"","latitude":"24.8731","longitude":"72.562","accuracy":"3"},{"address3":"Nawara","state":"Rajasthan","state_code":"24","district":"Sirohi","district_code":"117","address1":"NA","address2":"","latitude":"24.9751","longitude":"72.6453","accuracy":"4"},{"address3":"Kalandari","state":"Rajasthan","state_code":"24","district":"Sirohi","district_code":"117","address1":"Sirohi","address2":"","latitude":"24.8731","longitude":"72.562","accuracy":"3"},{"address3":"Tanwari","state":"Rajasthan","state_code":"24","district":"Sirohi","district_code":"117","address1":"NA","address2":"","latitude":"24.8731","longitude":"72.562","accuracy":"3"},{"address3":"Sartara","state":"Rajasthan","state_code":"24","district":"Sirohi","district_code":"117","address1":"NA","address2":"","latitude":"24.8731","longitude":"72.562","accuracy":"3"},{"address3":"Mermandwara","state":"Rajasthan","state_code":"24","district":"Sirohi","district_code":"117","address1":"NA","address2":"","latitude":"24.8731","longitude":"72.562","accuracy":"3"},{"address3":"Mohabbatnagar","state":"Rajasthan","state_code":"24","district":"Sirohi","district_code":"117","address1":"NA","address2":"","latitude":"24.8731","longitude":"72.562","accuracy":"3"}],"307803":[{"address3":"Sikwara","state":"Rajasthan","state_code":"24","district":"Jalor","district_code":"116","address1":"NA","address2":"","latitude":"25.0314","longitude":"72.7209","accuracy":"1"},{"address3":"Ramseen","state":"Rajasthan","state_code":"24","district":"Jalor","district_code":"116","address1":"Bhinmal","address2":"","latitude":"25.0314","longitude":"72.7209","accuracy":"1"},{"address3":"Sandhara","state":"Rajasthan","state_code":"24","district":"Jalor","district_code":"116","address1":"NA","address2":"","latitude":"25.0314","longitude":"72.7209","accuracy":"1"},{"address3":"Punakkalan","state":"Rajasthan","state_code":"24","district":"Jalor","district_code":"116","address1":"NA","address2":"","latitude":"25.0314","longitude":"72.7209","accuracy":"1"},{"address3":"Somta","state":"Rajasthan","state_code":"24","district":"Jalor","district_code":"116","address1":"NA","address2":"","latitude":"25.0314","longitude":"72.7209","accuracy":"1"},{"address3":"Chandur","state":"Rajasthan","state_code":"24","district":"Jalor","district_code":"116","address1":"NA","address2":"","latitude":"25.0314","longitude":"72.7209","accuracy":"1"},{"address3":"Mudtrasili","state":"Rajasthan","state_code":"24","district":"Jalor","district_code":"116","address1":"NA","address2":"","latitude":"25.0314","longitude":"72.7209","accuracy":"1"},{"address3":"Thoor","state":"Rajasthan","state_code":"24","district":"Jalor","district_code":"116","address1":"NA","address2":"","latitude":"25.0314","longitude":"72.7209","accuracy":"1"},{"address3":"Boogaon","state":"Rajasthan","state_code":"24","district":"Jalor","district_code":"116","address1":"NA","address2":"","latitude":"25.0314","longitude":"72.7209","accuracy":"1"},{"address3":"Mandoli Nagar","state":"Rajasthan","state_code":"24","district":"Jalor","district_code":"116","address1":"NA","address2":"","latitude":"25.0314","longitude":"72.7209","accuracy":"1"}],"credits":[{"name":"geonames","url":"https://www.geonames.org"}],"last_update":"2019-03-01T09:01:34.658Z"}