{"312001":[{"address3":"Akiya","state":"Rajasthan","state_code":"24","district":"Chittorgarh","district_code":"126","address1":"Chittorgah","address2":"","latitude":"25.0703","longitude":"74.0702","accuracy":"3"},{"address3":"Pipalwas","state":"Rajasthan","state_code":"24","district":"Chittorgarh","district_code":"126","address1":"Chittorgarh","address2":"","latitude":"24.8287","longitude":"74.7797","accuracy":"4"},{"address3":"Deori","state":"Rajasthan","state_code":"24","district":"Chittorgarh","district_code":"126","address1":"Chittorgarh","address2":"","latitude":"24.8287","longitude":"74.7797","accuracy":"4"},{"address3":"Semlia","state":"Rajasthan","state_code":"24","district":"Chittorgarh","district_code":"126","address1":"Chittorgarh","address2":"","latitude":"24.4878","longitude":"74.3744","accuracy":"4"},{"address3":"Chittorgarh H.O","state":"Rajasthan","state_code":"24","district":"Chittorgarh","district_code":"126","address1":"Chittorgarh","address2":"","latitude":"25.0703","longitude":"74.0702","accuracy":"3"},{"address3":"Sehnwa","state":"Rajasthan","state_code":"24","district":"Chittorgarh","district_code":"126","address1":"Chittorgarh","address2":"","latitude":"25.0703","longitude":"74.0702","accuracy":"3"},{"address3":"Chittorgarh Fort","state":"Rajasthan","state_code":"24","district":"Chittorgarh","district_code":"126","address1":"Chittorgarh","address2":"","latitude":"25.0703","longitude":"74.0702","accuracy":"3"},{"address3":"Bansen","state":"Rajasthan","state_code":"24","district":"Chittorgarh","district_code":"126","address1":"Bhadesar","address2":"","latitude":"25.0703","longitude":"74.0702","accuracy":"3"},{"address3":"Ranasanga  Bazar  Chittorgarh","state":"Rajasthan","state_code":"24","district":"Chittorgarh","district_code":"126","address1":"Chittorgarh","address2":"","latitude":"25.0703","longitude":"74.0702","accuracy":"3"},{"address3":"Ochhari","state":"Rajasthan","state_code":"24","district":"Chittorgarh","district_code":"126","address1":"Chittorgarh","address2":"","latitude":"25.0703","longitude":"74.0702","accuracy":"3"},{"address3":"Netawal garh pachhali","state":"Rajasthan","state_code":"24","district":"Chittorgarh","district_code":"126","address1":"Chittorgarh","address2":"","latitude":"25.0703","longitude":"74.0702","accuracy":"3"},{"address3":"Collectorate  Chittorgarh","state":"Rajasthan","state_code":"24","district":"Chittorgarh","district_code":"126","address1":"Cittorgarh","address2":"","latitude":"25.0703","longitude":"74.0702","accuracy":"3"},{"address3":"Semalpura","state":"Rajasthan","state_code":"24","district":"Chittorgarh","district_code":"126","address1":"Chittorgarh","address2":"","latitude":"25.0703","longitude":"74.0702","accuracy":"3"}],"312021":[{"address3":"Barodia","state":"Rajasthan","state_code":"24","district":"Chittorgarh","district_code":"126","address1":"Chittorgarh","address2":"","latitude":"24.8684","longitude":"75.724","accuracy":"4"},{"address3":"Rolahera","state":"Rajasthan","state_code":"24","district":"Chittorgarh","district_code":"126","address1":"Chittorgarh","address2":"","latitude":"24.8684","longitude":"75.724","accuracy":"3"},{"address3":"Sainik School","state":"Rajasthan","state_code":"24","district":"Chittorgarh","district_code":"126","address1":"Chittorgarh","address2":"","latitude":"24.8684","longitude":"75.724","accuracy":"3"},{"address3":"Cement Factory","state":"Rajasthan","state_code":"24","district":"Chittorgarh","district_code":"126","address1":"Chittorgarh","address2":"","latitude":"24.8684","longitude":"75.724","accuracy":"3"},{"address3":"Putholi","state":"Rajasthan","state_code":"24","district":"Chittorgarh","district_code":"126","address1":"Chittorgarh","address2":"","latitude":"24.8684","longitude":"75.724","accuracy":"3"}],"312022":[{"address3":"Kherpura","state":"Rajasthan","state_code":"24","district":"Chittorgarh","district_code":"126","address1":"Begun","address2":"","latitude":"24.8287","longitude":"74.7797","accuracy":"4"},{"address3":"Abhaypur","state":"Rajasthan","state_code":"24","district":"Chittorgarh","district_code":"126","address1":"Chittorgarh","address2":"","latitude":"25.188","longitude":"74.6217","accuracy":"3"},{"address3":"Kheri","state":"Rajasthan","state_code":"24","district":"Chittorgarh","district_code":"126","address1":"Chittorgarh","address2":"","latitude":"25.0797","longitude":"74.9596","accuracy":"4"},{"address3":"Sonagar","state":"Rajasthan","state_code":"24","district":"Chittorgarh","district_code":"126","address1":"Chittorgarh","address2":"","latitude":"25.188","longitude":"74.6217","accuracy":"3"},{"address3":"Nagri","state":"Rajasthan","state_code":"24","district":"Chittorgarh","district_code":"126","address1":"Chittorgarh","address2":"","latitude":"24.8287","longitude":"74.7797","accuracy":"4"},{"address3":"Bijaipur","state":"Rajasthan","state_code":"24","district":"Chittorgarh","district_code":"126","address1":"Chittorgarh","address2":"","latitude":"24.8931","longitude":"74.8066","accuracy":"4"},{"address3":"Bassi (Chittorgarh)","state":"Rajasthan","state_code":"24","district":"Chittorgarh","district_code":"126","address1":"Chittorgarh","address2":"","latitude":"25.188","longitude":"74.6217","accuracy":"3"},{"address3":"Amarpura","state":"Rajasthan","state_code":"24","district":"Chittorgarh","district_code":"126","address1":"Chittorgah","address2":"","latitude":"25.0919","longitude":"74.8961","accuracy":"4"},{"address3":"Sadi","state":"Rajasthan","state_code":"24","district":"Chittorgarh","district_code":"126","address1":"Chittorgarh","address2":"","latitude":"25.188","longitude":"74.6217","accuracy":"3"},{"address3":"Pal","state":"Rajasthan","state_code":"24","district":"Chittorgarh","district_code":"126","address1":"Chitttorgarh","address2":"","latitude":"24.8287","longitude":"74.7797","accuracy":"4"},{"address3":"Anwalhera","state":"Rajasthan","state_code":"24","district":"Chittorgarh","district_code":"126","address1":"Bassi","address2":"","latitude":"25.188","longitude":"74.6217","accuracy":"3"},{"address3":"Gopalpura","state":"Rajasthan","state_code":"24","district":"Chittorgarh","district_code":"126","address1":"Bassi","address2":"","latitude":"25.096","longitude":"74.9658","accuracy":"4"},{"address3":"Bichhor","state":"Rajasthan","state_code":"24","district":"Chittorgarh","district_code":"126","address1":"Begun","address2":"","latitude":"25.188","longitude":"74.6217","accuracy":"3"},{"address3":"Rajgarh","state":"Rajasthan","state_code":"24","district":"Chittorgarh","district_code":"126","address1":"Begun","address2":"","latitude":"25.0881","longitude":"74.8495","accuracy":"4"},{"address3":"Motipura","state":"Rajasthan","state_code":"24","district":"Chittorgarh","district_code":"126","address1":"Begun","address2":"","latitude":"25.1649","longitude":"74.8783","accuracy":"4"},{"address3":"Parsoli","state":"Rajasthan","state_code":"24","district":"Chittorgarh","district_code":"126","address1":"Begun","address2":"","latitude":"25.1087","longitude":"74.885","accuracy":"4"},{"address3":"Dugar","state":"Rajasthan","state_code":"24","district":"Chittorgarh","district_code":"126","address1":"Begun","address2":"","latitude":"25.1163","longitude":"74.8393","accuracy":"4"},{"address3":"Palka","state":"Rajasthan","state_code":"24","district":"Chittorgarh","district_code":"126","address1":"Chittorgah","address2":"","latitude":"25.0261","longitude":"74.7934","accuracy":"4"}],"312023":[{"address3":"Chechi ","state":"Rajasthan","state_code":"24","district":"Chittorgarh","district_code":"126","address1":"Begun","address2":"","latitude":"24.95","longitude":"75.1","accuracy":"4"},{"address3":"Mandawari","state":"Rajasthan","state_code":"24","district":"Chittorgarh","district_code":"126","address1":"Begun","address2":"","latitude":"25.3463","longitude":"74.93","accuracy":"3"},{"address3":"Dorai","state":"Rajasthan","state_code":"24","district":"Chittorgarh","district_code":"126","address1":"Begun","address2":"","latitude":"24.8287","longitude":"74.7797","accuracy":"4"},{"address3":"Begun","state":"Rajasthan","state_code":"24","district":"Chittorgarh","district_code":"126","address1":"Begun","address2":"","latitude":"24.9833","longitude":"75","accuracy":"4"},{"address3":"Daulatpura","state":"Rajasthan","state_code":"24","district":"Chittorgarh","district_code":"126","address1":"Begun","address2":"","latitude":"25.1265","longitude":"74.8492","accuracy":"4"},{"address3":"Nandwai","state":"Rajasthan","state_code":"24","district":"Chittorgarh","district_code":"126","address1":"Begun","address2":"","latitude":"25.004","longitude":"74.9457","accuracy":"4"},{"address3":"Thukrai","state":"Rajasthan","state_code":"24","district":"Chittorgarh","district_code":"126","address1":"Begun","address2":"","latitude":"25.3463","longitude":"74.93","accuracy":"3"},{"address3":"Deopura","state":"Rajasthan","state_code":"24","district":"Chittorgarh","district_code":"126","address1":"Begun","address2":"","latitude":"24.8287","longitude":"74.7797","accuracy":"4"},{"address3":"Balkundikalan","state":"Rajasthan","state_code":"24","district":"Chittorgarh","district_code":"126","address1":"Begun","address2":"","latitude":"25.3463","longitude":"74.93","accuracy":"3"},{"address3":"Jainagar","state":"Rajasthan","state_code":"24","district":"Chittorgarh","district_code":"126","address1":"Begun","address2":"","latitude":"24.8287","longitude":"74.7797","accuracy":"4"},{"address3":"Samaria Khurd","state":"Rajasthan","state_code":"24","district":"Chittorgarh","district_code":"126","address1":"Begun","address2":"","latitude":"25.3463","longitude":"74.93","accuracy":"3"},{"address3":"Sadi","state":"Rajasthan","state_code":"24","district":"Chittorgarh","district_code":"126","address1":"Begun","address2":"","latitude":"25.3463","longitude":"74.93","accuracy":"3"},{"address3":"Dhamancha","state":"Rajasthan","state_code":"24","district":"Chittorgarh","district_code":"126","address1":"Begun","address2":"","latitude":"25.3463","longitude":"74.93","accuracy":"3"},{"address3":"Gulana","state":"Rajasthan","state_code":"24","district":"Chittorgarh","district_code":"126","address1":"Begun","address2":"","latitude":"25.3463","longitude":"74.93","accuracy":"3"},{"address3":"Jawada  1","state":"Rajasthan","state_code":"24","district":"Chittorgarh","district_code":"126","address1":"Begun","address2":"","latitude":"25.3463","longitude":"74.93","accuracy":"3"},{"address3":"Raita","state":"Rajasthan","state_code":"24","district":"Chittorgarh","district_code":"126","address1":"Begun","address2":"","latitude":"25.3463","longitude":"74.93","accuracy":"3"},{"address3":"Katunda","state":"Rajasthan","state_code":"24","district":"Chittorgarh","district_code":"126","address1":"Begun","address2":"","latitude":"25.3463","longitude":"74.93","accuracy":"3"},{"address3":"Rawarda","state":"Rajasthan","state_code":"24","district":"Chittorgarh","district_code":"126","address1":"Begun","address2":"","latitude":"25.3463","longitude":"74.93","accuracy":"3"},{"address3":"Pachunda","state":"Rajasthan","state_code":"24","district":"Chittorgarh","district_code":"126","address1":"Begun","address2":"","latitude":"25.3463","longitude":"74.93","accuracy":"3"}],"312024":[{"address3":"Napania","state":"Rajasthan","state_code":"24","district":"Chittorgarh","district_code":"126","address1":"Bhadesar","address2":"","latitude":"24.8287","longitude":"74.7797","accuracy":"4"},{"address3":"Bhadsaura","state":"Rajasthan","state_code":"24","district":"Chittorgarh","district_code":"126","address1":"Bhadesar","address2":"","latitude":"24.5651","longitude":"73.8896","accuracy":"3"},{"address3":"Sangesara","state":"Rajasthan","state_code":"24","district":"Chittorgarh","district_code":"126","address1":"Doongla","address2":"","latitude":"24.5651","longitude":"73.8896","accuracy":"3"},{"address3":"Leswa","state":"Rajasthan","state_code":"24","district":"Chittorgarh","district_code":"126","address1":"Bhdesar","address2":"","latitude":"24.5651","longitude":"73.8896","accuracy":"3"},{"address3":"Kunthana","state":"Rajasthan","state_code":"24","district":"Chittorgarh","district_code":"126","address1":"Bhadesar","address2":"","latitude":"24.5651","longitude":"73.8896","accuracy":"3"},{"address3":"Morwan","state":"Rajasthan","state_code":"24","district":"Chittorgarh","district_code":"126","address1":"Doongala","address2":"","latitude":"24.5651","longitude":"73.8896","accuracy":"3"},{"address3":"Nagawali","state":"Rajasthan","state_code":"24","district":"Chittorgarh","district_code":"126","address1":"Doongala","address2":"","latitude":"24.5651","longitude":"73.8896","accuracy":"3"},{"address3":"Lothiyana","state":"Rajasthan","state_code":"24","district":"Chittorgarh","district_code":"126","address1":"Bhadesar","address2":"","latitude":"24.5651","longitude":"73.8896","accuracy":"3"},{"address3":"Idra","state":"Rajasthan","state_code":"24","district":"Chittorgarh","district_code":"126","address1":"Bhadesar","address2":"","latitude":"24.5651","longitude":"73.8896","accuracy":"3"},{"address3":"Mangalwar","state":"Rajasthan","state_code":"24","district":"Chittorgarh","district_code":"126","address1":"Doongala","address2":"","latitude":"24.5651","longitude":"73.8896","accuracy":"3"},{"address3":"Bagund","state":"Rajasthan","state_code":"24","district":"Chittorgarh","district_code":"126","address1":"Bhadesar","address2":"","latitude":"24.5651","longitude":"73.8896","accuracy":"3"}],"312025":[{"address3":"Senthi","state":"Rajasthan","state_code":"24","district":"Chittorgarh","district_code":"126","address1":"Chittorgarh","address2":"","latitude":"25.1959","longitude":"74.7421","accuracy":"1"}],"312027":[{"address3":"Dhanet","state":"Rajasthan","state_code":"24","district":"Chittorgarh","district_code":"126","address1":"Bhadesar","address2":"","latitude":"25.1959","longitude":"74.7421","accuracy":"1"},{"address3":"Chikarada","state":"Rajasthan","state_code":"24","district":"Chittorgarh","district_code":"126","address1":"Bhadesar","address2":"","latitude":"25.1959","longitude":"74.7421","accuracy":"1"},{"address3":"Akola Kalan","state":"Rajasthan","state_code":"24","district":"Chittorgarh","district_code":"126","address1":"Bhadesar","address2":"","latitude":"25.1959","longitude":"74.7421","accuracy":"1"},{"address3":"Mandfia","state":"Rajasthan","state_code":"24","district":"Chittorgarh","district_code":"126","address1":"Bhadesar","address2":"","latitude":"25.1959","longitude":"74.7421","accuracy":"1"},{"address3":"Bhatoli Bagrian","state":"Rajasthan","state_code":"24","district":"Chittorgarh","district_code":"126","address1":"Bhadesar","address2":"","latitude":"25.1959","longitude":"74.7421","accuracy":"1"},{"address3":"Nadakhera","state":"Rajasthan","state_code":"24","district":"Chittorgarh","district_code":"126","address1":"Bhadesar","address2":"","latitude":"25.1959","longitude":"74.7421","accuracy":"1"}],"312201":[{"address3":"Surpur","state":"Rajasthan","state_code":"24","district":"Chittorgarh","district_code":"126","address1":"Chittorgarh","address2":"","latitude":"24.8287","longitude":"74.7797","accuracy":"4"},{"address3":"Gosunda","state":"Rajasthan","state_code":"24","district":"Chittorgarh","district_code":"126","address1":"Chittorgarh","address2":"","latitude":"24.8556","longitude":"74.5355","accuracy":"4"},{"address3":"Odund","state":"Rajasthan","state_code":"24","district":"Chittorgarh","district_code":"126","address1":"Chittorgarh","address2":"","latitude":"24.3526","longitude":"74.115","accuracy":"3"},{"address3":"Satpura","state":"Rajasthan","state_code":"24","district":"Chittorgarh","district_code":"126","address1":"Chittorgarh","address2":"","latitude":"24.8287","longitude":"74.7797","accuracy":"3"},{"address3":"Rewlia Khurd","state":"Rajasthan","state_code":"24","district":"Chittorgarh","district_code":"126","address1":"Chittorgarh","address2":"","latitude":"24.3526","longitude":"74.115","accuracy":"3"},{"address3":"Dhanet Kalan","state":"Rajasthan","state_code":"24","district":"Chittorgarh","district_code":"126","address1":"Chittorgarh","address2":"","latitude":"24.3526","longitude":"74.115","accuracy":"3"},{"address3":"Mishron Ki Pipli","state":"Rajasthan","state_code":"24","district":"Chittorgarh","district_code":"126","address1":"Chittorgarh","address2":"","latitude":"24.3526","longitude":"74.115","accuracy":"3"},{"address3":"Kashmore","state":"Rajasthan","state_code":"24","district":"Chittorgarh","district_code":"126","address1":"Chittorgarh","address2":"","latitude":"24.3526","longitude":"74.115","accuracy":"3"},{"address3":"Kanthariya Chobe Ji Ka","state":"Rajasthan","state_code":"24","district":"Chittorgarh","district_code":"126","address1":"Chittorgarh","address2":"","latitude":"24.3526","longitude":"74.115","accuracy":"3"},{"address3":"Pandolimataji Ki","state":"Rajasthan","state_code":"24","district":"Chittorgarh","district_code":"126","address1":"Chittorgarh","address2":"","latitude":"24.3526","longitude":"74.115","accuracy":"3"}],"312202":[{"address3":"Kapasan  Town","state":"Rajasthan","state_code":"24","district":"Chittorgarh","district_code":"126","address1":"Kapasan","address2":"","latitude":"24.8287","longitude":"74.7797","accuracy":"3"},{"address3":"Rolia","state":"Rajasthan","state_code":"24","district":"Chittorgarh","district_code":"126","address1":"Kapasan","address2":"","latitude":"24.6615","longitude":"74.1782","accuracy":"3"},{"address3":"Uchnarkhurd","state":"Rajasthan","state_code":"24","district":"Chittorgarh","district_code":"126","address1":"Kapasan","address2":"","latitude":"24.6615","longitude":"74.1782","accuracy":"3"},{"address3":"Dhamana","state":"Rajasthan","state_code":"24","district":"Chittorgarh","district_code":"126","address1":"Kapasan","address2":"","latitude":"24.8287","longitude":"74.7797","accuracy":"4"},{"address3":"Kapasan","state":"Rajasthan","state_code":"24","district":"Chittorgarh","district_code":"126","address1":"Kapasan","address2":"","latitude":"24.8894","longitude":"74.3167","accuracy":"4"},{"address3":"Pandoli S T","state":"Rajasthan","state_code":"24","district":"Chittorgarh","district_code":"126","address1":"Kapasan","address2":"","latitude":"24.6615","longitude":"74.1782","accuracy":"3"},{"address3":"Jashma","state":"Rajasthan","state_code":"24","district":"Chittorgarh","district_code":"126","address1":"Kapasan","address2":"","latitude":"24.9469","longitude":"74.2286","accuracy":"4"},{"address3":"Damakhera","state":"Rajasthan","state_code":"24","district":"Chittorgarh","district_code":"126","address1":"Kapasan","address2":"","latitude":"24.6615","longitude":"74.1782","accuracy":"3"},{"address3":"Nimbahera","state":"Rajasthan","state_code":"24","district":"Chittorgarh","district_code":"126","address1":"Kapasan","address2":"","latitude":"24.6217","longitude":"74.68","accuracy":"4"},{"address3":"Balarada","state":"Rajasthan","state_code":"24","district":"Chittorgarh","district_code":"126","address1":"Kapasan","address2":"","latitude":"24.6615","longitude":"74.1782","accuracy":"3"},{"address3":"Anoppura","state":"Rajasthan","state_code":"24","district":"Chittorgarh","district_code":"126","address1":"Kapasan","address2":"","latitude":"24.6615","longitude":"74.1782","accuracy":"3"},{"address3":"Hathiyana","state":"Rajasthan","state_code":"24","district":"Chittorgarh","district_code":"126","address1":"Kapasan","address2":"","latitude":"24.6615","longitude":"74.1782","accuracy":"3"},{"address3":"Dowani","state":"Rajasthan","state_code":"24","district":"Chittorgarh","district_code":"126","address1":"Kapasan","address2":"","latitude":"24.6615","longitude":"74.1782","accuracy":"3"},{"address3":"Bhatton Ka Bamniya","state":"Rajasthan","state_code":"24","district":"Chittorgarh","district_code":"126","address1":"Kapasan","address2":"","latitude":"24.6615","longitude":"74.1782","accuracy":"3"}],"312203":[{"address3":"Marmi","state":"Rajasthan","state_code":"24","district":"Chittorgarh","district_code":"126","address1":"Rashmi","address2":"","latitude":"25.0985","longitude":"74.435","accuracy":"4"},{"address3":"Rashmi","state":"Rajasthan","state_code":"24","district":"Chittorgarh","district_code":"126","address1":"Rashmi","address2":"","latitude":"25.0649","longitude":"74.3938","accuracy":"3"},{"address3":"Bhimgarh","state":"Rajasthan","state_code":"24","district":"Chittorgarh","district_code":"126","address1":"Rashmi","address2":"","latitude":"25.0236","longitude":"74.3996","accuracy":"4"},{"address3":"Harnathpur","state":"Rajasthan","state_code":"24","district":"Chittorgarh","district_code":"126","address1":"Rashmi","address2":"","latitude":"25.0649","longitude":"74.3938","accuracy":"3"},{"address3":"Muroli","state":"Rajasthan","state_code":"24","district":"Chittorgarh","district_code":"126","address1":"Rasmi","address2":"","latitude":"25.075","longitude":"74.4191","accuracy":"4"},{"address3":"Dindoli","state":"Rajasthan","state_code":"24","district":"Chittorgarh","district_code":"126","address1":"Rashmi","address2":"","latitude":"25.0649","longitude":"74.3938","accuracy":"3"},{"address3":"Arni","state":"Rajasthan","state_code":"24","district":"Chittorgarh","district_code":"126","address1":"Rashmi","address2":"","latitude":"25.0689","longitude":"74.3071","accuracy":"4"},{"address3":"Adana","state":"Rajasthan","state_code":"24","district":"Chittorgarh","district_code":"126","address1":"Rashmi","address2":"","latitude":"25.0649","longitude":"74.3938","accuracy":"3"},{"address3":"Sankhali","state":"Rajasthan","state_code":"24","district":"Chittorgarh","district_code":"126","address1":"Rashmi","address2":"","latitude":"25.0649","longitude":"74.3938","accuracy":"3"},{"address3":"Upreda","state":"Rajasthan","state_code":"24","district":"Chittorgarh","district_code":"126","address1":"Rashmi","address2":"","latitude":"25.0649","longitude":"74.3938","accuracy":"3"},{"address3":"Jadana","state":"Rajasthan","state_code":"24","district":"Chittorgarh","district_code":"126","address1":"Rashmi","address2":"","latitude":"25.0583","longitude":"74.408","accuracy":"4"}],"312204":[{"address3":"Kanakhera","state":"Rajasthan","state_code":"24","district":"Chittorgarh","district_code":"126","address1":"NA","address2":"","latitude":"24.8287","longitude":"74.7797","accuracy":"4"},{"address3":"Pari","state":"Rajasthan","state_code":"24","district":"Chittorgarh","district_code":"126","address1":"Bhupalsagar","address2":"","latitude":"24.8287","longitude":"74.7797","accuracy":"4"},{"address3":"Usrol","state":"Rajasthan","state_code":"24","district":"Chittorgarh","district_code":"126","address1":"Bhupalsagar","address2":"","latitude":"24.8614","longitude":"73.9825","accuracy":"3"},{"address3":"Palasia","state":"Rajasthan","state_code":"24","district":"Chittorgarh","district_code":"126","address1":"Bhupalsagar","address2":"","latitude":"24.8287","longitude":"74.7797","accuracy":"4"},{"address3":"Kankarwa","state":"Rajasthan","state_code":"24","district":"Chittorgarh","district_code":"126","address1":"Bhuopalsagar","address2":"","latitude":"24.8614","longitude":"73.9825","accuracy":"3"},{"address3":"Babarana","state":"Rajasthan","state_code":"24","district":"Chittorgarh","district_code":"126","address1":"NA","address2":"","latitude":"24.8614","longitude":"73.9825","accuracy":"3"},{"address3":"Bhoopal  Nagar","state":"Rajasthan","state_code":"24","district":"Chittorgarh","district_code":"126","address1":"Bhupalsagar","address2":"","latitude":"24.8614","longitude":"73.9825","accuracy":"3"},{"address3":"Phalasiya","state":"Rajasthan","state_code":"24","district":"Chittorgarh","district_code":"126","address1":"Bhupalsagar","address2":"","latitude":"24.8614","longitude":"73.9825","accuracy":"3"},{"address3":"Bhoopal sagar","state":"Rajasthan","state_code":"24","district":"Chittorgarh","district_code":"126","address1":"Bhupalsagar","address2":"","latitude":"24.8614","longitude":"73.9825","accuracy":"3"}],"312205":[{"address3":"Akola (Chittorgarh)","state":"Rajasthan","state_code":"24","district":"Chittorgarh","district_code":"126","address1":"Bhupalsagar","address2":"","latitude":"24.7569","longitude":"74.1991","accuracy":"4"},{"address3":"Gundli","state":"Rajasthan","state_code":"24","district":"Chittorgarh","district_code":"126","address1":"Akola","address2":"","latitude":"24.8287","longitude":"74.7797","accuracy":"4"},{"address3":"Tana","state":"Rajasthan","state_code":"24","district":"Chittorgarh","district_code":"126","address1":"Bhupalsagar","address2":"","latitude":"24.6966","longitude":"74.1975","accuracy":"4"},{"address3":"Murla","state":"Rajasthan","state_code":"24","district":"Chittorgarh","district_code":"126","address1":"Bhupalsagar","address2":"","latitude":"24.7482","longitude":"74.1626","accuracy":"4"},{"address3":"Chorwadi","state":"Rajasthan","state_code":"24","district":"Chittorgarh","district_code":"126","address1":"Bhopalsagar","address2":"","latitude":"24.8823","longitude":"74.2559","accuracy":"3"},{"address3":"Patoliya","state":"Rajasthan","state_code":"24","district":"Chittorgarh","district_code":"126","address1":"Bhupalsagar","address2":"","latitude":"24.8823","longitude":"74.2559","accuracy":"3"},{"address3":"Umand","state":"Rajasthan","state_code":"24","district":"Chittorgarh","district_code":"126","address1":"Bhupalsagar","address2":"","latitude":"24.8823","longitude":"74.2559","accuracy":"3"},{"address3":"Nilod","state":"Rajasthan","state_code":"24","district":"Chittorgarh","district_code":"126","address1":"Bhupalsagar","address2":"","latitude":"24.8823","longitude":"74.2559","accuracy":"3"},{"address3":"Chakunda","state":"Rajasthan","state_code":"24","district":"Chittorgarh","district_code":"126","address1":"Bhupalsagar","address2":"","latitude":"24.8823","longitude":"74.2559","accuracy":"3"},{"address3":"Karjali","state":"Rajasthan","state_code":"24","district":"Chittorgarh","district_code":"126","address1":"Bhupalsagar","address2":"","latitude":"24.8823","longitude":"74.2559","accuracy":"3"}],"312206":[{"address3":"Sihana","state":"Rajasthan","state_code":"24","district":"Chittorgarh","district_code":"126","address1":"Gangrar","address2":"","latitude":"25.1295","longitude":"74.4326","accuracy":"3"},{"address3":"Lasadiaya Kalan","state":"Rajasthan","state_code":"24","district":"Chittorgarh","district_code":"126","address1":"Rashmi","address2":"","latitude":"25.1295","longitude":"74.4326","accuracy":"3"},{"address3":"Pahuna","state":"Rajasthan","state_code":"24","district":"Chittorgarh","district_code":"126","address1":"Rashmi","address2":"","latitude":"25.1343","longitude":"74.4344","accuracy":"4"},{"address3":"Nevaria","state":"Rajasthan","state_code":"24","district":"Chittorgarh","district_code":"126","address1":"Gangrar","address2":"","latitude":"25.1295","longitude":"74.4326","accuracy":"3"},{"address3":"Rewara","state":"Rajasthan","state_code":"24","district":"Chittorgarh","district_code":"126","address1":"Rashmi","address2":"","latitude":"25.1351","longitude":"74.367","accuracy":"4"},{"address3":"Bhalotan Ki Kheri","state":"Rajasthan","state_code":"24","district":"Chittorgarh","district_code":"126","address1":"Rashmi","address2":"","latitude":"25.1192","longitude":"74.4964","accuracy":"4"}],"312207":[{"address3":"Jitiya","state":"Rajasthan","state_code":"24","district":"Chittorgarh","district_code":"126","address1":"Kapasan","address2":"","latitude":"24.8287","longitude":"74.7797","accuracy":"4"},{"address3":"Tumbadia","state":"Rajasthan","state_code":"24","district":"Chittorgarh","district_code":"126","address1":"Chittorgarh","address2":"","latitude":"25.1421","longitude":"74.5957","accuracy":"3"},{"address3":"Maharaaj Ki Netawal","state":"Rajasthan","state_code":"24","district":"Chittorgarh","district_code":"126","address1":"Kapasan","address2":"","latitude":"25.1421","longitude":"74.5957","accuracy":"3"},{"address3":"Narela","state":"Rajasthan","state_code":"24","district":"Chittorgarh","district_code":"126","address1":"Kapasan","address2":"","latitude":"25.1421","longitude":"74.5957","accuracy":"3"},{"address3":"Baru","state":"Rajasthan","state_code":"24","district":"Chittorgarh","district_code":"126","address1":"Rasmi","address2":"","latitude":"25.0092","longitude":"74.4581","accuracy":"4"},{"address3":"Banakiyakalan","state":"Rajasthan","state_code":"24","district":"Chittorgarh","district_code":"126","address1":"Kapasan","address2":"","latitude":"25.1421","longitude":"74.5957","accuracy":"3"},{"address3":"Langach","state":"Rajasthan","state_code":"24","district":"Chittorgarh","district_code":"126","address1":"Kapasan","address2":"","latitude":"25.1421","longitude":"74.5957","accuracy":"3"},{"address3":"Singhpur (Chittorgarh)","state":"Rajasthan","state_code":"24","district":"Chittorgarh","district_code":"126","address1":"Kapasan","address2":"","latitude":"25.1421","longitude":"74.5957","accuracy":"3"},{"address3":"Hingoria","state":"Rajasthan","state_code":"24","district":"Chittorgarh","district_code":"126","address1":"Kapasan","address2":"","latitude":"25.1421","longitude":"74.5957","accuracy":"3"}],"312401":[{"address3":"Bansi (Chittorgarh)","state":"Rajasthan","state_code":"24","district":"Chittorgarh","district_code":"126","address1":"Barisadari","address2":"","latitude":"25.3276","longitude":"75.4568","accuracy":"1"},{"address3":"Badwal","state":"Rajasthan","state_code":"24","district":"Chittorgarh","district_code":"126","address1":"Bari Sadari","address2":"","latitude":"25.3276","longitude":"75.4568","accuracy":"1"},{"address3":"Kewalpura","state":"Rajasthan","state_code":"24","district":"Chittorgarh","district_code":"126","address1":"Bari Sadari","address2":"","latitude":"25.3276","longitude":"75.4568","accuracy":"1"},{"address3":"Mahuda","state":"Rajasthan","state_code":"24","district":"Chittorgarh","district_code":"126","address1":"Bari Sadari","address2":"","latitude":"25.3276","longitude":"75.4568","accuracy":"1"}],"312402":[{"address3":"Palod","state":"Rajasthan","state_code":"24","district":"Chittorgarh","district_code":"126","address1":"Doongla","address2":"","latitude":"25.5144","longitude":"76.8822","accuracy":"3"},{"address3":"Biloda","state":"Rajasthan","state_code":"24","district":"Chittorgarh","district_code":"126","address1":"Doongla","address2":"","latitude":"24.8287","longitude":"74.7797","accuracy":"4"},{"address3":"Rawatpura","state":"Rajasthan","state_code":"24","district":"Chittorgarh","district_code":"126","address1":"Doongla","address2":"","latitude":"24.8287","longitude":"74.7797","accuracy":"4"},{"address3":"Semlia Peela Khera","state":"Rajasthan","state_code":"24","district":"Chittorgarh","district_code":"126","address1":"Doongla","address2":"","latitude":"25.5144","longitude":"76.8822","accuracy":"3"},{"address3":"Doongla","state":"Rajasthan","state_code":"24","district":"Chittorgarh","district_code":"126","address1":"Doongla","address2":"","latitude":"25.5144","longitude":"76.8822","accuracy":"3"},{"address3":"Pirana","state":"Rajasthan","state_code":"24","district":"Chittorgarh","district_code":"126","address1":"Doongla","address2":"","latitude":"25.5144","longitude":"76.8822","accuracy":"3"},{"address3":"Badwai","state":"Rajasthan","state_code":"24","district":"Chittorgarh","district_code":"126","address1":"Doongla","address2":"","latitude":"25.5144","longitude":"76.8822","accuracy":"3"},{"address3":"Phalodra","state":"Rajasthan","state_code":"24","district":"Chittorgarh","district_code":"126","address1":"Doongla","address2":"","latitude":"25.5144","longitude":"76.8822","accuracy":"3"},{"address3":"Arned","state":"Rajasthan","state_code":"24","district":"Chittorgarh","district_code":"126","address1":"Doongla","address2":"","latitude":"25.5144","longitude":"76.8822","accuracy":"3"}],"312403":[{"address3":"Kiratpura","state":"Rajasthan","state_code":"24","district":"Chittorgarh","district_code":"126","address1":"Bari Sadari","address2":"","latitude":"24.8287","longitude":"74.7797","accuracy":"4"},{"address3":"Parsoli","state":"Rajasthan","state_code":"24","district":"Chittorgarh","district_code":"126","address1":"Barisadari","address2":"","latitude":"25.1087","longitude":"74.885","accuracy":"4"},{"address3":"Barisadari","state":"Rajasthan","state_code":"24","district":"Chittorgarh","district_code":"126","address1":"Barisadari","address2":"","latitude":"24.9559","longitude":"74.6593","accuracy":"3"},{"address3":"Karju","state":"Rajasthan","state_code":"24","district":"Chittorgarh","district_code":"126","address1":"Bari Sadrai","address2":"","latitude":"24.9559","longitude":"74.6593","accuracy":"3"},{"address3":"Satola","state":"Rajasthan","state_code":"24","district":"Chittorgarh","district_code":"126","address1":"Barisadari","address2":"","latitude":"24.8287","longitude":"74.7797","accuracy":"4"},{"address3":"Jarkhana","state":"Rajasthan","state_code":"24","district":"Chittorgarh","district_code":"126","address1":"Bari Sadrai","address2":"","latitude":"24.9559","longitude":"74.6593","accuracy":"3"},{"address3":"Khardeola","state":"Rajasthan","state_code":"24","district":"Chittorgarh","district_code":"126","address1":"Bari Sadari","address2":"","latitude":"24.9559","longitude":"74.6593","accuracy":"3"},{"address3":"Laxmipura","state":"Rajasthan","state_code":"24","district":"Chittorgarh","district_code":"126","address1":"Barisadri","address2":"","latitude":"24.9559","longitude":"74.6593","accuracy":"3"},{"address3":"Bhatoli Brahmnan","state":"Rajasthan","state_code":"24","district":"Chittorgarh","district_code":"126","address1":"Barisadari","address2":"","latitude":"24.9559","longitude":"74.6593","accuracy":"3"},{"address3":"Munjwa","state":"Rajasthan","state_code":"24","district":"Chittorgarh","district_code":"126","address1":"Barisadari","address2":"","latitude":"24.9559","longitude":"74.6593","accuracy":"3"},{"address3":"Manpura Jagir","state":"Rajasthan","state_code":"24","district":"Chittorgarh","district_code":"126","address1":"Bari Sadari","address2":"","latitude":"24.9559","longitude":"74.6593","accuracy":"3"},{"address3":"Ratichandjikakhera","state":"Rajasthan","state_code":"24","district":"Chittorgarh","district_code":"126","address1":"Barisadari","address2":"","latitude":"24.9559","longitude":"74.6593","accuracy":"3"}],"312404":[{"address3":"Alod","state":"Rajasthan","state_code":"24","district":"Chittorgarh","district_code":"126","address1":"Bari Sadari","address2":"","latitude":"24.8287","longitude":"74.7797","accuracy":"4"},{"address3":"Sangria","state":"Rajasthan","state_code":"24","district":"Chittorgarh","district_code":"126","address1":"Barisadari","address2":"","latitude":"24.8287","longitude":"74.7797","accuracy":"4"},{"address3":"Phalodara","state":"Rajasthan","state_code":"24","district":"Chittorgarh","district_code":"126","address1":"Barisadari","address2":"","latitude":"25.6983","longitude":"75.2276","accuracy":"3"},{"address3":"Delwas","state":"Rajasthan","state_code":"24","district":"Chittorgarh","district_code":"126","address1":"Doongala","address2":"","latitude":"25.6983","longitude":"75.2276","accuracy":"3"},{"address3":"Bohera","state":"Rajasthan","state_code":"24","district":"Chittorgarh","district_code":"126","address1":"Nimbahera","address2":"","latitude":"25.6983","longitude":"75.2276","accuracy":"3"},{"address3":"Karsana","state":"Rajasthan","state_code":"24","district":"Chittorgarh","district_code":"126","address1":"Doongala","address2":"","latitude":"25.6983","longitude":"75.2276","accuracy":"3"},{"address3":"Binayaka","state":"Rajasthan","state_code":"24","district":"Chittorgarh","district_code":"126","address1":"Bari Sadari","address2":"","latitude":"25.6983","longitude":"75.2276","accuracy":"3"}],"312601":[{"address3":"Ranikhera","state":"Rajasthan","state_code":"24","district":"Chittorgarh","district_code":"126","address1":"Nimbahera","address2":"","latitude":"24.8287","longitude":"74.7797","accuracy":"3"},{"address3":"Jaliya","state":"Rajasthan","state_code":"24","district":"Chittorgarh","district_code":"126","address1":"Nimbahera","address2":"","latitude":"24.8287","longitude":"74.7797","accuracy":"4"},{"address3":"Rassoolpura","state":"Rajasthan","state_code":"24","district":"Chittorgarh","district_code":"126","address1":"Nimbahera","address2":"","latitude":"24.5279","longitude":"74.6289","accuracy":"3"},{"address3":"Doria","state":"Rajasthan","state_code":"24","district":"Chittorgarh","district_code":"126","address1":"Nimbahera","address2":"","latitude":"24.8287","longitude":"74.7797","accuracy":"4"},{"address3":"Marjivi","state":"Rajasthan","state_code":"24","district":"Chittorgarh","district_code":"126","address1":"Nimbahera","address2":"","latitude":"24.5279","longitude":"74.6289","accuracy":"3"},{"address3":"Gadola","state":"Rajasthan","state_code":"24","district":"Chittorgarh","district_code":"126","address1":"Nimbahera","address2":"","latitude":"24.5279","longitude":"74.6289","accuracy":"3"},{"address3":"Phalwa","state":"Rajasthan","state_code":"24","district":"Chittorgarh","district_code":"126","address1":"Nimbahera","address2":"","latitude":"24.8287","longitude":"74.7797","accuracy":"4"},{"address3":"Nimbahera","state":"Rajasthan","state_code":"24","district":"Chittorgarh","district_code":"126","address1":"Nimbahera","address2":"","latitude":"24.6217","longitude":"74.68","accuracy":"4"},{"address3":"Dalla (Kishanpura)","state":"Rajasthan","state_code":"24","district":"Chittorgarh","district_code":"126","address1":"Nimbahera","address2":"","latitude":"24.5279","longitude":"74.6289","accuracy":"3"},{"address3":"Basera","state":"Rajasthan","state_code":"24","district":"Chittorgarh","district_code":"126","address1":"Nimbahera","address2":"","latitude":"24.8287","longitude":"74.7797","accuracy":"4"},{"address3":"Badolimadhosingh","state":"Rajasthan","state_code":"24","district":"Chittorgarh","district_code":"126","address1":"Nimbahera","address2":"","latitude":"24.5279","longitude":"74.6289","accuracy":"3"},{"address3":"Bangreda","state":"Rajasthan","state_code":"24","district":"Chittorgarh","district_code":"126","address1":"Nimbahera","address2":"","latitude":"24.5279","longitude":"74.6289","accuracy":"3"},{"address3":"Keli","state":"Rajasthan","state_code":"24","district":"Chittorgarh","district_code":"126","address1":"Nimbahera","address2":"","latitude":"24.6476","longitude":"74.7889","accuracy":"4"},{"address3":"Badolighata","state":"Rajasthan","state_code":"24","district":"Chittorgarh","district_code":"126","address1":"Nimbahera","address2":"","latitude":"24.5279","longitude":"74.6289","accuracy":"3"},{"address3":"Jawada  II","state":"Rajasthan","state_code":"24","district":"Chittorgarh","district_code":"126","address1":"Nimbahera","address2":"","latitude":"24.5279","longitude":"74.6289","accuracy":"3"},{"address3":"Bari","state":"Rajasthan","state_code":"24","district":"Chittorgarh","district_code":"126","address1":"Nimbahera","address2":"","latitude":"24.5132","longitude":"74.6614","accuracy":"4"},{"address3":"Kotri Kalan","state":"Rajasthan","state_code":"24","district":"Chittorgarh","district_code":"126","address1":"Nimbahera","address2":"","latitude":"24.5279","longitude":"74.6289","accuracy":"3"},{"address3":"Lasdawn","state":"Rajasthan","state_code":"24","district":"Chittorgarh","district_code":"126","address1":"Nimbahera","address2":"","latitude":"24.5279","longitude":"74.6289","accuracy":"3"}],"312602":[{"address3":"Dheerji Ka Khera","state":"Rajasthan","state_code":"24","district":"Chittorgarh","district_code":"126","address1":"Bhadesar","address2":"","latitude":"24.6795","longitude":"74.5094","accuracy":"3"},{"address3":"Bhadesar","state":"Rajasthan","state_code":"24","district":"Chittorgarh","district_code":"126","address1":"Bhadesar","address2":"","latitude":"24.6795","longitude":"74.5094","accuracy":"4"},{"address3":"Bhalundi","state":"Rajasthan","state_code":"24","district":"Chittorgarh","district_code":"126","address1":"Bhadesar","address2":"","latitude":"24.6795","longitude":"74.5094","accuracy":"3"},{"address3":"Asawara","state":"Rajasthan","state_code":"24","district":"Chittorgarh","district_code":"126","address1":"Bhadesar","address2":"","latitude":"24.6795","longitude":"74.5094","accuracy":"3"},{"address3":"Potlajagir","state":"Rajasthan","state_code":"24","district":"Chittorgarh","district_code":"126","address1":"Bhadesar","address2":"","latitude":"24.6795","longitude":"74.5094","accuracy":"3"}],"312603":[{"address3":"Nikumbh","state":"Rajasthan","state_code":"24","district":"Chittorgarh","district_code":"126","address1":"Barisadari","address2":"","latitude":"25.4116","longitude":"74.0986","accuracy":"3"},{"address3":"Bhanuja","state":"Rajasthan","state_code":"24","district":"Chittorgarh","district_code":"126","address1":"Bari Sadari","address2":"","latitude":"24.8287","longitude":"74.7797","accuracy":"4"},{"address3":"Gardana","state":"Rajasthan","state_code":"24","district":"Chittorgarh","district_code":"126","address1":"Bari Sadri","address2":"","latitude":"25.4116","longitude":"74.0986","accuracy":"3"},{"address3":"Punawali","state":"Rajasthan","state_code":"24","district":"Chittorgarh","district_code":"126","address1":"Barisadri","address2":"","latitude":"25.4116","longitude":"74.0986","accuracy":"3"},{"address3":"Sadalkhera","state":"Rajasthan","state_code":"24","district":"Chittorgarh","district_code":"126","address1":"Barisadri","address2":"","latitude":"25.4116","longitude":"74.0986","accuracy":"3"},{"address3":"Khermalia","state":"Rajasthan","state_code":"24","district":"Chittorgarh","district_code":"126","address1":"Bari Sadari","address2":"","latitude":"25.4116","longitude":"74.0986","accuracy":"3"},{"address3":"Napawali","state":"Rajasthan","state_code":"24","district":"Chittorgarh","district_code":"126","address1":"Bari Sadari","address2":"","latitude":"25.4116","longitude":"74.0986","accuracy":"3"},{"address3":"Peend","state":"Rajasthan","state_code":"24","district":"Chittorgarh","district_code":"126","address1":"Bari Sadari","address2":"","latitude":"25.4116","longitude":"74.0986","accuracy":"3"}],"312604":[{"address3":"Karunda","state":"Rajasthan","state_code":"24","district":"Chittorgarh","district_code":"126","address1":"Chhoti Sadrai","address2":"","latitude":"24.8287","longitude":"74.7797","accuracy":"4"},{"address3":"Narani","state":"Rajasthan","state_code":"24","district":"Chittorgarh","district_code":"126","address1":"Chhotisadari","address2":"","latitude":"24.7891","longitude":"74.6731","accuracy":"3"},{"address3":"Ganeshpura","state":"Rajasthan","state_code":"24","district":"Chittorgarh","district_code":"126","address1":"Chhoti Sadri","address2":"","latitude":"25.1322","longitude":"74.6225","accuracy":"4"},{"address3":"Dhaula pani","state":"Rajasthan","state_code":"24","district":"Chittorgarh","district_code":"126","address1":"Chhoti Sadri","address2":"","latitude":"24.7891","longitude":"74.6731","accuracy":"3"},{"address3":"Siyakhedi","state":"Rajasthan","state_code":"24","district":"Chittorgarh","district_code":"126","address1":"Chhotisadari","address2":"","latitude":"24.7891","longitude":"74.6731","accuracy":"3"},{"address3":"Swaroopganj","state":"Rajasthan","state_code":"24","district":"Chittorgarh","district_code":"126","address1":"Chhotisadari","address2":"","latitude":"24.7891","longitude":"74.6731","accuracy":"3"},{"address3":"Ambawali","state":"Rajasthan","state_code":"24","district":"Chittorgarh","district_code":"126","address1":"Chhoti Sadari","address2":"","latitude":"24.7891","longitude":"74.6731","accuracy":"3"},{"address3":"Chhoti Sadari","state":"Rajasthan","state_code":"24","district":"Chittorgarh","district_code":"126","address1":"Chhotisadari","address2":"","latitude":"24.7891","longitude":"74.6731","accuracy":"3"},{"address3":"Peelikheda","state":"Rajasthan","state_code":"24","district":"Chittorgarh","district_code":"126","address1":"Chhotisadari","address2":"","latitude":"24.7891","longitude":"74.6731","accuracy":"3"},{"address3":"Gagrol","state":"Rajasthan","state_code":"24","district":"Chittorgarh","district_code":"126","address1":"Chhoti Sadri","address2":"","latitude":"24.7891","longitude":"74.6731","accuracy":"3"},{"address3":"Semarthali","state":"Rajasthan","state_code":"24","district":"Chittorgarh","district_code":"126","address1":"Chhoti Sadari","address2":"","latitude":"24.7891","longitude":"74.6731","accuracy":"3"},{"address3":"Subi","state":"Rajasthan","state_code":"24","district":"Chittorgarh","district_code":"126","address1":"Chhoti Sadari","address2":"","latitude":"24.7891","longitude":"74.6731","accuracy":"3"},{"address3":"Pithalwadikalan","state":"Rajasthan","state_code":"24","district":"Chittorgarh","district_code":"126","address1":"Chhotisadri","address2":"","latitude":"24.7891","longitude":"74.6731","accuracy":"3"},{"address3":"Gomana","state":"Rajasthan","state_code":"24","district":"Chittorgarh","district_code":"126","address1":"Chhoti Sadri","address2":"","latitude":"24.7891","longitude":"74.6731","accuracy":"3"},{"address3":"Jalodia","state":"Rajasthan","state_code":"24","district":"Chittorgarh","district_code":"126","address1":"Chhoti Sadari","address2":"","latitude":"24.7891","longitude":"74.6731","accuracy":"3"},{"address3":"Kesunda","state":"Rajasthan","state_code":"24","district":"Chittorgarh","district_code":"126","address1":"Chhoti Sadri","address2":"","latitude":"24.7891","longitude":"74.6731","accuracy":"3"}],"312605":[{"address3":"Akhepur","state":"Rajasthan","state_code":"24","district":"Chittorgarh","district_code":"126","address1":"Pratbgarh","address2":"","latitude":"24.8287","longitude":"74.7797","accuracy":"4"},{"address3":"Parliya","state":"Rajasthan","state_code":"24","district":"Chittorgarh","district_code":"126","address1":"Partabgarh","address2":"","latitude":"24.8287","longitude":"74.7797","accuracy":"4"},{"address3":"Gandher","state":"Rajasthan","state_code":"24","district":"Chittorgarh","district_code":"126","address1":"Partabgarh","address2":"","latitude":"24.8287","longitude":"74.7797","accuracy":"4"},{"address3":"Devgarh","state":"Rajasthan","state_code":"24","district":"Chittorgarh","district_code":"126","address1":"Partabgarh","address2":"","latitude":"24.8287","longitude":"74.7797","accuracy":"4"},{"address3":"Kalyanpura","state":"Rajasthan","state_code":"24","district":"Chittorgarh","district_code":"126","address1":"Partabgarh","address2":"","latitude":"24.8287","longitude":"74.7797","accuracy":"4"},{"address3":"Basad","state":"Rajasthan","state_code":"24","district":"Chittorgarh","district_code":"126","address1":"Partabgarh","address2":"","latitude":"25.3221","longitude":"74.8175","accuracy":"3"},{"address3":"Basera","state":"Rajasthan","state_code":"24","district":"Chittorgarh","district_code":"126","address1":"Partabgarh","address2":"","latitude":"24.8287","longitude":"74.7797","accuracy":"4"},{"address3":"Rampuria","state":"Rajasthan","state_code":"24","district":"Chittorgarh","district_code":"126","address1":"Partabgarh","address2":"","latitude":"25.18","longitude":"74.4154","accuracy":"4"},{"address3":"Pal","state":"Rajasthan","state_code":"24","district":"Chittorgarh","district_code":"126","address1":"Arnod","address2":"","latitude":"24.8287","longitude":"74.7797","accuracy":"4"},{"address3":"Dabda","state":"Rajasthan","state_code":"24","district":"Chittorgarh","district_code":"126","address1":"Partabgarh","address2":"","latitude":"25.3221","longitude":"74.8175","accuracy":"3"},{"address3":"Kherot","state":"Rajasthan","state_code":"24","district":"Chittorgarh","district_code":"126","address1":"Partabgarh","address2":"","latitude":"25.3221","longitude":"74.8175","accuracy":"3"},{"address3":"Gyaspur","state":"Rajasthan","state_code":"24","district":"Chittorgarh","district_code":"126","address1":"Annuppura","address2":"","latitude":"25.3221","longitude":"74.8175","accuracy":"3"},{"address3":"Mandawara","state":"Rajasthan","state_code":"24","district":"Chittorgarh","district_code":"126","address1":"Partabgarh","address2":"","latitude":"24.8287","longitude":"74.7797","accuracy":"4"},{"address3":"Pratap garh (Chittorgarh)","state":"Rajasthan","state_code":"24","district":"Chittorgarh","district_code":"126","address1":"Partabgarh","address2":"","latitude":"25.3221","longitude":"74.8175","accuracy":"3"},{"address3":"Motikhedi","state":"Rajasthan","state_code":"24","district":"Chittorgarh","district_code":"126","address1":"Partabgarh","address2":"","latitude":"25.3221","longitude":"74.8175","accuracy":"3"},{"address3":"Chiklad","state":"Rajasthan","state_code":"24","district":"Chittorgarh","district_code":"126","address1":"Partabgarh","address2":"","latitude":"25.3221","longitude":"74.8175","accuracy":"3"},{"address3":"Mota Dhamaniya","state":"Rajasthan","state_code":"24","district":"Chittorgarh","district_code":"126","address1":"Partabgarh","address2":"","latitude":"25.3221","longitude":"74.8175","accuracy":"3"},{"address3":"Veerpur","state":"Rajasthan","state_code":"24","district":"Chittorgarh","district_code":"126","address1":"Partabgarh","address2":"","latitude":"25.3221","longitude":"74.8175","accuracy":"3"},{"address3":"Varmandal","state":"Rajasthan","state_code":"24","district":"Chittorgarh","district_code":"126","address1":"Partabgarh","address2":"","latitude":"25.3221","longitude":"74.8175","accuracy":"3"},{"address3":"Kutchery Partabgarh","state":"Rajasthan","state_code":"24","district":"Chittorgarh","district_code":"126","address1":"Partabgarh","address2":"","latitude":"25.3221","longitude":"74.8175","accuracy":"3"},{"address3":"Dewad","state":"Rajasthan","state_code":"24","district":"Chittorgarh","district_code":"126","address1":"Partabgarh","address2":"","latitude":"25.3221","longitude":"74.8175","accuracy":"3"},{"address3":"Anoppura","state":"Rajasthan","state_code":"24","district":"Chittorgarh","district_code":"126","address1":"Partabgarh","address2":"","latitude":"25.3221","longitude":"74.8175","accuracy":"3"},{"address3":"Achalpur","state":"Rajasthan","state_code":"24","district":"Chittorgarh","district_code":"126","address1":"Pratapgarh","address2":"","latitude":"25.3221","longitude":"74.8175","accuracy":"3"},{"address3":"Jamli","state":"Rajasthan","state_code":"24","district":"Chittorgarh","district_code":"126","address1":"Partabgarh","address2":"","latitude":"25.3221","longitude":"74.8175","accuracy":"3"},{"address3":"Angona","state":"Rajasthan","state_code":"24","district":"Chittorgarh","district_code":"126","address1":"Partabgarh","address2":"","latitude":"25.3221","longitude":"74.8175","accuracy":"3"},{"address3":"Amlawad","state":"Rajasthan","state_code":"24","district":"Chittorgarh","district_code":"126","address1":"Pratabgarh","address2":"","latitude":"25.3221","longitude":"74.8175","accuracy":"3"},{"address3":"Anwleshwar","state":"Rajasthan","state_code":"24","district":"Chittorgarh","district_code":"126","address1":"Partabgarh","address2":"","latitude":"25.3221","longitude":"74.8175","accuracy":"3"},{"address3":"Asawata","state":"Rajasthan","state_code":"24","district":"Chittorgarh","district_code":"126","address1":"Partabgarh","address2":"","latitude":"25.3221","longitude":"74.8175","accuracy":"3"},{"address3":"Bajranggarh","state":"Rajasthan","state_code":"24","district":"Chittorgarh","district_code":"126","address1":"Partabgarh","address2":"","latitude":"25.3221","longitude":"74.8175","accuracy":"3"},{"address3":"Barilank","state":"Rajasthan","state_code":"24","district":"Chittorgarh","district_code":"126","address1":"Partabgarh","address2":"","latitude":"25.3221","longitude":"74.8175","accuracy":"3"},{"address3":"Barotha","state":"Rajasthan","state_code":"24","district":"Chittorgarh","district_code":"126","address1":"Partabgarh","address2":"","latitude":"25.3221","longitude":"74.8175","accuracy":"3"},{"address3":"Bilesari","state":"Rajasthan","state_code":"24","district":"Chittorgarh","district_code":"126","address1":"Partabgarh","address2":"","latitude":"25.3221","longitude":"74.8175","accuracy":"3"},{"address3":"Gotarsi","state":"Rajasthan","state_code":"24","district":"Chittorgarh","district_code":"126","address1":"Partabgarh","address2":"","latitude":"25.3221","longitude":"74.8175","accuracy":"3"},{"address3":"Jhansri","state":"Rajasthan","state_code":"24","district":"Chittorgarh","district_code":"126","address1":"Partabgarh","address2":"","latitude":"25.3221","longitude":"74.8175","accuracy":"3"},{"address3":"Kachotiya","state":"Rajasthan","state_code":"24","district":"Chittorgarh","district_code":"126","address1":"Partabgarh","address2":"","latitude":"25.3221","longitude":"74.8175","accuracy":"3"},{"address3":"Jolar","state":"Rajasthan","state_code":"24","district":"Chittorgarh","district_code":"126","address1":"Partabgarh","address2":"","latitude":"25.3221","longitude":"74.8175","accuracy":"3"},{"address3":"Nakor","state":"Rajasthan","state_code":"24","district":"Chittorgarh","district_code":"126","address1":"Partabgarh","address2":"","latitude":"25.3221","longitude":"74.8175","accuracy":"3"},{"address3":"Kerwas","state":"Rajasthan","state_code":"24","district":"Chittorgarh","district_code":"126","address1":"Partabgarh","address2":"","latitude":"25.3221","longitude":"74.8175","accuracy":"3"},{"address3":"Kuni","state":"Rajasthan","state_code":"24","district":"Chittorgarh","district_code":"126","address1":"Partabgarh","address2":"","latitude":"25.3221","longitude":"74.8175","accuracy":"3"},{"address3":"Kulthana","state":"Rajasthan","state_code":"24","district":"Chittorgarh","district_code":"126","address1":"Partabgarh","address2":"","latitude":"25.3221","longitude":"74.8175","accuracy":"3"},{"address3":"Kotwal","state":"Rajasthan","state_code":"24","district":"Chittorgarh","district_code":"126","address1":"Partabgarh","address2":"","latitude":"25.3221","longitude":"74.8175","accuracy":"3"},{"address3":"Mandkalan","state":"Rajasthan","state_code":"24","district":"Chittorgarh","district_code":"126","address1":"Partabgarh","address2":"","latitude":"25.3221","longitude":"74.8175","accuracy":"3"},{"address3":"Suhagpura","state":"Rajasthan","state_code":"24","district":"Chittorgarh","district_code":"126","address1":"Partabgarh","address2":"","latitude":"25.3221","longitude":"74.8175","accuracy":"3"},{"address3":"Selarpura Kalan","state":"Rajasthan","state_code":"24","district":"Chittorgarh","district_code":"126","address1":"Partabgarh","address2":"","latitude":"25.3221","longitude":"74.8175","accuracy":"3"},{"address3":"Richawara","state":"Rajasthan","state_code":"24","district":"Chittorgarh","district_code":"126","address1":"Partabgarh","address2":"","latitude":"25.3221","longitude":"74.8175","accuracy":"3"},{"address3":"Ratanpuria","state":"Rajasthan","state_code":"24","district":"Chittorgarh","district_code":"126","address1":"Partabgarh","address2":"","latitude":"25.3221","longitude":"74.8175","accuracy":"3"},{"address3":"Pateliya","state":"Rajasthan","state_code":"24","district":"Chittorgarh","district_code":"126","address1":"Partabgarh","address2":"","latitude":"25.3221","longitude":"74.8175","accuracy":"3"},{"address3":"Manohar Garh","state":"Rajasthan","state_code":"24","district":"Chittorgarh","district_code":"126","address1":"Partabgarh","address2":"","latitude":"25.3221","longitude":"74.8175","accuracy":"3"},{"address3":"Luharia","state":"Rajasthan","state_code":"24","district":"Chittorgarh","district_code":"126","address1":"Partabgarh","address2":"","latitude":"25.3221","longitude":"74.8175","accuracy":"3"},{"address3":"Pandawa","state":"Rajasthan","state_code":"24","district":"Chittorgarh","district_code":"126","address1":"Partabgarh","address2":"","latitude":"25.3221","longitude":"74.8175","accuracy":"3"}],"312606":[{"address3":"Melana","state":"Rajasthan","state_code":"24","district":"Chittorgarh","district_code":"126","address1":"Kanera","address2":"","latitude":"24.9632","longitude":"74.6857","accuracy":"1"},{"address3":"Kanera","state":"Rajasthan","state_code":"24","district":"Chittorgarh","district_code":"126","address1":"Nimbahera","address2":"","latitude":"24.9632","longitude":"74.6857","accuracy":"1"},{"address3":"Bangreda Ghata","state":"Rajasthan","state_code":"24","district":"Chittorgarh","district_code":"126","address1":"Kanera","address2":"","latitude":"24.9632","longitude":"74.6857","accuracy":"1"},{"address3":"Sarsi","state":"Rajasthan","state_code":"24","district":"Chittorgarh","district_code":"126","address1":"Kanera","address2":"","latitude":"24.9632","longitude":"74.6857","accuracy":"1"}],"312612":[{"address3":"Jalampura","state":"Rajasthan","state_code":"24","district":"Chittorgarh","district_code":"126","address1":"Nimbahera","address2":"","latitude":"24.8287","longitude":"74.7797","accuracy":"4"},{"address3":"Shabhupura","state":"Rajasthan","state_code":"24","district":"Chittorgarh","district_code":"126","address1":"Chittorgarh","address2":"","latitude":"23.3914","longitude":"74.1934","accuracy":"3"},{"address3":"Satkhanda","state":"Rajasthan","state_code":"24","district":"Chittorgarh","district_code":"126","address1":"Nimbahera","address2":"","latitude":"23.3914","longitude":"74.1934","accuracy":"3"},{"address3":"Samari","state":"Rajasthan","state_code":"24","district":"Chittorgarh","district_code":"126","address1":"Nimbahera","address2":"","latitude":"23.3914","longitude":"74.1934","accuracy":"3"},{"address3":"Arniapanth","state":"Rajasthan","state_code":"24","district":"Chittorgarh","district_code":"126","address1":"Shambhupura","address2":"","latitude":"23.3914","longitude":"74.1934","accuracy":"3"},{"address3":"Ghatiawali","state":"Rajasthan","state_code":"24","district":"Chittorgarh","district_code":"126","address1":"Shambhupura","address2":"","latitude":"23.3914","longitude":"74.1934","accuracy":"3"},{"address3":"Gilund","state":"Rajasthan","state_code":"24","district":"Chittorgarh","district_code":"126","address1":"Shambhupura","address2":"","latitude":"23.3914","longitude":"74.1934","accuracy":"3"}],"312613":[{"address3":"Nahargarh","state":"Rajasthan","state_code":"24","district":"Chittorgarh","district_code":"126","address1":"NA","address2":"","latitude":"25.0903","longitude":"74.8874","accuracy":"4"},{"address3":"Chiksi","state":"Rajasthan","state_code":"24","district":"Chittorgarh","district_code":"126","address1":"Nimbahera","address2":"","latitude":"24.9246","longitude":"74.7337","accuracy":"3"},{"address3":"Kannoj","state":"Rajasthan","state_code":"24","district":"Chittorgarh","district_code":"126","address1":"Nimbahera","address2":"","latitude":"24.9246","longitude":"74.7337","accuracy":"3"},{"address3":"Sukhwara","state":"Rajasthan","state_code":"24","district":"Chittorgarh","district_code":"126","address1":"Nimbahera","address2":"","latitude":"24.9246","longitude":"74.7337","accuracy":"3"},{"address3":"Sawa","state":"Rajasthan","state_code":"24","district":"Chittorgarh","district_code":"126","address1":"Chittorgarh","address2":"","latitude":"24.7589","longitude":"74.5799","accuracy":"4"}],"312614":[{"address3":"Bambori","state":"Rajasthan","state_code":"24","district":"Chittorgarh","district_code":"126","address1":"Nimbahera","address2":"","latitude":"24.8287","longitude":"74.7797","accuracy":"4"},{"address3":"Bhagwanpura","state":"Rajasthan","state_code":"24","district":"Chittorgarh","district_code":"126","address1":"Nimbahera","address2":"","latitude":"25.0999","longitude":"74.9835","accuracy":"4"},{"address3":"Khodip","state":"Rajasthan","state_code":"24","district":"Chittorgarh","district_code":"126","address1":"Nimbahera","address2":"","latitude":"24.7529","longitude":"75.2065","accuracy":"3"},{"address3":"Mandla Charan","state":"Rajasthan","state_code":"24","district":"Chittorgarh","district_code":"126","address1":"Nimbahera","address2":"","latitude":"24.7529","longitude":"75.2065","accuracy":"3"},{"address3":"Binota","state":"Rajasthan","state_code":"24","district":"Chittorgarh","district_code":"126","address1":"Nimbahera","address2":"","latitude":"24.529","longitude":"74.5693","accuracy":"4"},{"address3":"Nannana","state":"Rajasthan","state_code":"24","district":"Chittorgarh","district_code":"126","address1":"Nimbahera","address2":"","latitude":"24.7529","longitude":"75.2065","accuracy":"3"},{"address3":"Jaloda Jagir","state":"Rajasthan","state_code":"24","district":"Chittorgarh","district_code":"126","address1":"Nimbahera","address2":"","latitude":"24.7529","longitude":"75.2065","accuracy":"3"}],"312615":[{"address3":"Kotri","state":"Rajasthan","state_code":"24","district":"Chittorgarh","district_code":"126","address1":"Arnod","address2":"","latitude":"24.8287","longitude":"74.7797","accuracy":"4"},{"address3":"Nagdi","state":"Rajasthan","state_code":"24","district":"Chittorgarh","district_code":"126","address1":"Arnod","address2":"","latitude":"24.8287","longitude":"74.7797","accuracy":"4"},{"address3":"Lalgarh","state":"Rajasthan","state_code":"24","district":"Chittorgarh","district_code":"126","address1":"Arnod","address2":"","latitude":"24.8287","longitude":"74.7797","accuracy":"3"},{"address3":"Sagathali Thana","state":"Rajasthan","state_code":"24","district":"Chittorgarh","district_code":"126","address1":"Arnod","address2":"","latitude":"24.9405","longitude":"75.7459","accuracy":"3"},{"address3":"Peepalkhunt","state":"Rajasthan","state_code":"24","district":"Chittorgarh","district_code":"126","address1":"Arnod","address2":"","latitude":"24.9405","longitude":"75.7459","accuracy":"3"},{"address3":"Chupna","state":"Rajasthan","state_code":"24","district":"Chittorgarh","district_code":"126","address1":"Arnod","address2":"","latitude":"24.9405","longitude":"75.7459","accuracy":"3"},{"address3":"Fathegarh","state":"Rajasthan","state_code":"24","district":"Chittorgarh","district_code":"126","address1":"Arnod","address2":"","latitude":"24.9405","longitude":"75.7459","accuracy":"3"},{"address3":"Veerawali","state":"Rajasthan","state_code":"24","district":"Chittorgarh","district_code":"126","address1":"Arnod","address2":"","latitude":"24.9405","longitude":"75.7459","accuracy":"3"},{"address3":"Arnod","state":"Rajasthan","state_code":"24","district":"Chittorgarh","district_code":"126","address1":"Arnod","address2":"","latitude":"24.9405","longitude":"75.7459","accuracy":"3"},{"address3":"Moheda","state":"Rajasthan","state_code":"24","district":"Chittorgarh","district_code":"126","address1":"Arnod","address2":"","latitude":"24.9405","longitude":"75.7459","accuracy":"3"},{"address3":"Mowai","state":"Rajasthan","state_code":"24","district":"Chittorgarh","district_code":"126","address1":"Arnod","address2":"","latitude":"24.9405","longitude":"75.7459","accuracy":"3"},{"address3":"Naugama","state":"Rajasthan","state_code":"24","district":"Chittorgarh","district_code":"126","address1":"Arnod","address2":"","latitude":"24.9405","longitude":"75.7459","accuracy":"3"},{"address3":"Badwaskalan","state":"Rajasthan","state_code":"24","district":"Chittorgarh","district_code":"126","address1":"Arnod","address2":"","latitude":"24.9405","longitude":"75.7459","accuracy":"3"},{"address3":"Bedma","state":"Rajasthan","state_code":"24","district":"Chittorgarh","district_code":"126","address1":"Arnod","address2":"","latitude":"24.9405","longitude":"75.7459","accuracy":"3"},{"address3":"Hinglat","state":"Rajasthan","state_code":"24","district":"Chittorgarh","district_code":"126","address1":"Arnod","address2":"","latitude":"24.9405","longitude":"75.7459","accuracy":"3"},{"address3":"Jajli","state":"Rajasthan","state_code":"24","district":"Chittorgarh","district_code":"126","address1":"Arnod","address2":"","latitude":"24.9405","longitude":"75.7459","accuracy":"3"},{"address3":"Kanad","state":"Rajasthan","state_code":"24","district":"Chittorgarh","district_code":"126","address1":"Arnod","address2":"","latitude":"24.9405","longitude":"75.7459","accuracy":"3"},{"address3":"Achalawada","state":"Rajasthan","state_code":"24","district":"Chittorgarh","district_code":"126","address1":"Arnod","address2":"","latitude":"24.9405","longitude":"75.7459","accuracy":"3"},{"address3":"Achnera","state":"Rajasthan","state_code":"24","district":"Chittorgarh","district_code":"126","address1":"Arnod","address2":"","latitude":"24.9405","longitude":"75.7459","accuracy":"3"}],"312616":[{"address3":"Bori","state":"Rajasthan","state_code":"24","district":"Chittorgarh","district_code":"126","address1":"Arnod","address2":"","latitude":"24.8287","longitude":"74.7797","accuracy":"4"},{"address3":"Barawarda","state":"Rajasthan","state_code":"24","district":"Chittorgarh","district_code":"126","address1":"Arnod","address2":"","latitude":"24.8287","longitude":"74.7797","accuracy":"4"},{"address3":"Dhamotar ","state":"Rajasthan","state_code":"24","district":"Chittorgarh","district_code":"126","address1":"Arnod","address2":"","latitude":"24.8287","longitude":"74.7797","accuracy":"4"},{"address3":"Sidhpura","state":"Rajasthan","state_code":"24","district":"Chittorgarh","district_code":"126","address1":"Arnod","address2":"","latitude":"24.8287","longitude":"74.7797","accuracy":"3"},{"address3":"Baori Khera","state":"Rajasthan","state_code":"24","district":"Chittorgarh","district_code":"126","address1":"Dhamotar","address2":"","latitude":"24.5489","longitude":"74.3996","accuracy":"3"},{"address3":"Madhura Talab","state":"Rajasthan","state_code":"24","district":"Chittorgarh","district_code":"126","address1":"Arnod","address2":"","latitude":"24.5489","longitude":"74.3996","accuracy":"3"},{"address3":"Dhiknia","state":"Rajasthan","state_code":"24","district":"Chittorgarh","district_code":"126","address1":"Arnod","address2":"","latitude":"24.5489","longitude":"74.3996","accuracy":"3"},{"address3":"Kheranarsingh Mata","state":"Rajasthan","state_code":"24","district":"Chittorgarh","district_code":"126","address1":"Arnod","address2":"","latitude":"24.5489","longitude":"74.3996","accuracy":"3"},{"address3":"Dudhli Tanda","state":"Rajasthan","state_code":"24","district":"Chittorgarh","district_code":"126","address1":"Arnod","address2":"","latitude":"24.5489","longitude":"74.3996","accuracy":"3"},{"address3":"Teela","state":"Rajasthan","state_code":"24","district":"Chittorgarh","district_code":"126","address1":"Partabgarh","address2":"","latitude":"24.5489","longitude":"74.3996","accuracy":"3"},{"address3":"Narayankheda","state":"Rajasthan","state_code":"24","district":"Chittorgarh","district_code":"126","address1":"Arnod","address2":"","latitude":"24.5489","longitude":"74.3996","accuracy":"3"},{"address3":"Meriyakhedi","state":"Rajasthan","state_code":"24","district":"Chittorgarh","district_code":"126","address1":"Arnod","address2":"","latitude":"24.5489","longitude":"74.3996","accuracy":"3"},{"address3":"Untakheda","state":"Rajasthan","state_code":"24","district":"Chittorgarh","district_code":"126","address1":"Partabgarh","address2":"","latitude":"24.5489","longitude":"74.3996","accuracy":"3"}],"312617":[{"address3":"Kailash  Nagar","state":"Rajasthan","state_code":"24","district":"Chittorgarh","district_code":"126","address1":"Nimbahera","address2":"","latitude":"24.5627","longitude":"74.6449","accuracy":"1"}],"312619":[{"address3":"Salamgarh","state":"Rajasthan","state_code":"24","district":"Chittorgarh","district_code":"126","address1":"Arnod","address2":"","latitude":"24.4233","longitude":"74.1654","accuracy":"3"},{"address3":"Bardia","state":"Rajasthan","state_code":"24","district":"Chittorgarh","district_code":"126","address1":"Arnod","address2":"","latitude":"24.8287","longitude":"74.7797","accuracy":"4"},{"address3":"Ambirama","state":"Rajasthan","state_code":"24","district":"Chittorgarh","district_code":"126","address1":"Arnod","address2":"","latitude":"24.4233","longitude":"74.1654","accuracy":"3"},{"address3":"Chandera","state":"Rajasthan","state_code":"24","district":"Chittorgarh","district_code":"126","address1":"Arnod","address2":"","latitude":"24.8287","longitude":"74.7797","accuracy":"4"},{"address3":"Bori","state":"Rajasthan","state_code":"24","district":"Chittorgarh","district_code":"126","address1":"Arnod","address2":"","latitude":"24.8287","longitude":"74.7797","accuracy":"4"},{"address3":"Ninor","state":"Rajasthan","state_code":"24","district":"Chittorgarh","district_code":"126","address1":"Arnod","address2":"","latitude":"24.8287","longitude":"74.7797","accuracy":"4"},{"address3":"Unthel","state":"Rajasthan","state_code":"24","district":"Chittorgarh","district_code":"126","address1":"Arnod","address2":"","latitude":"24.4233","longitude":"74.1654","accuracy":"3"},{"address3":"Dalot","state":"Rajasthan","state_code":"24","district":"Chittorgarh","district_code":"126","address1":"Partabgarh","address2":"","latitude":"24.8287","longitude":"74.7797","accuracy":"4"},{"address3":"Raipurjangal","state":"Rajasthan","state_code":"24","district":"Chittorgarh","district_code":"126","address1":"Arnod","address2":"","latitude":"24.4233","longitude":"74.1654","accuracy":"3"},{"address3":"Raipur","state":"Rajasthan","state_code":"24","district":"Chittorgarh","district_code":"126","address1":"Arnod","address2":"","latitude":"24.8287","longitude":"74.7797","accuracy":"4"},{"address3":"Sewna","state":"Rajasthan","state_code":"24","district":"Chittorgarh","district_code":"126","address1":"Arnod","address2":"","latitude":"24.4233","longitude":"74.1654","accuracy":"3"},{"address3":"Banslai","state":"Rajasthan","state_code":"24","district":"Chittorgarh","district_code":"126","address1":"Arnod","address2":"","latitude":"24.4233","longitude":"74.1654","accuracy":"3"},{"address3":"Chakunda","state":"Rajasthan","state_code":"24","district":"Chittorgarh","district_code":"126","address1":"Arnod","address2":"","latitude":"24.4233","longitude":"74.1654","accuracy":"3"},{"address3":"Jeerawata","state":"Rajasthan","state_code":"24","district":"Chittorgarh","district_code":"126","address1":"Arnod","address2":"","latitude":"24.4233","longitude":"74.1654","accuracy":"3"},{"address3":"Kangarh","state":"Rajasthan","state_code":"24","district":"Chittorgarh","district_code":"126","address1":"Arnod","address2":"","latitude":"24.4233","longitude":"74.1654","accuracy":"3"},{"address3":"Barisagthali","state":"Rajasthan","state_code":"24","district":"Chittorgarh","district_code":"126","address1":"Arnod","address2":"","latitude":"24.4233","longitude":"74.1654","accuracy":"3"}],"312620":[{"address3":"Udpura","state":"Rajasthan","state_code":"24","district":"Chittorgarh","district_code":"126","address1":"Nimbahera","address2":"","latitude":"24.8287","longitude":"74.7797","accuracy":"4"},{"address3":"Karunda","state":"Rajasthan","state_code":"24","district":"Chittorgarh","district_code":"126","address1":"Nimbahera","address2":"","latitude":"24.8287","longitude":"74.7797","accuracy":"4"},{"address3":"Arnoda","state":"Rajasthan","state_code":"24","district":"Chittorgarh","district_code":"126","address1":"Mangrol","address2":"","latitude":"24.7001","longitude":"74.7547","accuracy":"4"},{"address3":"Mangrol (Chittorgarh)","state":"Rajasthan","state_code":"24","district":"Chittorgarh","district_code":"126","address1":"Nimbahera","address2":"","latitude":"24.6265","longitude":"75.1512","accuracy":"3"},{"address3":"Arnia Joshi","state":"Rajasthan","state_code":"24","district":"Chittorgarh","district_code":"126","address1":"Mangrol","address2":"","latitude":"24.6265","longitude":"75.1512","accuracy":"3"},{"address3":"Bhawaliya","state":"Rajasthan","state_code":"24","district":"Chittorgarh","district_code":"126","address1":"Nimbahera","address2":"","latitude":"24.6265","longitude":"75.1512","accuracy":"3"},{"address3":"Unkliya","state":"Rajasthan","state_code":"24","district":"Chittorgarh","district_code":"126","address1":"Nimbahera","address2":"","latitude":"24.6265","longitude":"75.1512","accuracy":"3"}],"312622":[{"address3":"Adityapuram","state":"Rajasthan","state_code":"24","district":"Chittorgarh","district_code":"126","address1":"NA","address2":"","latitude":"24.7737","longitude":"74.756","accuracy":"1"}],"312623":[{"address3":"Kheda","state":"Rajasthan","state_code":"24","district":"Chittorgarh","district_code":"126","address1":"Partabgarh","address2":"","latitude":"24.8287","longitude":"74.7797","accuracy":"4"},{"address3":"Kesharpura","state":"Rajasthan","state_code":"24","district":"Chittorgarh","district_code":"126","address1":"Partabgarh","address2":"","latitude":"25.0085","longitude":"74.5537","accuracy":"4"},{"address3":"Thada","state":"Rajasthan","state_code":"24","district":"Chittorgarh","district_code":"126","address1":"Partabgarh","address2":"","latitude":"24.8883","longitude":"74.2474","accuracy":"3"},{"address3":"Rathajana","state":"Rajasthan","state_code":"24","district":"Chittorgarh","district_code":"126","address1":"Partabgarh","address2":"","latitude":"24.8883","longitude":"74.2474","accuracy":"3"},{"address3":"Semnop","state":"Rajasthan","state_code":"24","district":"Chittorgarh","district_code":"126","address1":"Partabgarh","address2":"","latitude":"24.8883","longitude":"74.2474","accuracy":"3"},{"address3":"Bardia","state":"Rajasthan","state_code":"24","district":"Chittorgarh","district_code":"126","address1":"Partapgarh","address2":"","latitude":"24.8287","longitude":"74.7797","accuracy":"4"},{"address3":"Khoria","state":"Rajasthan","state_code":"24","district":"Chittorgarh","district_code":"126","address1":"Partabgarh","address2":"","latitude":"24.8287","longitude":"74.7797","accuracy":"4"},{"address3":"Piloo","state":"Rajasthan","state_code":"24","district":"Chittorgarh","district_code":"126","address1":"Partabgarh","address2":"","latitude":"24.8883","longitude":"74.2474","accuracy":"3"},{"address3":"Panmodi","state":"Rajasthan","state_code":"24","district":"Chittorgarh","district_code":"126","address1":"Partabgarh","address2":"","latitude":"24.8883","longitude":"74.2474","accuracy":"3"},{"address3":"Bhuwasia","state":"Rajasthan","state_code":"24","district":"Chittorgarh","district_code":"126","address1":"Pratapgarh","address2":"","latitude":"24.8883","longitude":"74.2474","accuracy":"3"},{"address3":"Kanora","state":"Rajasthan","state_code":"24","district":"Chittorgarh","district_code":"126","address1":"Partabgarh","address2":"","latitude":"24.8883","longitude":"74.2474","accuracy":"3"},{"address3":"Sakriya","state":"Rajasthan","state_code":"24","district":"Chittorgarh","district_code":"126","address1":"Partabgarh","address2":"","latitude":"24.8883","longitude":"74.2474","accuracy":"3"},{"address3":"Magroda","state":"Rajasthan","state_code":"24","district":"Chittorgarh","district_code":"126","address1":"Partabgarh","address2":"","latitude":"24.8883","longitude":"74.2474","accuracy":"3"},{"address3":"Gadola","state":"Rajasthan","state_code":"24","district":"Chittorgarh","district_code":"126","address1":"Partabgarh","address2":"","latitude":"24.8883","longitude":"74.2474","accuracy":"3"}],"312624":[{"address3":"Jamli","state":"Rajasthan","state_code":"24","district":"Chittorgarh","district_code":"126","address1":"Pratapgargh","address2":"","latitude":"25.189","longitude":"74.2209","accuracy":"3"},{"address3":"Bori","state":"Rajasthan","state_code":"24","district":"Chittorgarh","district_code":"126","address1":"Arnod","address2":"","latitude":"24.8287","longitude":"74.7797","accuracy":"4"},{"address3":"Semliya","state":"Rajasthan","state_code":"24","district":"Chittorgarh","district_code":"126","address1":"Arnod","address2":"","latitude":"25.0388","longitude":"74.6874","accuracy":"4"},{"address3":"Nayan","state":"Rajasthan","state_code":"24","district":"Chittorgarh","district_code":"126","address1":"Arnod","address2":"","latitude":"25.189","longitude":"74.2209","accuracy":"3"},{"address3":"Peepalkhunt","state":"Rajasthan","state_code":"24","district":"Chittorgarh","district_code":"126","address1":"Pipalhunt","address2":"","latitude":"25.189","longitude":"74.2209","accuracy":"3"},{"address3":"Chhari","state":"Rajasthan","state_code":"24","district":"Chittorgarh","district_code":"126","address1":"Arnod","address2":"","latitude":"25.189","longitude":"74.2209","accuracy":"3"},{"address3":"Jethalia","state":"Rajasthan","state_code":"24","district":"Chittorgarh","district_code":"126","address1":"Arnod","address2":"","latitude":"25.189","longitude":"74.2209","accuracy":"3"},{"address3":"Sowaniya","state":"Rajasthan","state_code":"24","district":"Chittorgarh","district_code":"126","address1":"Arnod","address2":"","latitude":"25.189","longitude":"74.2209","accuracy":"3"},{"address3":"Dunglawani","state":"Rajasthan","state_code":"24","district":"Chittorgarh","district_code":"126","address1":"Arnod","address2":"","latitude":"25.189","longitude":"74.2209","accuracy":"3"},{"address3":"Ghantali","state":"Rajasthan","state_code":"24","district":"Chittorgarh","district_code":"126","address1":"Arnod","address2":"","latitude":"25.189","longitude":"74.2209","accuracy":"3"},{"address3":"Prithivipura","state":"Rajasthan","state_code":"24","district":"Chittorgarh","district_code":"126","address1":"Arnod","address2":"","latitude":"25.189","longitude":"74.2209","accuracy":"3"},{"address3":"Kupda","state":"Rajasthan","state_code":"24","district":"Chittorgarh","district_code":"126","address1":"Arnod","address2":"","latitude":"25.189","longitude":"74.2209","accuracy":"3"},{"address3":"Kelamela","state":"Rajasthan","state_code":"24","district":"Chittorgarh","district_code":"126","address1":"Arnod","address2":"","latitude":"25.189","longitude":"74.2209","accuracy":"3"},{"address3":"Sodalpur","state":"Rajasthan","state_code":"24","district":"Chittorgarh","district_code":"126","address1":"Arnod","address2":"","latitude":"25.189","longitude":"74.2209","accuracy":"3"}],"312625":[{"address3":"Parel","state":"Rajasthan","state_code":"24","district":"Chittorgarh","district_code":"126","address1":"Dhariawad","address2":"","latitude":"24.8287","longitude":"74.7797","accuracy":"4"},{"address3":"Bhojpur","state":"Rajasthan","state_code":"24","district":"Chittorgarh","district_code":"126","address1":"Dhariawad","address2":"","latitude":"24.8287","longitude":"74.7797","accuracy":"4"},{"address3":"Sihada","state":"Rajasthan","state_code":"24","district":"Chittorgarh","district_code":"126","address1":"Dhariawad","address2":"","latitude":"25.3912","longitude":"75.6524","accuracy":"3"},{"address3":"Devla","state":"Rajasthan","state_code":"24","district":"Chittorgarh","district_code":"126","address1":"Dhariawad","address2":"","latitude":"24.8287","longitude":"74.7797","accuracy":"4"},{"address3":"Nalwa","state":"Rajasthan","state_code":"24","district":"Chittorgarh","district_code":"126","address1":"Dhariawad","address2":"","latitude":"24.8287","longitude":"74.7797","accuracy":"4"},{"address3":"Dantalia","state":"Rajasthan","state_code":"24","district":"Chittorgarh","district_code":"126","address1":"Dhariawad","address2":"","latitude":"25.3912","longitude":"75.6524","accuracy":"3"},{"address3":"Gadriawas","state":"Rajasthan","state_code":"24","district":"Chittorgarh","district_code":"126","address1":"Dhariawad","address2":"","latitude":"24.8287","longitude":"74.7797","accuracy":"3"},{"address3":"Keshariawad","state":"Rajasthan","state_code":"24","district":"Chittorgarh","district_code":"126","address1":"Dhariawad","address2":"","latitude":"25.3912","longitude":"75.6524","accuracy":"3"},{"address3":"Lohagarh","state":"Rajasthan","state_code":"24","district":"Chittorgarh","district_code":"126","address1":"Dhariawad","address2":"","latitude":"24.8287","longitude":"74.7797","accuracy":"3"},{"address3":"Cheri","state":"Rajasthan","state_code":"24","district":"Chittorgarh","district_code":"126","address1":"Dhariawad","address2":"","latitude":"25.3912","longitude":"75.6524","accuracy":"3"},{"address3":"Managaon","state":"Rajasthan","state_code":"24","district":"Chittorgarh","district_code":"126","address1":"Dhariawad","address2":"","latitude":"25.3912","longitude":"75.6524","accuracy":"3"},{"address3":"Dhariawad","state":"Rajasthan","state_code":"24","district":"Chittorgarh","district_code":"126","address1":"Dhariawad","address2":"","latitude":"25.3912","longitude":"75.6524","accuracy":"3"},{"address3":"Jhadoli","state":"Rajasthan","state_code":"24","district":"Chittorgarh","district_code":"126","address1":"Dhariawad","address2":"","latitude":"25.3912","longitude":"75.6524","accuracy":"3"},{"address3":"Pahad","state":"Rajasthan","state_code":"24","district":"Chittorgarh","district_code":"126","address1":"Dhariawad","address2":"","latitude":"25.3912","longitude":"75.6524","accuracy":"3"},{"address3":"Gadwas","state":"Rajasthan","state_code":"24","district":"Chittorgarh","district_code":"126","address1":"Dhariawad","address2":"","latitude":"25.3912","longitude":"75.6524","accuracy":"3"},{"address3":"Pipilia","state":"Rajasthan","state_code":"24","district":"Chittorgarh","district_code":"126","address1":"Dhariawad","address2":"","latitude":"25.3912","longitude":"75.6524","accuracy":"3"}],"312626":[{"address3":"Boria","state":"Rajasthan","state_code":"24","district":"Chittorgarh","district_code":"126","address1":"Dhariawad","address2":"","latitude":"24.8287","longitude":"74.7797","accuracy":"4"},{"address3":"Khunta","state":"Rajasthan","state_code":"24","district":"Chittorgarh","district_code":"126","address1":"Dhariawad","address2":"","latitude":"24.8287","longitude":"74.7797","accuracy":"4"},{"address3":"Gopalpura","state":"Rajasthan","state_code":"24","district":"Chittorgarh","district_code":"126","address1":"Dhariawad","address2":"","latitude":"25.096","longitude":"74.9658","accuracy":"4"},{"address3":"Parsola","state":"Rajasthan","state_code":"24","district":"Chittorgarh","district_code":"126","address1":"Dhariawad","address2":"","latitude":"24.8287","longitude":"74.7797","accuracy":"4"},{"address3":"Ledia","state":"Rajasthan","state_code":"24","district":"Chittorgarh","district_code":"126","address1":"Dhariawad","address2":"","latitude":"24.0423","longitude":"74.5012","accuracy":"3"},{"address3":"Mandvi","state":"Rajasthan","state_code":"24","district":"Chittorgarh","district_code":"126","address1":"Dhariawad","address2":"","latitude":"24.8287","longitude":"74.7797","accuracy":"4"},{"address3":"Bharkudi","state":"Rajasthan","state_code":"24","district":"Chittorgarh","district_code":"126","address1":"Dhariawad","address2":"","latitude":"24.0423","longitude":"74.5012","accuracy":"3"},{"address3":"Mungana","state":"Rajasthan","state_code":"24","district":"Chittorgarh","district_code":"126","address1":"Dhariawad","address2":"","latitude":"24.8287","longitude":"74.7797","accuracy":"4"},{"address3":"Gothada","state":"Rajasthan","state_code":"24","district":"Chittorgarh","district_code":"126","address1":"Dhariawad","address2":"","latitude":"24.0423","longitude":"74.5012","accuracy":"3"},{"address3":"Add","state":"Rajasthan","state_code":"24","district":"Chittorgarh","district_code":"126","address1":"Dhariawad","address2":"","latitude":"24.0423","longitude":"74.5012","accuracy":"3"},{"address3":"Anant","state":"Rajasthan","state_code":"24","district":"Chittorgarh","district_code":"126","address1":"Dhariawad","address2":"","latitude":"24.0423","longitude":"74.5012","accuracy":"3"},{"address3":"Tothada","state":"Rajasthan","state_code":"24","district":"Udaipur","district_code":"130","address1":"Dhariawad","address2":"","latitude":"24.0423","longitude":"74.5012","accuracy":"3"}],"312627":[{"address3":"Tumbdiya","state":"Rajasthan","state_code":"24","district":"Chittorgarh","district_code":"126","address1":"SADAS","address2":"","latitude":"25.0961","longitude":"74.7439","accuracy":"4"},{"address3":"Raghunathpura","state":"Rajasthan","state_code":"24","district":"Chittorgarh","district_code":"126","address1":"SADAS","address2":"","latitude":"25.1755","longitude":"74.7515","accuracy":"4"},{"address3":"Jawasiya","state":"Rajasthan","state_code":"24","district":"Chittorgarh","district_code":"126","address1":"SADAS","address2":"","latitude":"25.1311","longitude":"74.71","accuracy":"3"},{"address3":"Kunwaliya","state":"Rajasthan","state_code":"24","district":"Chittorgarh","district_code":"126","address1":"SADAS","address2":"","latitude":"25.1311","longitude":"74.71","accuracy":"3"},{"address3":"Mandapia","state":"Rajasthan","state_code":"24","district":"Chittorgarh","district_code":"126","address1":"SADAS","address2":"","latitude":"25.1311","longitude":"74.71","accuracy":"3"},{"address3":"Soniyana","state":"Rajasthan","state_code":"24","district":"Chittorgarh","district_code":"126","address1":"SADAS","address2":"","latitude":"25.1217","longitude":"74.6345","accuracy":"4"},{"address3":"Sadas SO","state":"Rajasthan","state_code":"24","district":"Chittorgarh","district_code":"126","address1":"Gangrar","address2":"","latitude":"25.1311","longitude":"74.71","accuracy":"3"}],"312901":[{"address3":"Kharkhanda","state":"Rajasthan","state_code":"24","district":"Chittorgarh","district_code":"126","address1":"Gangrar","address2":"","latitude":"25.0377","longitude":"74.4889","accuracy":"4"},{"address3":"Sudri","state":"Rajasthan","state_code":"24","district":"Chittorgarh","district_code":"126","address1":"Gangrar","address2":"","latitude":"25.0578","longitude":"74.5643","accuracy":"4"},{"address3":"Borda","state":"Rajasthan","state_code":"24","district":"Chittorgarh","district_code":"126","address1":"Gangrar","address2":"","latitude":"24.9769","longitude":"74.5523","accuracy":"4"},{"address3":"Undwa","state":"Rajasthan","state_code":"24","district":"Chittorgarh","district_code":"126","address1":"Gangrar","address2":"","latitude":"25.1329","longitude":"74.5932","accuracy":"4"},{"address3":"Chogawadi","state":"Rajasthan","state_code":"24","district":"Chittorgarh","district_code":"126","address1":"Gangrar","address2":"","latitude":"25.0452","longitude":"74.5557","accuracy":"3"},{"address3":"Gangrar","state":"Rajasthan","state_code":"24","district":"Chittorgarh","district_code":"126","address1":"Gangrar","address2":"","latitude":"25.0528","longitude":"74.6092","accuracy":"4"},{"address3":"Kanti","state":"Rajasthan","state_code":"24","district":"Chittorgarh","district_code":"126","address1":"Gangrar","address2":"","latitude":"25.0129","longitude":"74.5266","accuracy":"4"},{"address3":"Bolon Ka Sanwata","state":"Rajasthan","state_code":"24","district":"Chittorgarh","district_code":"126","address1":"Gangrar","address2":"","latitude":"25.0452","longitude":"74.5557","accuracy":"3"},{"address3":"Suwania","state":"Rajasthan","state_code":"24","district":"Chittorgarh","district_code":"126","address1":"Gangrar","address2":"","latitude":"25.0452","longitude":"74.5557","accuracy":"3"},{"address3":"Rood","state":"Rajasthan","state_code":"24","district":"Chittorgarh","district_code":"126","address1":"Gangrar","address2":"","latitude":"25.0452","longitude":"74.5557","accuracy":"3"},{"address3":"Bood","state":"Rajasthan","state_code":"24","district":"Chittorgarh","district_code":"126","address1":"Gangrar","address2":"","latitude":"25.0452","longitude":"74.5557","accuracy":"3"},{"address3":"Bavlas","state":"Rajasthan","state_code":"24","district":"Chittorgarh","district_code":"126","address1":"Gangrar","address2":"","latitude":"25.0452","longitude":"74.5557","accuracy":"3"},{"address3":"Sadi","state":"Rajasthan","state_code":"24","district":"Chittorgarh","district_code":"126","address1":"Gangrar","address2":"","latitude":"25.0452","longitude":"74.5557","accuracy":"3"},{"address3":"Jojron Ka Kheda","state":"Rajasthan","state_code":"24","district":"Chittorgarh","district_code":"126","address1":"Gangrar","address2":"","latitude":"25.0452","longitude":"74.5557","accuracy":"3"}],"credits":[{"name":"geonames","url":"https://www.geonames.org"}],"last_update":"2019-03-01T09:01:34.923Z"}