{"326001":[{"address3":"Bhimsagar Dam","state":"Rajasthan","state_code":"24","district":"Jhalawar","district_code":"129","address1":"Jhalawar","address2":"","latitude":"24.7136","longitude":"76.2611","accuracy":"3"},{"address3":"Mundla","state":"Rajasthan","state_code":"24","district":"Jhalawar","district_code":"129","address1":"Jhalawar","address2":"","latitude":"24.3289","longitude":"76.1968","accuracy":"4"},{"address3":"Collectorate Jhalawar","state":"Rajasthan","state_code":"24","district":"Jhalawar","district_code":"129","address1":"Jhalawar","address2":"","latitude":"24.7136","longitude":"76.2611","accuracy":"3"},{"address3":"Harigarh","state":"Rajasthan","state_code":"24","district":"Jhalawar","district_code":"129","address1":"Jhalawar","address2":"","latitude":"24.6575","longitude":"76.26","accuracy":"4"},{"address3":"Jhalawar H.O","state":"Rajasthan","state_code":"24","district":"Jhalawar","district_code":"129","address1":"Jhalawar","address2":"","latitude":"24.7136","longitude":"76.2611","accuracy":"3"},{"address3":"Gordhanpura","state":"Rajasthan","state_code":"24","district":"Jhalawar","district_code":"129","address1":"Jhalawar","address2":"","latitude":"24.5559","longitude":"76.2683","accuracy":"4"},{"address3":"Gagron","state":"Rajasthan","state_code":"24","district":"Jhalawar","district_code":"129","address1":"Jhalawar","address2":"","latitude":"24.7136","longitude":"76.2611","accuracy":"3"},{"address3":"Bagher","state":"Rajasthan","state_code":"24","district":"Jhalawar","district_code":"129","address1":"Jhalawar","address2":"","latitude":"24.6132","longitude":"76.2714","accuracy":"4"},{"address3":"Borda Mau","state":"Rajasthan","state_code":"24","district":"Jhalawar","district_code":"129","address1":"Jhalawar","address2":"","latitude":"24.7136","longitude":"76.2611","accuracy":"3"},{"address3":"Mandawar","state":"Rajasthan","state_code":"24","district":"Jhalawar","district_code":"129","address1":"Jhalawar","address2":"","latitude":"24.5749","longitude":"76.2433","accuracy":"4"},{"address3":"Duragpura","state":"Rajasthan","state_code":"24","district":"Jhalawar","district_code":"129","address1":"Jhalawar","address2":"","latitude":"24.6312","longitude":"76.1356","accuracy":"4"},{"address3":"Laiphal","state":"Rajasthan","state_code":"24","district":"Jhalawar","district_code":"129","address1":"Jhalawar","address2":"","latitude":"24.7099","longitude":"76.2473","accuracy":"4"}],"326021":[{"address3":"Asnawar","state":"Rajasthan","state_code":"24","district":"Jhalawar","district_code":"129","address1":"Jhalawar","address2":"","latitude":"24.4802","longitude":"76.3276","accuracy":"4"},{"address3":"Barodia","state":"Rajasthan","state_code":"24","district":"Jhalawar","district_code":"129","address1":"Jhalawar","address2":"","latitude":"24.3289","longitude":"76.1968","accuracy":"4"},{"address3":"Panwasa","state":"Rajasthan","state_code":"24","district":"Jhalawar","district_code":"129","address1":"Jhalawar","address2":"","latitude":"24.5131","longitude":"76.3083","accuracy":"4"},{"address3":"Lawasal","state":"Rajasthan","state_code":"24","district":"Jhalawar","district_code":"129","address1":"Jhalawar","address2":"","latitude":"24.5005","longitude":"76.3627","accuracy":"4"},{"address3":"Iktasa","state":"Rajasthan","state_code":"24","district":"Jhalawar","district_code":"129","address1":"Jhalawar","address2":"","latitude":"24.5188","longitude":"76.2526","accuracy":"3"},{"address3":"Junakheda","state":"Rajasthan","state_code":"24","district":"Jhalawar","district_code":"129","address1":"Jhalawar","address2":"","latitude":"24.5188","longitude":"76.2526","accuracy":"3"},{"address3":"Ruparel","state":"Rajasthan","state_code":"24","district":"Jhalawar","district_code":"129","address1":"Jhalawar","address2":"","latitude":"24.4977","longitude":"76.2505","accuracy":"4"},{"address3":"Dungargaon","state":"Rajasthan","state_code":"24","district":"Jhalawar","district_code":"129","address1":"Jhalawar","address2":"","latitude":"24.2527","longitude":"76.5428","accuracy":"4"}],"326022":[{"address3":"Kushalpura","state":"Rajasthan","state_code":"24","district":"Jhalawar","district_code":"129","address1":"Jhalawar","address2":"","latitude":"24.288","longitude":"76.309","accuracy":"4"},{"address3":"Baday","state":"Rajasthan","state_code":"24","district":"Jhalawar","district_code":"129","address1":"Jhalawar","address2":"","latitude":"24.3533","longitude":"76.3339","accuracy":"3"},{"address3":"Agaria","state":"Rajasthan","state_code":"24","district":"Jhalawar","district_code":"129","address1":"Jhalawar","address2":"","latitude":"24.3533","longitude":"76.3339","accuracy":"3"},{"address3":"Dev Nagar","state":"Rajasthan","state_code":"24","district":"Jhalawar","district_code":"129","address1":"Jhalawar","address2":"","latitude":"24.3533","longitude":"76.3339","accuracy":"3"},{"address3":"Modi","state":"Rajasthan","state_code":"24","district":"Jhalawar","district_code":"129","address1":"Jhalawar","address2":"","latitude":"24.4857","longitude":"76.4556","accuracy":"4"},{"address3":"Bakani","state":"Rajasthan","state_code":"24","district":"Jhalawar","district_code":"129","address1":"Jhalawar","address2":"","latitude":"24.2862","longitude":"76.2371","accuracy":"4"},{"address3":"Thobariya Khurd","state":"Rajasthan","state_code":"24","district":"Jhalawar","district_code":"129","address1":"Jhalawar","address2":"","latitude":"24.3533","longitude":"76.3339","accuracy":"3"},{"address3":"Nanore","state":"Rajasthan","state_code":"24","district":"Jhalawar","district_code":"129","address1":"Jhalawar","address2":"","latitude":"24.3533","longitude":"76.3339","accuracy":"3"},{"address3":"Karal Gaon","state":"Rajasthan","state_code":"24","district":"Jhalawar","district_code":"129","address1":"Jhalawar","address2":"","latitude":"24.3533","longitude":"76.3339","accuracy":"3"},{"address3":"Garwada","state":"Rajasthan","state_code":"24","district":"Jhalawar","district_code":"129","address1":"Jhalawar","address2":"","latitude":"24.3533","longitude":"76.3339","accuracy":"3"},{"address3":"Gurukul","state":"Rajasthan","state_code":"24","district":"Jhalawar","district_code":"129","address1":"Jhalawar","address2":"","latitude":"24.3533","longitude":"76.3339","accuracy":"3"}],"326023":[{"address3":"Salawad","state":"Rajasthan","state_code":"24","district":"Jhalawar","district_code":"129","address1":"Jhalawar","address2":"","latitude":"24.3994","longitude":"76.6256","accuracy":"4"},{"address3":"Deori","state":"Rajasthan","state_code":"24","district":"Jhalawar","district_code":"129","address1":"Jhalawar","address2":"","latitude":"24.3069","longitude":"76.2842","accuracy":"4"},{"address3":"Nasirabad","state":"Rajasthan","state_code":"24","district":"Jhalawar","district_code":"129","address1":"Jhalawar","address2":"","latitude":"24.3289","longitude":"76.1968","accuracy":"4"},{"address3":"Bhanwarsa","state":"Rajasthan","state_code":"24","district":"Jhalawar","district_code":"129","address1":"Jhalawar","address2":"","latitude":"24.7479","longitude":"76.0825","accuracy":"3"},{"address3":"Ratlai","state":"Rajasthan","state_code":"24","district":"Jhalawar","district_code":"129","address1":"Jhalawar","address2":"","latitude":"24.3747","longitude":"76.3118","accuracy":"4"},{"address3":"Guradkheda","state":"Rajasthan","state_code":"24","district":"Jhalawar","district_code":"129","address1":"Jhalawar","address2":"","latitude":"24.7479","longitude":"76.0825","accuracy":"3"},{"address3":"Kalmandi Kalan","state":"Rajasthan","state_code":"24","district":"Jhalawar","district_code":"129","address1":"Jhalawar","address2":"","latitude":"24.5839","longitude":"76.088","accuracy":"4"},{"address3":"Khanpuria","state":"Rajasthan","state_code":"24","district":"Jhalawar","district_code":"129","address1":"Jhalawar","address2":"","latitude":"24.7479","longitude":"76.0825","accuracy":"3"},{"address3":"Govindpura","state":"Rajasthan","state_code":"24","district":"Jhalawar","district_code":"129","address1":"Jhalawar","address2":"","latitude":"24.5619","longitude":"76.2031","accuracy":"4"},{"address3":"Parlia Kulmi","state":"Rajasthan","state_code":"24","district":"Jhalawar","district_code":"129","address1":"Jhalawar","address2":"","latitude":"24.7479","longitude":"76.0825","accuracy":"3"},{"address3":"Richhawan","state":"Rajasthan","state_code":"24","district":"Jhalawar","district_code":"129","address1":"Jhalawar","address2":"","latitude":"24.7479","longitude":"76.0825","accuracy":"3"},{"address3":"Rijhone","state":"Rajasthan","state_code":"24","district":"Jhalawar","district_code":"129","address1":"Jhalawar","address2":"","latitude":"24.7479","longitude":"76.0825","accuracy":"3"},{"address3":"Titarwasa ","state":"Rajasthan","state_code":"24","district":"Jhalawar","district_code":"129","address1":"Jhalawar","address2":"","latitude":"24.7479","longitude":"76.0825","accuracy":"3"},{"address3":"Jhalara Patan City","state":"Rajasthan","state_code":"24","district":"Jhalawar","district_code":"129","address1":"Jhalawar","address2":"","latitude":"24.7479","longitude":"76.0825","accuracy":"3"},{"address3":"Badbad","state":"Rajasthan","state_code":"24","district":"Jhalawar","district_code":"129","address1":"Jhalawar","address2":"","latitude":"24.7479","longitude":"76.0825","accuracy":"3"},{"address3":"Dunda","state":"Rajasthan","state_code":"24","district":"Jhalawar","district_code":"129","address1":"Jhalawar","address2":"","latitude":"24.7041","longitude":"76.3315","accuracy":"4"},{"address3":"Rundlao","state":"Rajasthan","state_code":"24","district":"Jhalawar","district_code":"129","address1":"Jhalawar","address2":"","latitude":"24.7479","longitude":"76.0825","accuracy":"3"}],"326024":[{"address3":"KSTPP Jhalawar","state":"Rajasthan","state_code":"24","district":"Jhalawar","district_code":"129","address1":"Jhalawar","address2":"","latitude":"24.588","longitude":"76.1935","accuracy":"1"}],"326033":[{"address3":"Thanawad","state":"Rajasthan","state_code":"24","district":"Jhalawar","district_code":"129","address1":"Jhalawar","address2":"","latitude":"24.4717","longitude":"76.4752","accuracy":"4"},{"address3":"Lhas","state":"Rajasthan","state_code":"24","district":"Jhalawar","district_code":"129","address1":"Jhalawar","address2":"","latitude":"24.4313","longitude":"76.4904","accuracy":"3"},{"address3":"Gehu Khedi","state":"Rajasthan","state_code":"24","district":"Jhalawar","district_code":"129","address1":"Jhalawar","address2":"","latitude":"24.4313","longitude":"76.4904","accuracy":"3"},{"address3":"Kam Khera","state":"Rajasthan","state_code":"24","district":"Jhalawar","district_code":"129","address1":"Jhalawar","address2":"","latitude":"24.4313","longitude":"76.4904","accuracy":"3"},{"address3":"Turkadia","state":"Rajasthan","state_code":"24","district":"Jhalawar","district_code":"129","address1":"Jhalawar","address2":"","latitude":"24.4313","longitude":"76.4904","accuracy":"3"},{"address3":"Lasudia Shaha","state":"Rajasthan","state_code":"24","district":"Jhalawar","district_code":"129","address1":"Jhalawar","address2":"","latitude":"24.4313","longitude":"76.4904","accuracy":"3"},{"address3":"Badwad","state":"Rajasthan","state_code":"24","district":"Jhalawar","district_code":"129","address1":"Jhalawar","address2":"","latitude":"24.4313","longitude":"76.4904","accuracy":"3"},{"address3":"Maithun","state":"Rajasthan","state_code":"24","district":"Jhalawar","district_code":"129","address1":"Jhalawar","address2":"","latitude":"24.4313","longitude":"76.4904","accuracy":"3"},{"address3":"Baira Garh","state":"Rajasthan","state_code":"24","district":"Jhalawar","district_code":"129","address1":"Jhalawar","address2":"","latitude":"24.4313","longitude":"76.4904","accuracy":"3"},{"address3":"Mishroli","state":"Rajasthan","state_code":"24","district":"Jhalawar","district_code":"129","address1":"Jhalawar","address2":"","latitude":"24.4313","longitude":"76.4904","accuracy":"3"},{"address3":"Churalia","state":"Rajasthan","state_code":"24","district":"Jhalawar","district_code":"129","address1":"Jhalawar","address2":"","latitude":"24.4313","longitude":"76.4904","accuracy":"3"},{"address3":"Thedol","state":"Rajasthan","state_code":"24","district":"Jhalawar","district_code":"129","address1":"Jhalawar","address2":"","latitude":"24.4313","longitude":"76.4904","accuracy":"3"},{"address3":"Deori Kalan","state":"Rajasthan","state_code":"24","district":"Jhalawar","district_code":"129","address1":"Jhalawar","address2":"","latitude":"24.4313","longitude":"76.4904","accuracy":"3"},{"address3":"Saredi","state":"Rajasthan","state_code":"24","district":"Jhalawar","district_code":"129","address1":"Jhalawar","address2":"","latitude":"24.4313","longitude":"76.4904","accuracy":"3"},{"address3":"Ametha","state":"Rajasthan","state_code":"24","district":"Jhalawar","district_code":"129","address1":"Jhalawar","address2":"","latitude":"24.4092","longitude":"76.4287","accuracy":"4"},{"address3":"Aklera","state":"Rajasthan","state_code":"24","district":"Jhalawar","district_code":"129","address1":"Jhalawar","address2":"","latitude":"24.4129","longitude":"76.5672","accuracy":"4"}],"326034":[{"address3":"Danta","state":"Rajasthan","state_code":"24","district":"Jhalawar","district_code":"129","address1":"Jhalawar","address2":"","latitude":"24.3289","longitude":"76.1968","accuracy":"4"},{"address3":"Kotri","state":"Rajasthan","state_code":"24","district":"Jhalawar","district_code":"129","address1":"Jhalawar","address2":"","latitude":"24.4632","longitude":"76.4488","accuracy":"4"},{"address3":"Govindpura","state":"Rajasthan","state_code":"24","district":"Jhalawar","district_code":"129","address1":"Jhalawar","address2":"","latitude":"24.5619","longitude":"76.2031","accuracy":"4"},{"address3":"Saroniya","state":"Rajasthan","state_code":"24","district":"Jhalawar","district_code":"129","address1":"Jhalawar","address2":"","latitude":"24.8479","longitude":"75.9442","accuracy":"3"},{"address3":"Rampuria","state":"Rajasthan","state_code":"24","district":"Jhalawar","district_code":"129","address1":"Jhalawar","address2":"","latitude":"24.3289","longitude":"76.1968","accuracy":"4"},{"address3":"Harnawda Gaja","state":"Rajasthan","state_code":"24","district":"Jhalawar","district_code":"129","address1":"Jhalawar","address2":"","latitude":"24.8479","longitude":"75.9442","accuracy":"3"},{"address3":"Naulai","state":"Rajasthan","state_code":"24","district":"Jhalawar","district_code":"129","address1":"Jhalawar","address2":"","latitude":"24.8479","longitude":"75.9442","accuracy":"3"},{"address3":"Pirawa","state":"Rajasthan","state_code":"24","district":"Jhalawar","district_code":"129","address1":"Jhalawar","address2":"","latitude":"24.1551","longitude":"76.0273","accuracy":"4"},{"address3":"Kharpakalan","state":"Rajasthan","state_code":"24","district":"Jhalawar","district_code":"129","address1":"Jhalawar","address2":"","latitude":"24.8479","longitude":"75.9442","accuracy":"3"},{"address3":"Dharonia","state":"Rajasthan","state_code":"24","district":"Jhalawar","district_code":"129","address1":"Jhalawar","address2":"","latitude":"24.8479","longitude":"75.9442","accuracy":"3"},{"address3":"Khairana","state":"Rajasthan","state_code":"24","district":"Jhalawar","district_code":"129","address1":"Jhalawar","address2":"","latitude":"24.8479","longitude":"75.9442","accuracy":"3"},{"address3":"Dabla Bhoj","state":"Rajasthan","state_code":"24","district":"Jhalawar","district_code":"129","address1":"Jhalawar","address2":"","latitude":"24.8479","longitude":"75.9442","accuracy":"3"},{"address3":"Odiya Khedi","state":"Rajasthan","state_code":"24","district":"Jhalawar","district_code":"129","address1":"Jhalawar","address2":"","latitude":"24.8479","longitude":"75.9442","accuracy":"3"},{"address3":"Ramai Dalpat","state":"Rajasthan","state_code":"24","district":"Jhalawar","district_code":"129","address1":"Jhalawar","address2":"","latitude":"24.8479","longitude":"75.9442","accuracy":"3"}],"326035":[{"address3":"Taraj","state":"Rajasthan","state_code":"24","district":"Jhalawar","district_code":"129","address1":"Jhalawar","address2":"","latitude":"24.5232","longitude":"76.4952","accuracy":"4"},{"address3":"Dhanoda","state":"Rajasthan","state_code":"24","district":"Jhalawar","district_code":"129","address1":"Jhalawar","address2":"","latitude":"24.5315","longitude":"76.2185","accuracy":"4"},{"address3":"Bareda","state":"Rajasthan","state_code":"24","district":"Jhalawar","district_code":"129","address1":"Jhalawar","address2":"","latitude":"24.3289","longitude":"76.1968","accuracy":"4"},{"address3":"Akawad Khurd","state":"Rajasthan","state_code":"24","district":"Jhalawar","district_code":"129","address1":"Jhalawar","address2":"","latitude":"25.0649","longitude":"75.9303","accuracy":"3"},{"address3":"Sarola","state":"Rajasthan","state_code":"24","district":"Jhalawar","district_code":"129","address1":"Jhalawar","address2":"","latitude":"24.6","longitude":"76.4167","accuracy":"4"},{"address3":"Malanwas","state":"Rajasthan","state_code":"24","district":"Jhalawar","district_code":"129","address1":"Jhalawar","address2":"","latitude":"25.0649","longitude":"75.9303","accuracy":"3"},{"address3":"Karanwas","state":"Rajasthan","state_code":"24","district":"Jhalawar","district_code":"129","address1":"Jhalawar","address2":"","latitude":"24.3289","longitude":"76.1968","accuracy":"4"},{"address3":"Chanpa Khurd","state":"Rajasthan","state_code":"24","district":"Jhalawar","district_code":"129","address1":"Jhalawar","address2":"","latitude":"25.0649","longitude":"75.9303","accuracy":"3"}],"326036":[{"address3":"Jhumki","state":"Rajasthan","state_code":"24","district":"Jhalawar","district_code":"129","address1":"Jhalawar","address2":"","latitude":"24.4038","longitude":"76.3168","accuracy":"4"},{"address3":"Sunwas","state":"Rajasthan","state_code":"24","district":"Jhalawar","district_code":"129","address1":"Jhalawar","address2":"","latitude":"24.4038","longitude":"76.3168","accuracy":"3"},{"address3":"Salri","state":"Rajasthan","state_code":"24","district":"Jhalawar","district_code":"129","address1":"Jhalawar","address2":"","latitude":"24.3289","longitude":"76.1968","accuracy":"3"},{"address3":"Piplod","state":"Rajasthan","state_code":"24","district":"Jhalawar","district_code":"129","address1":"Jhalawar","address2":"","latitude":"24.4038","longitude":"76.3168","accuracy":"3"},{"address3":"Soyala","state":"Rajasthan","state_code":"24","district":"Jhalawar","district_code":"129","address1":"Jhalawar","address2":"","latitude":"24.3289","longitude":"76.1968","accuracy":"3"},{"address3":"Kutki","state":"Rajasthan","state_code":"24","district":"Jhalawar","district_code":"129","address1":"Jhalawar","address2":"","latitude":"24.4038","longitude":"76.3168","accuracy":"3"},{"address3":"Mathania","state":"Rajasthan","state_code":"24","district":"Jhalawar","district_code":"129","address1":"Jhalawar","address2":"","latitude":"24.3289","longitude":"76.1968","accuracy":"3"},{"address3":"Banore","state":"Rajasthan","state_code":"24","district":"Jhalawar","district_code":"129","address1":"Jhalawar","address2":"","latitude":"24.4038","longitude":"76.3168","accuracy":"3"},{"address3":"Kali Talai","state":"Rajasthan","state_code":"24","district":"Jhalawar","district_code":"129","address1":"Jhalawar","address2":"","latitude":"24.4038","longitude":"76.3168","accuracy":"3"},{"address3":"Fateh Garh","state":"Rajasthan","state_code":"24","district":"Jhalawar","district_code":"129","address1":"Jhalawar","address2":"","latitude":"24.4038","longitude":"76.3168","accuracy":"3"},{"address3":"Himmat Garh","state":"Rajasthan","state_code":"24","district":"Jhalawar","district_code":"129","address1":"Jhalawar","address2":"","latitude":"24.4038","longitude":"76.3168","accuracy":"3"},{"address3":"Dewal Kheda","state":"Rajasthan","state_code":"24","district":"Jhalawar","district_code":"129","address1":"Jhalawar","address2":"","latitude":"24.4038","longitude":"76.3168","accuracy":"3"},{"address3":"Semli Khan","state":"Rajasthan","state_code":"24","district":"Jhalawar","district_code":"129","address1":"Jhalawar","address2":"","latitude":"24.4038","longitude":"76.3168","accuracy":"3"},{"address3":"Ditya Khedi","state":"Rajasthan","state_code":"24","district":"Jhalawar","district_code":"129","address1":"Jhalawar","address2":"","latitude":"24.4038","longitude":"76.3168","accuracy":"3"},{"address3":"Raipur (Jhalawar)","state":"Rajasthan","state_code":"24","district":"Jhalawar","district_code":"129","address1":"Jhalawar","address2":"","latitude":"24.4038","longitude":"76.3168","accuracy":"3"}],"326037":[{"address3":"Chandipur","state":"Rajasthan","state_code":"24","district":"Jhalawar","district_code":"129","address1":"Jhalawar","address2":"","latitude":"24.3779","longitude":"76.7657","accuracy":"4"},{"address3":"Jawar","state":"Rajasthan","state_code":"24","district":"Jhalawar","district_code":"129","address1":"Jhalawar","address2":"","latitude":"24.3327","longitude":"76.75","accuracy":"4"},{"address3":"Maharajpura","state":"Rajasthan","state_code":"24","district":"Jhalawar","district_code":"129","address1":"Jhalawar","address2":"","latitude":"24.3289","longitude":"76.1968","accuracy":"4"},{"address3":"Banskheda","state":"Rajasthan","state_code":"24","district":"Jhalawar","district_code":"129","address1":"Jhalawar","address2":"","latitude":"24.4368","longitude":"76.7426","accuracy":"3"},{"address3":"Manohar Thana","state":"Rajasthan","state_code":"24","district":"Jhalawar","district_code":"129","address1":"Jhalawar","address2":"","latitude":"24.24","longitude":"76.8018","accuracy":"4"},{"address3":"Semlihat","state":"Rajasthan","state_code":"24","district":"Jhalawar","district_code":"129","address1":"Jhalawar","address2":"","latitude":"24.4368","longitude":"76.7426","accuracy":"3"},{"address3":"Todrimeeran","state":"Rajasthan","state_code":"24","district":"Jhalawar","district_code":"129","address1":"Jhalawar","address2":"","latitude":"24.4368","longitude":"76.7426","accuracy":"3"},{"address3":"Kolukheri Maliyan","state":"Rajasthan","state_code":"24","district":"Jhalawar","district_code":"129","address1":"Jhalawar","address2":"","latitude":"24.4368","longitude":"76.7426","accuracy":"3"},{"address3":"Todri Jagannath","state":"Rajasthan","state_code":"24","district":"Jhalawar","district_code":"129","address1":"Jhalawar","address2":"","latitude":"24.4368","longitude":"76.7426","accuracy":"3"},{"address3":"Banskhedi","state":"Rajasthan","state_code":"24","district":"Jhalawar","district_code":"129","address1":"Jhalawar","address2":"","latitude":"24.4368","longitude":"76.7426","accuracy":"3"},{"address3":"Manpasar","state":"Rajasthan","state_code":"24","district":"Jhalawar","district_code":"129","address1":"Jhalawar","address2":"","latitude":"24.4368","longitude":"76.7426","accuracy":"3"},{"address3":"Kolukheri Kalan","state":"Rajasthan","state_code":"24","district":"Jhalawar","district_code":"129","address1":"Jhalawar","address2":"","latitude":"24.4368","longitude":"76.7426","accuracy":"3"},{"address3":"Pindola","state":"Rajasthan","state_code":"24","district":"Jhalawar","district_code":"129","address1":"Jhalawar","address2":"","latitude":"24.4368","longitude":"76.7426","accuracy":"3"},{"address3":"Anwalheda","state":"Rajasthan","state_code":"24","district":"Jhalawar","district_code":"129","address1":"Jhalawar","address2":"","latitude":"24.4368","longitude":"76.7426","accuracy":"3"},{"address3":"Baneth","state":"Rajasthan","state_code":"24","district":"Jhalawar","district_code":"129","address1":"Jhalawar","address2":"","latitude":"24.4368","longitude":"76.7426","accuracy":"3"},{"address3":"Sorti","state":"Rajasthan","state_code":"24","district":"Jhalawar","district_code":"129","address1":"Jhalawar","address2":"","latitude":"24.4368","longitude":"76.7426","accuracy":"3"},{"address3":"Thiakria","state":"Rajasthan","state_code":"24","district":"Jhalawar","district_code":"129","address1":"Jhalawar","address2":"","latitude":"24.4368","longitude":"76.7426","accuracy":"3"},{"address3":"Chandpura Bheelan","state":"Rajasthan","state_code":"24","district":"Jhalawar","district_code":"129","address1":"Jhalawar","address2":"","latitude":"24.4368","longitude":"76.7426","accuracy":"3"},{"address3":"Dangipura","state":"Rajasthan","state_code":"24","district":"Jhalawar","district_code":"129","address1":"Jhalawar","address2":"","latitude":"24.4368","longitude":"76.7426","accuracy":"3"},{"address3":"Garbolia","state":"Rajasthan","state_code":"24","district":"Jhalawar","district_code":"129","address1":"Jhalawar","address2":"","latitude":"24.4368","longitude":"76.7426","accuracy":"3"},{"address3":"Ranwasia","state":"Rajasthan","state_code":"24","district":"Jhalawar","district_code":"129","address1":"Jhalawar","address2":"","latitude":"24.4368","longitude":"76.7426","accuracy":"3"},{"address3":"Kherkheda","state":"Rajasthan","state_code":"24","district":"Jhalawar","district_code":"129","address1":"Jhalawar","address2":"","latitude":"24.4368","longitude":"76.7426","accuracy":"3"},{"address3":"Khatkakhedi","state":"Rajasthan","state_code":"24","district":"Jhalawar","district_code":"129","address1":"Jhalawar","address2":"","latitude":"24.4368","longitude":"76.7426","accuracy":"3"},{"address3":"Samrol","state":"Rajasthan","state_code":"24","district":"Jhalawar","district_code":"129","address1":"Jhalawar","address2":"","latitude":"24.4368","longitude":"76.7426","accuracy":"3"}],"326038":[{"address3":"Dahikheda","state":"Rajasthan","state_code":"24","district":"Jhalawar","district_code":"129","address1":"Jhalawar","address2":"","latitude":"24.7589","longitude":"76.3505","accuracy":"3"},{"address3":"Leemi","state":"Rajasthan","state_code":"24","district":"Jhalawar","district_code":"129","address1":"Jhalawar","address2":"","latitude":"24.7589","longitude":"76.3505","accuracy":"3"},{"address3":"Khanpur (Jhalawar)","state":"Rajasthan","state_code":"24","district":"Jhalawar","district_code":"129","address1":"Jhalawar","address2":"","latitude":"24.7324","longitude":"76.396","accuracy":"4"},{"address3":"Bhagwanpura","state":"Rajasthan","state_code":"24","district":"Jhalawar","district_code":"129","address1":"Jhalawar","address2":"","latitude":"24.8004","longitude":"76.3377","accuracy":"4"},{"address3":"Gadarwada Noorji","state":"Rajasthan","state_code":"24","district":"Jhalawar","district_code":"129","address1":"Jhalawar","address2":"","latitude":"24.7589","longitude":"76.3505","accuracy":"3"},{"address3":"Piplaj","state":"Rajasthan","state_code":"24","district":"Jhalawar","district_code":"129","address1":"Jhalawar","address2":"","latitude":"24.7007","longitude":"76.4267","accuracy":"4"},{"address3":"Sumar","state":"Rajasthan","state_code":"24","district":"Jhalawar","district_code":"129","address1":"Jhalawar","address2":"","latitude":"24.7854","longitude":"76.3942","accuracy":"4"},{"address3":"Pakhrana","state":"Rajasthan","state_code":"24","district":"Jhalawar","district_code":"129","address1":"Jhalawar","address2":"","latitude":"24.7273","longitude":"76.2968","accuracy":"4"},{"address3":"Khandli","state":"Rajasthan","state_code":"24","district":"Jhalawar","district_code":"129","address1":"Jhalawar","address2":"","latitude":"24.7589","longitude":"76.3505","accuracy":"3"},{"address3":"Maraitha","state":"Rajasthan","state_code":"24","district":"Jhalawar","district_code":"129","address1":"Jhalawar","address2":"","latitude":"24.7589","longitude":"76.3505","accuracy":"3"},{"address3":"Panwar","state":"Rajasthan","state_code":"24","district":"Jhalawar","district_code":"129","address1":"Jhalawar","address2":"","latitude":"24.7701","longitude":"76.2566","accuracy":"4"},{"address3":"Sojpur","state":"Rajasthan","state_code":"24","district":"Jhalawar","district_code":"129","address1":"Jhalawar","address2":"","latitude":"24.6768","longitude":"76.4297","accuracy":"4"},{"address3":"Kanwarpura","state":"Rajasthan","state_code":"24","district":"Jhalawar","district_code":"129","address1":"Jhalawar","address2":"","latitude":"24.8092","longitude":"76.378","accuracy":"4"},{"address3":"Jolpa","state":"Rajasthan","state_code":"24","district":"Jhalawar","district_code":"129","address1":"Jhalawar","address2":"","latitude":"24.8417","longitude":"76.3544","accuracy":"4"},{"address3":"Jarga","state":"Rajasthan","state_code":"24","district":"Jhalawar","district_code":"129","address1":"Jhalawar","address2":"","latitude":"24.7346","longitude":"76.3158","accuracy":"4"},{"address3":"Golana","state":"Rajasthan","state_code":"24","district":"Jhalawar","district_code":"129","address1":"Jhalawar","address2":"","latitude":"24.688","longitude":"76.3398","accuracy":"4"},{"address3":"Dobra","state":"Rajasthan","state_code":"24","district":"Jhalawar","district_code":"129","address1":"Jhalawar","address2":"","latitude":"24.7805","longitude":"76.3698","accuracy":"4"},{"address3":"Akodiya","state":"Rajasthan","state_code":"24","district":"Jhalawar","district_code":"129","address1":"Jhalawar","address2":"","latitude":"24.8185","longitude":"76.2608","accuracy":"4"}],"326039":[{"address3":"Gopalpura","state":"Rajasthan","state_code":"24","district":"Jhalawar","district_code":"129","address1":"Jhalawar","address2":"","latitude":"24.5981","longitude":"76.1333","accuracy":"4"},{"address3":"Asalpura","state":"Rajasthan","state_code":"24","district":"Jhalawar","district_code":"129","address1":"Jhalawar","address2":"","latitude":"24.3289","longitude":"76.1968","accuracy":"4"},{"address3":"Bahalta","state":"Rajasthan","state_code":"24","district":"Jhalawar","district_code":"129","address1":"Jhalawar","address2":"","latitude":"24.434","longitude":"76.4589","accuracy":"3"},{"address3":"Pachola ","state":"Rajasthan","state_code":"24","district":"Jhalawar","district_code":"129","address1":"Jhalawar","address2":"","latitude":"24.3603","longitude":"76.5457","accuracy":"4"},{"address3":"Banskhedi Lodhan","state":"Rajasthan","state_code":"24","district":"Jhalawar","district_code":"129","address1":"Jhalawar","address2":"","latitude":"24.434","longitude":"76.4589","accuracy":"3"},{"address3":"Ghatoli","state":"Rajasthan","state_code":"24","district":"Jhalawar","district_code":"129","address1":"Jhalawar","address2":"","latitude":"24.306","longitude":"76.5321","accuracy":"4"},{"address3":"Binda Kheda","state":"Rajasthan","state_code":"24","district":"Jhalawar","district_code":"129","address1":"Jhalawar","address2":"","latitude":"24.434","longitude":"76.4589","accuracy":"3"},{"address3":"Umaria","state":"Rajasthan","state_code":"24","district":"Jhalawar","district_code":"129","address1":"Jhalawar","address2":"","latitude":"24.434","longitude":"76.4589","accuracy":"3"},{"address3":"Sarkhandia","state":"Rajasthan","state_code":"24","district":"Jhalawar","district_code":"129","address1":"Jhalawar","address2":"","latitude":"24.434","longitude":"76.4589","accuracy":"3"},{"address3":"Sarda","state":"Rajasthan","state_code":"24","district":"Jhalawar","district_code":"129","address1":"Jhalawar","address2":"","latitude":"24.434","longitude":"76.4589","accuracy":"3"},{"address3":"Kohri Jhar","state":"Rajasthan","state_code":"24","district":"Jhalawar","district_code":"129","address1":"Jhalawar","address2":"","latitude":"24.434","longitude":"76.4589","accuracy":"3"},{"address3":"Gulkhedi","state":"Rajasthan","state_code":"24","district":"Jhalawar","district_code":"129","address1":"Jhalawar","address2":"","latitude":"24.434","longitude":"76.4589","accuracy":"3"},{"address3":"Borkhedi Gujran","state":"Rajasthan","state_code":"24","district":"Jhalawar","district_code":"129","address1":"Jhalawar","address2":"","latitude":"24.434","longitude":"76.4589","accuracy":"3"},{"address3":"Borband","state":"Rajasthan","state_code":"24","district":"Jhalawar","district_code":"129","address1":"Jhalawar","address2":"","latitude":"24.434","longitude":"76.4589","accuracy":"3"}],"326501":[{"address3":"Jawahar Nagar","state":"Rajasthan","state_code":"24","district":"Chittorgarh","district_code":"126","address1":"Jhalawar","address2":"","latitude":"24.943","longitude":"75.291","accuracy":"3"},{"address3":"Gundi","state":"Rajasthan","state_code":"24","district":"Jhalawar","district_code":"129","address1":"Jhalawar","address2":"","latitude":"24.3289","longitude":"76.1968","accuracy":"4"},{"address3":"Gadia","state":"Rajasthan","state_code":"24","district":"Jhalawar","district_code":"129","address1":"Jhalawar","address2":"","latitude":"24.943","longitude":"75.291","accuracy":"3"},{"address3":"Kanwara","state":"Rajasthan","state_code":"24","district":"Jhalawar","district_code":"129","address1":"Jhalawar","address2":"","latitude":"24.4651","longitude":"76.0286","accuracy":"4"},{"address3":"Shrichhattarpur","state":"Rajasthan","state_code":"24","district":"Jhalawar","district_code":"129","address1":"Jhalawar","address2":"","latitude":"24.943","longitude":"75.291","accuracy":"3"},{"address3":"Khod","state":"Rajasthan","state_code":"24","district":"Jhalawar","district_code":"129","address1":"Jhalawar","address2":"","latitude":"24.3289","longitude":"76.1968","accuracy":"4"},{"address3":"Piplia","state":"Rajasthan","state_code":"24","district":"Jhalawar","district_code":"129","address1":"Jhalawar","address2":"","latitude":"24.3289","longitude":"76.1968","accuracy":"4"},{"address3":"Samrai","state":"Rajasthan","state_code":"24","district":"Jhalawar","district_code":"129","address1":"Jhalawar","address2":"","latitude":"24.5348","longitude":"76.0831","accuracy":"4"},{"address3":"Rajpura","state":"Rajasthan","state_code":"24","district":"Jhalawar","district_code":"129","address1":"Jhalawar","address2":"","latitude":"24.5683","longitude":"76.3605","accuracy":"4"},{"address3":"Bhilwari","state":"Rajasthan","state_code":"24","district":"Jhalawar","district_code":"129","address1":"Jhalawar","address2":"","latitude":"24.5413","longitude":"76.0452","accuracy":"4"}],"326502":[{"address3":"Mogra","state":"Rajasthan","state_code":"24","district":"Jhalawar","district_code":"129","address1":"Jhalawar","address2":"","latitude":"24.3289","longitude":"76.1968","accuracy":"4"},{"address3":"Sulia","state":"Rajasthan","state_code":"24","district":"Jhalawar","district_code":"129","address1":"Jhalawar","address2":"","latitude":"24.3289","longitude":"76.1968","accuracy":"4"},{"address3":"Narayan Kheda","state":"Rajasthan","state_code":"24","district":"Jhalawar","district_code":"129","address1":"Jhalawar","address2":"","latitude":"25.5195","longitude":"74.4996","accuracy":"3"},{"address3":"Kundi Kheda","state":"Rajasthan","state_code":"24","district":"Jhalawar","district_code":"129","address1":"Jhalawar","address2":"","latitude":"25.5195","longitude":"74.4996","accuracy":"3"},{"address3":"Ganeshpura","state":"Rajasthan","state_code":"24","district":"Jhalawar","district_code":"129","address1":"Jhalawar","address2":"","latitude":"24.8191","longitude":"76.2418","accuracy":"4"},{"address3":"Bhawanimandi","state":"Rajasthan","state_code":"24","district":"Jhalawar","district_code":"129","address1":"Jhalawar","address2":"","latitude":"25.5195","longitude":"74.4996","accuracy":"3"},{"address3":"Anwali Kalan","state":"Rajasthan","state_code":"24","district":"Jhalawar","district_code":"129","address1":"Jhalawar","address2":"","latitude":"25.5195","longitude":"74.4996","accuracy":"3"},{"address3":"Guradia Mana","state":"Rajasthan","state_code":"24","district":"Jhalawar","district_code":"129","address1":"Jhalawar","address2":"","latitude":"25.5195","longitude":"74.4996","accuracy":"3"},{"address3":"Ghatod","state":"Rajasthan","state_code":"24","district":"Jhalawar","district_code":"129","address1":"Jhalawar","address2":"","latitude":"25.5195","longitude":"74.4996","accuracy":"3"}],"326512":[{"address3":"Gurah","state":"Rajasthan","state_code":"24","district":"Jhalawar","district_code":"129","address1":"Jhalawar","address2":"","latitude":"24.3289","longitude":"76.1968","accuracy":"4"},{"address3":"Pach Pahar","state":"Rajasthan","state_code":"24","district":"Jhalawar","district_code":"129","address1":"Jhalawar","address2":"","latitude":"26.0629","longitude":"75.358","accuracy":"3"},{"address3":"Singhpur","state":"Rajasthan","state_code":"24","district":"Jhalawar","district_code":"129","address1":"Jhalawar","address2":"","latitude":"24.3289","longitude":"76.1968","accuracy":"4"},{"address3":"Sarod","state":"Rajasthan","state_code":"24","district":"Jhalawar","district_code":"129","address1":"Jhalawar","address2":"","latitude":"26.0629","longitude":"75.358","accuracy":"3"},{"address3":"Awar","state":"Rajasthan","state_code":"24","district":"Jhalawar","district_code":"129","address1":"Jhalawar","address2":"","latitude":"24.1357","longitude":"75.8775","accuracy":"4"},{"address3":"Karawan","state":"Rajasthan","state_code":"24","district":"Jhalawar","district_code":"129","address1":"Jhalawar","address2":"","latitude":"26.0629","longitude":"75.358","accuracy":"3"},{"address3":"Bani","state":"Rajasthan","state_code":"24","district":"Jhalawar","district_code":"129","address1":"Jhalawar","address2":"","latitude":"24.3289","longitude":"76.1968","accuracy":"4"},{"address3":"Mishroli","state":"Rajasthan","state_code":"24","district":"Jhalawar","district_code":"129","address1":"Jhalawar","address2":"","latitude":"26.0629","longitude":"75.358","accuracy":"3"},{"address3":"Devgarh","state":"Rajasthan","state_code":"24","district":"Jhalawar","district_code":"129","address1":"Jhalawar","address2":"","latitude":"24.3289","longitude":"76.1968","accuracy":"4"},{"address3":"Guradia Kalan","state":"Rajasthan","state_code":"24","district":"Jhalawar","district_code":"129","address1":"Jhalawar","address2":"","latitude":"26.0629","longitude":"75.358","accuracy":"3"},{"address3":"Naharghatta","state":"Rajasthan","state_code":"24","district":"Jhalawar","district_code":"129","address1":"Jhalawar","address2":"","latitude":"26.0629","longitude":"75.358","accuracy":"3"},{"address3":"Guradia Joga","state":"Rajasthan","state_code":"24","district":"Jhalawar","district_code":"129","address1":"Jhalawar","address2":"","latitude":"26.0629","longitude":"75.358","accuracy":"3"},{"address3":"Guradia Khurd","state":"Rajasthan","state_code":"24","district":"Jhalawar","district_code":"129","address1":"Jhalawar","address2":"","latitude":"26.0629","longitude":"75.358","accuracy":"3"},{"address3":"Silahgarh","state":"Rajasthan","state_code":"24","district":"Jhalawar","district_code":"129","address1":"Jhalawar","address2":"","latitude":"26.0629","longitude":"75.358","accuracy":"3"},{"address3":"Bisthunia","state":"Rajasthan","state_code":"24","district":"Jhalawar","district_code":"129","address1":"Jhalawar","address2":"","latitude":"26.0629","longitude":"75.358","accuracy":"3"},{"address3":"Pagaria","state":"Rajasthan","state_code":"24","district":"Jhalawar","district_code":"129","address1":"Jhalawar","address2":"","latitude":"26.0629","longitude":"75.358","accuracy":"3"},{"address3":"Maralwada","state":"Rajasthan","state_code":"24","district":"Jhalawar","district_code":"129","address1":"Jhalawar","address2":"","latitude":"26.0629","longitude":"75.358","accuracy":"3"}],"326513":[{"address3":"Dola","state":"Rajasthan","state_code":"24","district":"Jhalawar","district_code":"129","address1":"Jhalawar","address2":"","latitude":"24.3289","longitude":"76.1968","accuracy":"4"},{"address3":"Sunel","state":"Rajasthan","state_code":"24","district":"Jhalawar","district_code":"129","address1":"Jhalawar","address2":"","latitude":"24.3707","longitude":"75.9571","accuracy":"4"},{"address3":"Sangria","state":"Rajasthan","state_code":"24","district":"Jhalawar","district_code":"129","address1":"Jhalawar","address2":"","latitude":"24.3289","longitude":"76.1968","accuracy":"4"},{"address3":"Chachhlao","state":"Rajasthan","state_code":"24","district":"Jhalawar","district_code":"129","address1":"Jhalawar","address2":"","latitude":"24.9607","longitude":"74.9582","accuracy":"3"},{"address3":"Semlia","state":"Rajasthan","state_code":"24","district":"Jhalawar","district_code":"129","address1":"Jhalawar","address2":"","latitude":"24.3289","longitude":"76.1968","accuracy":"4"},{"address3":"Salotia","state":"Rajasthan","state_code":"24","district":"Jhalawar","district_code":"129","address1":"Jhalawar","address2":"","latitude":"24.9607","longitude":"74.9582","accuracy":"3"},{"address3":"Sirpoi","state":"Rajasthan","state_code":"24","district":"Jhalawar","district_code":"129","address1":"Jhalawar","address2":"","latitude":"24.9607","longitude":"74.9582","accuracy":"3"},{"address3":"Osav","state":"Rajasthan","state_code":"24","district":"Jhalawar","district_code":"129","address1":"Jhalawar","address2":"","latitude":"24.9607","longitude":"74.9582","accuracy":"3"},{"address3":"Unhel","state":"Rajasthan","state_code":"24","district":"Jhalawar","district_code":"129","address1":"Jhalawar","address2":"","latitude":"24.9607","longitude":"74.9582","accuracy":"3"},{"address3":"Mangispur","state":"Rajasthan","state_code":"24","district":"Jhalawar","district_code":"129","address1":"Jhalawar","address2":"","latitude":"24.9607","longitude":"74.9582","accuracy":"3"},{"address3":"Karodia","state":"Rajasthan","state_code":"24","district":"Jhalawar","district_code":"129","address1":"Jhalawar","address2":"","latitude":"24.9607","longitude":"74.9582","accuracy":"3"},{"address3":"Hemda","state":"Rajasthan","state_code":"24","district":"Jhalawar","district_code":"129","address1":"Jhalawar","address2":"","latitude":"24.9607","longitude":"74.9582","accuracy":"3"},{"address3":"Gadia","state":"Rajasthan","state_code":"24","district":"Jhalawar","district_code":"129","address1":"Jhalawar","address2":"","latitude":"24.9607","longitude":"74.9582","accuracy":"3"},{"address3":"Dubalia","state":"Rajasthan","state_code":"24","district":"Jhalawar","district_code":"129","address1":"Jhalawar","address2":"","latitude":"24.9607","longitude":"74.9582","accuracy":"3"},{"address3":"Bolia Bujurg","state":"Rajasthan","state_code":"24","district":"Jhalawar","district_code":"129","address1":"Jhalawar","address2":"","latitude":"24.9607","longitude":"74.9582","accuracy":"3"},{"address3":"Dabla Kheenchi","state":"Rajasthan","state_code":"24","district":"Jhalawar","district_code":"129","address1":"Jhalawar","address2":"","latitude":"24.9607","longitude":"74.9582","accuracy":"3"}],"326514":[{"address3":"Jamuniya","state":"Rajasthan","state_code":"24","district":"Jhalawar","district_code":"129","address1":"Jhalawar","address2":"","latitude":"24.2711","longitude":"76.6003","accuracy":"4"},{"address3":"Dag","state":"Rajasthan","state_code":"24","district":"Jhalawar","district_code":"129","address1":"Jhalawar","address2":"","latitude":"23.9318","longitude":"75.835","accuracy":"4"},{"address3":"Devgarh","state":"Rajasthan","state_code":"24","district":"Jhalawar","district_code":"129","address1":"Jhalawar","address2":"","latitude":"24.3289","longitude":"76.1968","accuracy":"3"},{"address3":"Jagdishpura","state":"Rajasthan","state_code":"24","district":"Jhalawar","district_code":"129","address1":"Jhalawar","address2":"","latitude":"24.6735","longitude":"76.4546","accuracy":"4"},{"address3":"Dobra","state":"Rajasthan","state_code":"24","district":"Jhalawar","district_code":"129","address1":"Jhalawar","address2":"","latitude":"24.7805","longitude":"76.3698","accuracy":"4"},{"address3":"Mandirpur","state":"Rajasthan","state_code":"24","district":"Jhalawar","district_code":"129","address1":"Jhalawar","address2":"","latitude":"24.4142","longitude":"76.3149","accuracy":"3"},{"address3":"Dodi","state":"Rajasthan","state_code":"24","district":"Jhalawar","district_code":"129","address1":"Jhalawar","address2":"","latitude":"24.4142","longitude":"76.3149","accuracy":"3"},{"address3":"Luharia","state":"Rajasthan","state_code":"24","district":"Jhalawar","district_code":"129","address1":"Jhalawar","address2":"","latitude":"24.4142","longitude":"76.3149","accuracy":"3"},{"address3":"Dhaturia","state":"Rajasthan","state_code":"24","district":"Jhalawar","district_code":"129","address1":"Jhalawar","address2":"","latitude":"24.4142","longitude":"76.3149","accuracy":"3"},{"address3":"Nandpur","state":"Rajasthan","state_code":"24","district":"Jhalawar","district_code":"129","address1":"Jhalawar","address2":"","latitude":"24.4142","longitude":"76.3149","accuracy":"3"},{"address3":"Harnawda","state":"Rajasthan","state_code":"24","district":"Jhalawar","district_code":"129","address1":"Jhalawar","address2":"","latitude":"24.4142","longitude":"76.3149","accuracy":"3"},{"address3":"Tisai","state":"Rajasthan","state_code":"24","district":"Jhalawar","district_code":"129","address1":"Jhalawar","address2":"","latitude":"24.4142","longitude":"76.3149","accuracy":"3"},{"address3":"Dudhalia","state":"Rajasthan","state_code":"24","district":"Jhalawar","district_code":"129","address1":"Jhalawar","address2":"","latitude":"24.4142","longitude":"76.3149","accuracy":"3"},{"address3":"Piplia Khurd","state":"Rajasthan","state_code":"24","district":"Jhalawar","district_code":"129","address1":"Jhalawar","address2":"","latitude":"24.4142","longitude":"76.3149","accuracy":"3"},{"address3":"Kayasara","state":"Rajasthan","state_code":"24","district":"Jhalawar","district_code":"129","address1":"Jhalawar","address2":"","latitude":"24.4142","longitude":"76.3149","accuracy":"3"}],"326515":[{"address3":"Berla","state":"Rajasthan","state_code":"24","district":"Jhalawar","district_code":"129","address1":"Jhalawar","address2":"","latitude":"24.3289","longitude":"76.1968","accuracy":"4"},{"address3":"Kundla","state":"Rajasthan","state_code":"24","district":"Jhalawar","district_code":"129","address1":"Jhalawar","address2":"","latitude":"24.3289","longitude":"76.1968","accuracy":"4"},{"address3":"Parlia","state":"Rajasthan","state_code":"24","district":"Jhalawar","district_code":"129","address1":"Jhalawar","address2":"","latitude":"24.3289","longitude":"76.1968","accuracy":"4"},{"address3":"Chaumahla","state":"Rajasthan","state_code":"24","district":"Jhalawar","district_code":"129","address1":"Jhalawar","address2":"","latitude":"26.2194","longitude":"76.026","accuracy":"3"},{"address3":"Unhel Nagdev","state":"Rajasthan","state_code":"24","district":"Jhalawar","district_code":"129","address1":"Jhalawar","address2":"","latitude":"26.2194","longitude":"76.026","accuracy":"3"},{"address3":"Talawali","state":"Rajasthan","state_code":"24","district":"Jhalawar","district_code":"129","address1":"Jhalawar","address2":"","latitude":"26.2194","longitude":"76.026","accuracy":"3"},{"address3":"Rawangurari","state":"Rajasthan","state_code":"24","district":"Jhalawar","district_code":"129","address1":"Jhalawar","address2":"","latitude":"26.2194","longitude":"76.026","accuracy":"3"},{"address3":"Ranaira","state":"Rajasthan","state_code":"24","district":"Jhalawar","district_code":"129","address1":"Jhalawar","address2":"","latitude":"26.2194","longitude":"76.026","accuracy":"3"},{"address3":"Parapeeli","state":"Rajasthan","state_code":"24","district":"Jhalawar","district_code":"129","address1":"Jhalawar","address2":"","latitude":"26.2194","longitude":"76.026","accuracy":"3"},{"address3":"Kumthia","state":"Rajasthan","state_code":"24","district":"Jhalawar","district_code":"129","address1":"Jhalawar","address2":"","latitude":"26.2194","longitude":"76.026","accuracy":"3"},{"address3":"Magsi","state":"Rajasthan","state_code":"24","district":"Jhalawar","district_code":"129","address1":"Jhalawar","address2":"","latitude":"26.2194","longitude":"76.026","accuracy":"3"},{"address3":"Keetia","state":"Rajasthan","state_code":"24","district":"Jhalawar","district_code":"129","address1":"Jhalawar","address2":"","latitude":"26.2194","longitude":"76.026","accuracy":"3"},{"address3":"Chara","state":"Rajasthan","state_code":"24","district":"Jhalawar","district_code":"129","address1":"Jhalawar","address2":"","latitude":"26.2194","longitude":"76.026","accuracy":"3"},{"address3":"Bardia Veer Ji","state":"Rajasthan","state_code":"24","district":"Jhalawar","district_code":"129","address1":"Jhalawar","address2":"","latitude":"26.2194","longitude":"76.026","accuracy":"3"}],"326516":[{"address3":"Sunari","state":"Rajasthan","state_code":"24","district":"Jhalawar","district_code":"129","address1":"Jhalawar","address2":"","latitude":"24.3289","longitude":"76.1968","accuracy":"3"},{"address3":"Gangdhar","state":"Rajasthan","state_code":"24","district":"Jhalawar","district_code":"129","address1":"Jhalawar","address2":"","latitude":"23.9407","longitude":"75.6216","accuracy":"4"},{"address3":"Kachnara","state":"Rajasthan","state_code":"24","district":"Jhalawar","district_code":"129","address1":"Jhalawar","address2":"","latitude":"24.3691","longitude":"75.978","accuracy":"3"},{"address3":"Rampura","state":"Rajasthan","state_code":"24","district":"Jhalawar","district_code":"129","address1":"Jhalawar","address2":"","latitude":"24.7975","longitude":"76.3343","accuracy":"4"},{"address3":"Rajhana","state":"Rajasthan","state_code":"24","district":"Jhalawar","district_code":"129","address1":"Jhalawar","address2":"","latitude":"24.3691","longitude":"75.978","accuracy":"3"},{"address3":"Guradia Jhala","state":"Rajasthan","state_code":"24","district":"Jhalawar","district_code":"129","address1":"Jhalawar","address2":"","latitude":"24.3691","longitude":"75.978","accuracy":"3"},{"address3":"Kelu Kheri","state":"Rajasthan","state_code":"24","district":"Jhalawar","district_code":"129","address1":"Jhalawar","address2":"","latitude":"24.3691","longitude":"75.978","accuracy":"3"},{"address3":"Sarwad","state":"Rajasthan","state_code":"24","district":"Jhalawar","district_code":"129","address1":"Jhalawar","address2":"","latitude":"24.3691","longitude":"75.978","accuracy":"3"}],"326517":[{"address3":"Kamalpura","state":"Rajasthan","state_code":"24","district":"Kota","district_code":"127","address1":"Kota","address2":"","latitude":"25.1241","longitude":"76.1293","accuracy":"4"},{"address3":"Kukra Khurd","state":"Rajasthan","state_code":"24","district":"Kota","district_code":"127","address1":"Kota","address2":"","latitude":"24.6804","longitude":"76.4519","accuracy":"3"},{"address3":"Kheemuch","state":"Rajasthan","state_code":"24","district":"Kota","district_code":"127","address1":"Kota","address2":"","latitude":"24.6804","longitude":"76.4519","accuracy":"3"},{"address3":"Morak","state":"Rajasthan","state_code":"24","district":"Jhalawar","district_code":"129","address1":"Kota","address2":"","latitude":"24.3289","longitude":"76.1968","accuracy":"4"}],"326518":[{"address3":"Alod","state":"Rajasthan","state_code":"24","district":"Kota","district_code":"127","address1":"Kota","address2":"","latitude":"25.1241","longitude":"76.1293","accuracy":"4"},{"address3":"Kherli","state":"Rajasthan","state_code":"24","district":"Kota","district_code":"127","address1":"Kota","address2":"","latitude":"25.1029","longitude":"76.1746","accuracy":"4"},{"address3":"Deoli","state":"Rajasthan","state_code":"24","district":"Kota","district_code":"127","address1":"Kota","address2":"","latitude":"25.1241","longitude":"76.1293","accuracy":"4"},{"address3":"Ruddha Kheda","state":"Rajasthan","state_code":"24","district":"Kota","district_code":"127","address1":"Kota","address2":"","latitude":"24.9411","longitude":"75.9594","accuracy":"3"},{"address3":"Ghatoli","state":"Rajasthan","state_code":"24","district":"Kota","district_code":"127","address1":"Kota","address2":"","latitude":"24.8667","longitude":"75.8667","accuracy":"4"},{"address3":"Hatiya Kheri","state":"Rajasthan","state_code":"24","district":"Kota","district_code":"127","address1":"Kota","address2":"","latitude":"24.9411","longitude":"75.9594","accuracy":"3"},{"address3":"Chechat","state":"Rajasthan","state_code":"24","district":"Kota","district_code":"127","address1":"Kota","address2":"","latitude":"24.7667","longitude":"75.8833","accuracy":"4"},{"address3":"Salera Khurd","state":"Rajasthan","state_code":"24","district":"Kota","district_code":"127","address1":"Kota","address2":"","latitude":"24.9411","longitude":"75.9594","accuracy":"3"}],"326519":[{"address3":"Undwa","state":"Rajasthan","state_code":"24","district":"Kota","district_code":"127","address1":"Kota","address2":"","latitude":"25.1241","longitude":"76.1293","accuracy":"4"},{"address3":"Deoli Khurd","state":"Rajasthan","state_code":"24","district":"Kota","district_code":"127","address1":"Kota","address2":"","latitude":"24.7797","longitude":"75.528","accuracy":"3"},{"address3":"Kumbhkot","state":"Rajasthan","state_code":"24","district":"Kota","district_code":"127","address1":"Kota","address2":"","latitude":"24.6183","longitude":"76.0008","accuracy":"4"},{"address3":"Satal Khedi","state":"Rajasthan","state_code":"24","district":"Kota","district_code":"127","address1":"Kota","address2":"","latitude":"24.7797","longitude":"75.528","accuracy":"3"},{"address3":"Julmi","state":"Rajasthan","state_code":"24","district":"Kota","district_code":"127","address1":"Kota","address2":"","latitude":"24.5879","longitude":"75.99","accuracy":"4"},{"address3":"Ram Ganj Mandi","state":"Rajasthan","state_code":"24","district":"Kota","district_code":"127","address1":"Kota","address2":"","latitude":"24.7797","longitude":"75.528","accuracy":"3"},{"address3":"Pipa Khedi","state":"Rajasthan","state_code":"24","district":"Kota","district_code":"127","address1":"Kota","address2":"","latitude":"24.7797","longitude":"75.528","accuracy":"3"},{"address3":"Kudaila","state":"Rajasthan","state_code":"24","district":"Kota","district_code":"127","address1":"Kota","address2":"","latitude":"24.7797","longitude":"75.528","accuracy":"3"}],"326520":[{"address3":"Barodia Kalan","state":"Rajasthan","state_code":"24","district":"Kota","district_code":"127","address1":"Kota","address2":"","latitude":"24.6596","longitude":"75.9307","accuracy":"1"},{"address3":"Budh Khan","state":"Rajasthan","state_code":"24","district":"Kota","district_code":"127","address1":"Kota","address2":"","latitude":"24.6596","longitude":"75.9307","accuracy":"1"},{"address3":"Morak Gaon","state":"Rajasthan","state_code":"24","district":"Kota","district_code":"127","address1":"Kota","address2":"","latitude":"24.6596","longitude":"75.9307","accuracy":"1"},{"address3":"Aditya Nagar","state":"Rajasthan","state_code":"24","district":"Kota","district_code":"127","address1":"Kota","address2":"","latitude":"24.6596","longitude":"75.9307","accuracy":"1"}],"326529":[{"address3":"Khairabad (Kota)","state":"Rajasthan","state_code":"24","district":"Kota","district_code":"127","address1":"Kota","address2":"","latitude":"24.6596","longitude":"75.9307","accuracy":"4"},{"address3":"Goyanda","state":"Rajasthan","state_code":"24","district":"Kota","district_code":"127","address1":"Kota","address2":"","latitude":"24.6596","longitude":"75.9307","accuracy":"3"},{"address3":"Richhadia","state":"Rajasthan","state_code":"24","district":"Kota","district_code":"127","address1":"Kota","address2":"","latitude":"24.6596","longitude":"75.9307","accuracy":"3"}],"326530":[{"address3":"Suket","state":"Rajasthan","state_code":"24","district":"Kota","district_code":"127","address1":"Kota","address2":"","latitude":"24.6461","longitude":"76.0417","accuracy":"4"},{"address3":"Salawad Khurd","state":"Rajasthan","state_code":"24","district":"Kota","district_code":"127","address1":"Kota","address2":"","latitude":"24.6461","longitude":"76.0417","accuracy":"3"}],"credits":[{"name":"geonames","url":"https://www.geonames.org"}],"last_update":"2019-03-01T09:01:34.965Z"}