{"343001":[{"address3":"Harji","state":"Rajasthan","state_code":"24","district":"Jalor","district_code":"116","address1":"NA","address2":"","latitude":"25.2918","longitude":"72.8598","accuracy":"4"},{"address3":"Jalore V.D.C.","state":"Rajasthan","state_code":"24","district":"Jalor","district_code":"116","address1":"Jalor","address2":"","latitude":"25.2918","longitude":"72.8598","accuracy":"3"},{"address3":"Veerana","state":"Rajasthan","state_code":"24","district":"Jalor","district_code":"116","address1":"NA","address2":"","latitude":"25.2918","longitude":"72.8598","accuracy":"3"},{"address3":"Samtipura","state":"Rajasthan","state_code":"24","district":"Jalor","district_code":"116","address1":"NA","address2":"","latitude":"25.2918","longitude":"72.8598","accuracy":"3"},{"address3":"Leta","state":"Rajasthan","state_code":"24","district":"Jalor","district_code":"116","address1":"NA","address2":"","latitude":"25.2918","longitude":"72.8598","accuracy":"3"},{"address3":"Keshwana","state":"Rajasthan","state_code":"24","district":"Jalor","district_code":"116","address1":"NA","address2":"","latitude":"25.2918","longitude":"72.8598","accuracy":"3"},{"address3":"Unn","state":"Rajasthan","state_code":"24","district":"Jalor","district_code":"116","address1":"NA","address2":"","latitude":"25.2918","longitude":"72.8598","accuracy":"3"},{"address3":"Meda Uparla","state":"Rajasthan","state_code":"24","district":"Jalor","district_code":"116","address1":"NA","address2":"","latitude":"25.2918","longitude":"72.8598","accuracy":"3"},{"address3":"Alasan","state":"Rajasthan","state_code":"24","district":"Jalor","district_code":"116","address1":"NA","address2":"","latitude":"25.2918","longitude":"72.8598","accuracy":"3"},{"address3":"Jalore H.O","state":"Rajasthan","state_code":"24","district":"Jalor","district_code":"116","address1":"Jalore","address2":"","latitude":"25.2918","longitude":"72.8598","accuracy":"3"},{"address3":"Sankarna","state":"Rajasthan","state_code":"24","district":"Jalor","district_code":"116","address1":"NA","address2":"","latitude":"25.2918","longitude":"72.8598","accuracy":"3"},{"address3":"Thawla","state":"Rajasthan","state_code":"24","district":"Jalor","district_code":"116","address1":"NA","address2":"","latitude":"25.2918","longitude":"72.8598","accuracy":"3"},{"address3":"Chawarcha","state":"Rajasthan","state_code":"24","district":"Jalor","district_code":"116","address1":"NA","address2":"","latitude":"25.2918","longitude":"72.8598","accuracy":"3"},{"address3":"Bhagli Sindhlan","state":"Rajasthan","state_code":"24","district":"Jalor","district_code":"116","address1":"NA","address2":"","latitude":"25.2918","longitude":"72.8598","accuracy":"3"},{"address3":"Safada","state":"Rajasthan","state_code":"24","district":"Jalor","district_code":"116","address1":"NA","address2":"","latitude":"25.2918","longitude":"72.8598","accuracy":"3"},{"address3":"Rewatra","state":"Rajasthan","state_code":"24","district":"Jalor","district_code":"116","address1":"NA","address2":"","latitude":"25.2918","longitude":"72.8598","accuracy":"3"}],"343002":[{"address3":"I.A.Jalore","state":"Rajasthan","state_code":"24","district":"Jalor","district_code":"116","address1":"NA","address2":"","latitude":"25.2918","longitude":"72.8598","accuracy":"1"}],"343021":[{"address3":"Ummedabad","state":"Rajasthan","state_code":"24","district":"Jalor","district_code":"116","address1":"Sayla","address2":"","latitude":"25.3482","longitude":"73.2594","accuracy":"3"},{"address3":"Nimblana","state":"Rajasthan","state_code":"24","district":"Jalor","district_code":"116","address1":"NA","address2":"","latitude":"25.4423","longitude":"72.4563","accuracy":"4"},{"address3":"Dangra","state":"Rajasthan","state_code":"24","district":"Jalor","district_code":"116","address1":"NA","address2":"","latitude":"25.0978","longitude":"72.2119","accuracy":"4"},{"address3":"Elana","state":"Rajasthan","state_code":"24","district":"Jalor","district_code":"116","address1":"NA","address2":"","latitude":"25.3482","longitude":"73.2594","accuracy":"3"},{"address3":"Othwala","state":"Rajasthan","state_code":"24","district":"Jalor","district_code":"116","address1":"Jalor","address2":"","latitude":"25.3482","longitude":"73.2594","accuracy":"3"}],"343022":[{"address3":"Posana","state":"Rajasthan","state_code":"24","district":"Jalor","district_code":"116","address1":"NA","address2":"","latitude":"25.0978","longitude":"72.2119","accuracy":"3"},{"address3":"Taliyana","state":"Rajasthan","state_code":"24","district":"Jalor","district_code":"116","address1":"Sayla","address2":"","latitude":"25.4192","longitude":"72.0539","accuracy":"3"},{"address3":"Sirana","state":"Rajasthan","state_code":"24","district":"Jalor","district_code":"116","address1":"Sayla","address2":"","latitude":"25.4192","longitude":"72.0539","accuracy":"4"},{"address3":"Babtra","state":"Rajasthan","state_code":"24","district":"Jalor","district_code":"116","address1":"NA","address2":"","latitude":"25.4192","longitude":"72.0539","accuracy":"3"},{"address3":"Chorau","state":"Rajasthan","state_code":"24","district":"Jalor","district_code":"116","address1":"NA","address2":"","latitude":"25.4192","longitude":"72.0539","accuracy":"3"},{"address3":"Meghalwa","state":"Rajasthan","state_code":"24","district":"Jalor","district_code":"116","address1":"NA","address2":"","latitude":"25.4192","longitude":"72.0539","accuracy":"3"},{"address3":"Sangana","state":"Rajasthan","state_code":"24","district":"Jalor","district_code":"116","address1":"NA","address2":"","latitude":"25.4192","longitude":"72.0539","accuracy":"3"},{"address3":"Sayla (Jalor)","state":"Rajasthan","state_code":"24","district":"Jalor","district_code":"116","address1":"Sayla","address2":"","latitude":"25.4192","longitude":"72.0539","accuracy":"3"},{"address3":"Asana","state":"Rajasthan","state_code":"24","district":"Jalor","district_code":"116","address1":"NA","address2":"","latitude":"25.4192","longitude":"72.0539","accuracy":"3"},{"address3":"Jeewana","state":"Rajasthan","state_code":"24","district":"Jalor","district_code":"116","address1":"NA","address2":"","latitude":"25.4192","longitude":"72.0539","accuracy":"3"}],"343023":[{"address3":"Pantheri","state":"Rajasthan","state_code":"24","district":"Jalor","district_code":"116","address1":"NA","address2":"","latitude":"25.1992","longitude":"72.2728","accuracy":"4"},{"address3":"Unri","state":"Rajasthan","state_code":"24","district":"Jalor","district_code":"116","address1":"NA","address2":"","latitude":"25.1992","longitude":"72.2728","accuracy":"3"},{"address3":"Thalwad","state":"Rajasthan","state_code":"24","district":"Jalor","district_code":"116","address1":"NA","address2":"","latitude":"25.1992","longitude":"72.2728","accuracy":"3"},{"address3":"Dhansa","state":"Rajasthan","state_code":"24","district":"Jalor","district_code":"116","address1":"NA","address2":"","latitude":"25.1992","longitude":"72.2728","accuracy":"3"}],"343024":[{"address3":"Raipuria","state":"Rajasthan","state_code":"24","district":"Jalor","district_code":"116","address1":"Jalor","address2":"","latitude":"25.0978","longitude":"72.2119","accuracy":"4"},{"address3":"Chandana","state":"Rajasthan","state_code":"24","district":"Jalor","district_code":"116","address1":"NA","address2":"","latitude":"25.3412","longitude":"74.0134","accuracy":"3"},{"address3":"Siana","state":"Rajasthan","state_code":"24","district":"Jalor","district_code":"116","address1":"Bagra","address2":"","latitude":"25.0978","longitude":"72.2119","accuracy":"4"},{"address3":"Sawna","state":"Rajasthan","state_code":"24","district":"Jalor","district_code":"116","address1":"Jalor","address2":"","latitude":"25.3412","longitude":"74.0134","accuracy":"3"},{"address3":"Bhetala","state":"Rajasthan","state_code":"24","district":"Jalor","district_code":"116","address1":"NA","address2":"","latitude":"25.3412","longitude":"74.0134","accuracy":"3"}],"343025":[{"address3":"Akoli","state":"Rajasthan","state_code":"24","district":"Jalor","district_code":"116","address1":"Sanchore","address2":"","latitude":"25.0978","longitude":"72.2119","accuracy":"3"},{"address3":"Bakra Road","state":"Rajasthan","state_code":"24","district":"Jalor","district_code":"116","address1":"NA","address2":"","latitude":"25.2534","longitude":"72.4566","accuracy":"4"},{"address3":"Santhu","state":"Rajasthan","state_code":"24","district":"Jalor","district_code":"116","address1":"NA","address2":"","latitude":"25.2348","longitude":"72.5025","accuracy":"3"},{"address3":"Bakra","state":"Rajasthan","state_code":"24","district":"Jalor","district_code":"116","address1":"NA","address2":"","latitude":"25.2534","longitude":"72.4566","accuracy":"4"},{"address3":"Bagra","state":"Rajasthan","state_code":"24","district":"Jalor","district_code":"116","address1":"Jalore","address2":"","latitude":"25.1977","longitude":"72.5942","accuracy":"4"},{"address3":"Madgaon","state":"Rajasthan","state_code":"24","district":"Jalor","district_code":"116","address1":"Jalor","address2":"","latitude":"25.2348","longitude":"72.5025","accuracy":"3"},{"address3":"Chura","state":"Rajasthan","state_code":"24","district":"Jalor","district_code":"116","address1":"NA","address2":"","latitude":"25.0978","longitude":"72.2119","accuracy":"3"},{"address3":"Degaon","state":"Rajasthan","state_code":"24","district":"Jalor","district_code":"116","address1":"NA","address2":"","latitude":"25.2348","longitude":"72.5025","accuracy":"3"},{"address3":"Bibalsar","state":"Rajasthan","state_code":"24","district":"Jalor","district_code":"116","address1":"NA","address2":"","latitude":"25.2348","longitude":"72.5025","accuracy":"3"},{"address3":"Doodsi","state":"Rajasthan","state_code":"24","district":"Jalor","district_code":"116","address1":"NA","address2":"","latitude":"25.2348","longitude":"72.5025","accuracy":"3"},{"address3":"Dakatra","state":"Rajasthan","state_code":"24","district":"Jalor","district_code":"116","address1":"NA","address2":"","latitude":"25.2348","longitude":"72.5025","accuracy":"3"},{"address3":"Berath","state":"Rajasthan","state_code":"24","district":"Jalor","district_code":"116","address1":"NA","address2":"","latitude":"25.2348","longitude":"72.5025","accuracy":"3"},{"address3":"Narnawas","state":"Rajasthan","state_code":"24","district":"Jalor","district_code":"116","address1":"NA","address2":"","latitude":"25.2348","longitude":"72.5025","accuracy":"3"},{"address3":"Sarat","state":"Rajasthan","state_code":"24","district":"Jalor","district_code":"116","address1":"NA","address2":"","latitude":"25.2348","longitude":"72.5025","accuracy":"3"},{"address3":"Noon","state":"Rajasthan","state_code":"24","district":"Jalor","district_code":"116","address1":"NA","address2":"","latitude":"25.2348","longitude":"72.5025","accuracy":"3"}],"343027":[{"address3":"Soonthri","state":"Rajasthan","state_code":"24","district":"Jalor","district_code":"116","address1":"NA","address2":"","latitude":"24.8015","longitude":"71.5476","accuracy":"3"},{"address3":"Hadecha","state":"Rajasthan","state_code":"24","district":"Jalor","district_code":"116","address1":"Sanchore","address2":"","latitude":"24.8015","longitude":"71.5476","accuracy":"3"},{"address3":"Bhimguda","state":"Rajasthan","state_code":"24","district":"Jalor","district_code":"116","address1":"NA","address2":"","latitude":"24.8015","longitude":"71.5476","accuracy":"3"},{"address3":"Surachand","state":"Rajasthan","state_code":"24","district":"Jalor","district_code":"116","address1":"NA","address2":"","latitude":"24.8015","longitude":"71.5476","accuracy":"3"},{"address3":"Khejariyali","state":"Rajasthan","state_code":"24","district":"Jalor","district_code":"116","address1":"NA","address2":"","latitude":"24.8015","longitude":"71.5476","accuracy":"3"},{"address3":"Dawal","state":"Rajasthan","state_code":"24","district":"Jalor","district_code":"116","address1":"NA","address2":"","latitude":"24.8015","longitude":"71.5476","accuracy":"3"},{"address3":"Amli","state":"Rajasthan","state_code":"24","district":"Jalor","district_code":"116","address1":"NA","address2":"","latitude":"25.0978","longitude":"72.2119","accuracy":"3"},{"address3":"Janvi","state":"Rajasthan","state_code":"24","district":"Jalor","district_code":"116","address1":"NA","address2":"","latitude":"24.8015","longitude":"71.5476","accuracy":"4"}],"343028":[{"address3":"Modran","state":"Rajasthan","state_code":"24","district":"Jalor","district_code":"116","address1":"Bhinmal","address2":"","latitude":"25.1843","longitude":"72.4304","accuracy":"4"},{"address3":"Serna","state":"Rajasthan","state_code":"24","district":"Jalor","district_code":"116","address1":"NA","address2":"","latitude":"25.1843","longitude":"72.4304","accuracy":"3"},{"address3":"Basda Dhanji","state":"Rajasthan","state_code":"24","district":"Jalor","district_code":"116","address1":"NA","address2":"","latitude":"25.1843","longitude":"72.4304","accuracy":"3"}],"343029":[{"address3":"Bhinmal","state":"Rajasthan","state_code":"24","district":"Jalor","district_code":"116","address1":"Bhinmal","address2":"","latitude":"24.9994","longitude":"72.2714","accuracy":"4"},{"address3":"Paoli","state":"Rajasthan","state_code":"24","district":"Jalor","district_code":"116","address1":"NA","address2":"","latitude":"25.0978","longitude":"72.2119","accuracy":"4"},{"address3":"Khanpur","state":"Rajasthan","state_code":"24","district":"Jalor","district_code":"116","address1":"NA","address2":"","latitude":"25.0978","longitude":"72.2119","accuracy":"4"},{"address3":"Nasoli","state":"Rajasthan","state_code":"24","district":"Jalor","district_code":"116","address1":"NA","address2":"","latitude":"24.9185","longitude":"74.367","accuracy":"3"},{"address3":"Nimbawas","state":"Rajasthan","state_code":"24","district":"Jalor","district_code":"116","address1":"NA","address2":"","latitude":"24.9185","longitude":"74.367","accuracy":"3"},{"address3":"Gazipura","state":"Rajasthan","state_code":"24","district":"Jalor","district_code":"116","address1":"NA","address2":"","latitude":"24.9185","longitude":"74.367","accuracy":"3"},{"address3":"Punasa","state":"Rajasthan","state_code":"24","district":"Jalor","district_code":"116","address1":"NA","address2":"","latitude":"24.9185","longitude":"74.367","accuracy":"3"},{"address3":"Vandhar","state":"Rajasthan","state_code":"24","district":"Jalor","district_code":"116","address1":"NA","address2":"","latitude":"24.9185","longitude":"74.367","accuracy":"3"},{"address3":"Kotkastan","state":"Rajasthan","state_code":"24","district":"Jalor","district_code":"116","address1":"NA","address2":"","latitude":"24.9185","longitude":"74.367","accuracy":"3"},{"address3":"Thobau","state":"Rajasthan","state_code":"24","district":"Jalor","district_code":"116","address1":"NA","address2":"","latitude":"24.9185","longitude":"74.367","accuracy":"3"},{"address3":"Munthala Kaba","state":"Rajasthan","state_code":"24","district":"Jalor","district_code":"116","address1":"NA","address2":"","latitude":"24.9185","longitude":"74.367","accuracy":"3"},{"address3":"Kuka","state":"Rajasthan","state_code":"24","district":"Jalor","district_code":"116","address1":"NA","address2":"","latitude":"24.9185","longitude":"74.367","accuracy":"3"},{"address3":"Tawab","state":"Rajasthan","state_code":"24","district":"Jalor","district_code":"116","address1":"NA","address2":"","latitude":"24.9185","longitude":"74.367","accuracy":"3"},{"address3":"Bhadvi","state":"Rajasthan","state_code":"24","district":"Jalor","district_code":"116","address1":"Bhinmal","address2":"","latitude":"24.9185","longitude":"74.367","accuracy":"3"},{"address3":"Ledarmer","state":"Rajasthan","state_code":"24","district":"Jalor","district_code":"116","address1":"NA","address2":"","latitude":"24.9185","longitude":"74.367","accuracy":"3"},{"address3":"Daspan","state":"Rajasthan","state_code":"24","district":"Jalor","district_code":"116","address1":"NA","address2":"","latitude":"24.9185","longitude":"74.367","accuracy":"3"},{"address3":"Bhagal Bhim","state":"Rajasthan","state_code":"24","district":"Jalor","district_code":"116","address1":"NA","address2":"","latitude":"24.9185","longitude":"74.367","accuracy":"3"},{"address3":"Borta","state":"Rajasthan","state_code":"24","district":"Jalor","district_code":"116","address1":"NA","address2":"","latitude":"24.9185","longitude":"74.367","accuracy":"3"},{"address3":"Kora","state":"Rajasthan","state_code":"24","district":"Jalor","district_code":"116","address1":"NA","address2":"","latitude":"24.9185","longitude":"74.367","accuracy":"3"},{"address3":"Jodwara","state":"Rajasthan","state_code":"24","district":"Jalor","district_code":"116","address1":"NA","address2":"","latitude":"24.9185","longitude":"74.367","accuracy":"3"},{"address3":"Fagotra","state":"Rajasthan","state_code":"24","district":"Jalor","district_code":"116","address1":"NA","address2":"","latitude":"24.9185","longitude":"74.367","accuracy":"3"},{"address3":"Chatwara","state":"Rajasthan","state_code":"24","district":"Jalor","district_code":"116","address1":"NA","address2":"","latitude":"24.9185","longitude":"74.367","accuracy":"3"},{"address3":"Bhalni","state":"Rajasthan","state_code":"24","district":"Jalor","district_code":"116","address1":"NA","address2":"","latitude":"24.9185","longitude":"74.367","accuracy":"3"},{"address3":"Bhagal Sefta","state":"Rajasthan","state_code":"24","district":"Jalor","district_code":"116","address1":"NA","address2":"","latitude":"24.9185","longitude":"74.367","accuracy":"3"},{"address3":"Bharudi","state":"Rajasthan","state_code":"24","district":"Jalor","district_code":"116","address1":"NA","address2":"","latitude":"24.9185","longitude":"74.367","accuracy":"3"},{"address3":"Mandhar","state":"Rajasthan","state_code":"24","district":"Jalor","district_code":"116","address1":"NA","address2":"","latitude":"24.9185","longitude":"74.367","accuracy":"3"},{"address3":"Narta","state":"Rajasthan","state_code":"24","district":"Jalor","district_code":"116","address1":"NA","address2":"","latitude":"24.9185","longitude":"74.367","accuracy":"3"},{"address3":"Bhinmal Sadar Bazar","state":"Rajasthan","state_code":"24","district":"Jalor","district_code":"116","address1":"Bhinmal","address2":"","latitude":"24.9185","longitude":"74.367","accuracy":"3"}],"343030":[{"address3":"Narsana","state":"Rajasthan","state_code":"24","district":"Jalor","district_code":"116","address1":"NA","address2":"","latitude":"25.125","longitude":"72.0412","accuracy":"4"},{"address3":"Vali","state":"Rajasthan","state_code":"24","district":"Jalor","district_code":"116","address1":"NA","address2":"","latitude":"25.1108","longitude":"72.6699","accuracy":"3"},{"address3":"Dungarwas","state":"Rajasthan","state_code":"24","district":"Jalor","district_code":"116","address1":"NA","address2":"","latitude":"25.0978","longitude":"72.2119","accuracy":"3"},{"address3":"Sewari","state":"Rajasthan","state_code":"24","district":"Jalor","district_code":"116","address1":"NA","address2":"","latitude":"25.0978","longitude":"72.2119","accuracy":"4"},{"address3":"Loonawas","state":"Rajasthan","state_code":"24","district":"Jalor","district_code":"116","address1":"NA","address2":"","latitude":"25.1108","longitude":"72.6699","accuracy":"3"},{"address3":"Komta","state":"Rajasthan","state_code":"24","district":"Jalor","district_code":"116","address1":"NA","address2":"","latitude":"25.1108","longitude":"72.6699","accuracy":"3"},{"address3":"Jeran","state":"Rajasthan","state_code":"24","district":"Jalor","district_code":"116","address1":"NA","address2":"","latitude":"25.1108","longitude":"72.6699","accuracy":"3"},{"address3":"Jaitu","state":"Rajasthan","state_code":"24","district":"Jalor","district_code":"116","address1":"NA","address2":"","latitude":"25.1108","longitude":"72.6699","accuracy":"3"},{"address3":"Joojani","state":"Rajasthan","state_code":"24","district":"Jalor","district_code":"116","address1":"Bhinmal","address2":"","latitude":"25.1108","longitude":"72.6699","accuracy":"3"},{"address3":"Kawatra","state":"Rajasthan","state_code":"24","district":"Jalor","district_code":"116","address1":"NA","address2":"","latitude":"25.1108","longitude":"72.6699","accuracy":"3"},{"address3":"Kaleti","state":"Rajasthan","state_code":"24","district":"Jalor","district_code":"116","address1":"NA","address2":"","latitude":"25.1108","longitude":"72.6699","accuracy":"3"},{"address3":"Rah","state":"Rajasthan","state_code":"24","district":"Jalor","district_code":"116","address1":"NA","address2":"","latitude":"25.1108","longitude":"72.6699","accuracy":"3"},{"address3":"Dhumbadia","state":"Rajasthan","state_code":"24","district":"Jalor","district_code":"116","address1":"NA","address2":"","latitude":"25.1108","longitude":"72.6699","accuracy":"3"}],"343032":[{"address3":"Surana","state":"Rajasthan","state_code":"24","district":"Jalor","district_code":"116","address1":"NA","address2":"","latitude":"25.2351","longitude":"72.1375","accuracy":"4"},{"address3":"Chenpura","state":"Rajasthan","state_code":"24","district":"Jalor","district_code":"116","address1":"NA","address2":"","latitude":"25.0978","longitude":"72.2119","accuracy":"4"},{"address3":"Morseem","state":"Rajasthan","state_code":"24","district":"Jalor","district_code":"116","address1":"NA","address2":"","latitude":"24.7432","longitude":"73.456","accuracy":"3"},{"address3":"Raota","state":"Rajasthan","state_code":"24","district":"Jalor","district_code":"116","address1":"Bagora","address2":"","latitude":"25.0978","longitude":"72.2119","accuracy":"3"},{"address3":"Tiloda","state":"Rajasthan","state_code":"24","district":"Jalor","district_code":"116","address1":"NA","address2":"","latitude":"24.7432","longitude":"73.456","accuracy":"3"},{"address3":"Koridhawecha","state":"Rajasthan","state_code":"24","district":"Jalor","district_code":"116","address1":"NA","address2":"","latitude":"24.7432","longitude":"73.456","accuracy":"3"},{"address3":"Rangala","state":"Rajasthan","state_code":"24","district":"Jalor","district_code":"116","address1":"NA","address2":"","latitude":"24.7432","longitude":"73.456","accuracy":"3"},{"address3":"Detakalan","state":"Rajasthan","state_code":"24","district":"Jalor","district_code":"116","address1":"NA","address2":"","latitude":"24.7432","longitude":"73.456","accuracy":"3"},{"address3":"Nandia","state":"Rajasthan","state_code":"24","district":"Jalor","district_code":"116","address1":"NA","address2":"","latitude":"24.7432","longitude":"73.456","accuracy":"3"},{"address3":"Bagoda","state":"Rajasthan","state_code":"24","district":"Jalor","district_code":"116","address1":"Jalore","address2":"","latitude":"24.7432","longitude":"73.456","accuracy":"3"},{"address3":"Dadal","state":"Rajasthan","state_code":"24","district":"Jalor","district_code":"116","address1":"NA","address2":"","latitude":"24.7432","longitude":"73.456","accuracy":"3"},{"address3":"Jaisawas","state":"Rajasthan","state_code":"24","district":"Jalor","district_code":"116","address1":"NA","address2":"","latitude":"24.7432","longitude":"73.456","accuracy":"3"}],"343039":[{"address3":"Malwara","state":"Rajasthan","state_code":"24","district":"Jalor","district_code":"116","address1":"Bhinmal","address2":"","latitude":"24.7787","longitude":"72.2868","accuracy":"4"},{"address3":"Akhrad","state":"Rajasthan","state_code":"24","district":"Jalor","district_code":"116","address1":"NA","address2":"","latitude":"24.7787","longitude":"72.2868","accuracy":"3"},{"address3":"Puran","state":"Rajasthan","state_code":"24","district":"Jalor","district_code":"116","address1":"NA","address2":"","latitude":"24.7787","longitude":"72.2868","accuracy":"3"},{"address3":"Surajwara","state":"Rajasthan","state_code":"24","district":"Jalor","district_code":"116","address1":"NA","address2":"","latitude":"24.7787","longitude":"72.2868","accuracy":"3"}],"343040":[{"address3":"Raniwara","state":"Rajasthan","state_code":"24","district":"Jalor","district_code":"116","address1":"Raniwara","address2":"","latitude":"24.749","longitude":"72.2051","accuracy":"4"},{"address3":"Hemguda","state":"Rajasthan","state_code":"24","district":"Jalor","district_code":"116","address1":"NA","address2":"","latitude":"24.4307","longitude":"72.5118","accuracy":"3"},{"address3":"Sewara","state":"Rajasthan","state_code":"24","district":"Jalor","district_code":"116","address1":"NA","address2":"","latitude":"24.764","longitude":"72.0421","accuracy":"4"},{"address3":"Jhakhari","state":"Rajasthan","state_code":"24","district":"Jalor","district_code":"116","address1":"NA","address2":"","latitude":"24.4307","longitude":"72.5118","accuracy":"3"},{"address3":"Deora","state":"Rajasthan","state_code":"24","district":"Jalor","district_code":"116","address1":"NA","address2":"","latitude":"25.0978","longitude":"72.2119","accuracy":"3"},{"address3":"Kardan","state":"Rajasthan","state_code":"24","district":"Jalor","district_code":"116","address1":"NA","address2":"","latitude":"24.4307","longitude":"72.5118","accuracy":"3"},{"address3":"Sarnau","state":"Rajasthan","state_code":"24","district":"Jalor","district_code":"116","address1":"NA","address2":"","latitude":"24.7805","longitude":"71.9453","accuracy":"4"},{"address3":"Gundau","state":"Rajasthan","state_code":"24","district":"Jalor","district_code":"116","address1":"NA","address2":"","latitude":"24.4307","longitude":"72.5118","accuracy":"3"},{"address3":"Kuda","state":"Rajasthan","state_code":"24","district":"Jalor","district_code":"116","address1":"NA","address2":"","latitude":"25.0978","longitude":"72.2119","accuracy":"4"},{"address3":"Itada","state":"Rajasthan","state_code":"24","district":"Jalor","district_code":"116","address1":"NA","address2":"","latitude":"24.4307","longitude":"72.5118","accuracy":"3"},{"address3":"Dhanol","state":"Rajasthan","state_code":"24","district":"Jalor","district_code":"116","address1":"NA","address2":"","latitude":"24.4307","longitude":"72.5118","accuracy":"3"},{"address3":"Ratanpur","state":"Rajasthan","state_code":"24","district":"Jalor","district_code":"116","address1":"NA","address2":"","latitude":"25.0978","longitude":"72.2119","accuracy":"3"},{"address3":"Meda","state":"Rajasthan","state_code":"24","district":"Jalor","district_code":"116","address1":"NA","address2":"","latitude":"24.4307","longitude":"72.5118","accuracy":"3"},{"address3":"Dungri","state":"Rajasthan","state_code":"24","district":"Jalor","district_code":"116","address1":"NA","address2":"","latitude":"25.0978","longitude":"72.2119","accuracy":"3"},{"address3":"Raniwara Khurd","state":"Rajasthan","state_code":"24","district":"Jalor","district_code":"116","address1":"NA","address2":"","latitude":"24.4307","longitude":"72.5118","accuracy":"3"},{"address3":"Binjrol","state":"Rajasthan","state_code":"24","district":"Jalor","district_code":"116","address1":"NA","address2":"","latitude":"24.4307","longitude":"72.5118","accuracy":"3"},{"address3":"Dantwara","state":"Rajasthan","state_code":"24","district":"Jalor","district_code":"116","address1":"NA","address2":"","latitude":"24.4307","longitude":"72.5118","accuracy":"3"},{"address3":"Karwada","state":"Rajasthan","state_code":"24","district":"Jalor","district_code":"116","address1":"NA","address2":"","latitude":"24.4307","longitude":"72.5118","accuracy":"3"},{"address3":"Jhab","state":"Rajasthan","state_code":"24","district":"Jalor","district_code":"116","address1":"NA","address2":"","latitude":"24.4307","longitude":"72.5118","accuracy":"3"},{"address3":"Ajodar","state":"Rajasthan","state_code":"24","district":"Jalor","district_code":"116","address1":"NA","address2":"","latitude":"24.4307","longitude":"72.5118","accuracy":"3"},{"address3":"Sankad","state":"Rajasthan","state_code":"24","district":"Jalor","district_code":"116","address1":"NA","address2":"","latitude":"24.4307","longitude":"72.5118","accuracy":"3"},{"address3":"Gong","state":"Rajasthan","state_code":"24","district":"Jalor","district_code":"116","address1":"NA","address2":"","latitude":"24.4307","longitude":"72.5118","accuracy":"3"},{"address3":"Korka","state":"Rajasthan","state_code":"24","district":"Jalor","district_code":"116","address1":"NA","address2":"","latitude":"24.4307","longitude":"72.5118","accuracy":"3"},{"address3":"Pamana","state":"Rajasthan","state_code":"24","district":"Jalor","district_code":"116","address1":"NA","address2":"","latitude":"24.4307","longitude":"72.5118","accuracy":"3"}],"343041":[{"address3":"Khara","state":"Rajasthan","state_code":"24","district":"Jalor","district_code":"116","address1":"NA","address2":"","latitude":"25.0978","longitude":"72.2119","accuracy":"4"},{"address3":"Bawarla","state":"Rajasthan","state_code":"24","district":"Jalor","district_code":"116","address1":"NA","address2":"","latitude":"25.0978","longitude":"72.2119","accuracy":"4"},{"address3":"Dhamana","state":"Rajasthan","state_code":"24","district":"Jalor","district_code":"116","address1":"NA","address2":"","latitude":"25.0978","longitude":"72.2119","accuracy":"4"},{"address3":"Achalpur","state":"Rajasthan","state_code":"24","district":"Jalor","district_code":"116","address1":"NA","address2":"","latitude":"25.4117","longitude":"73.6186","accuracy":"3"},{"address3":"Dungri","state":"Rajasthan","state_code":"24","district":"Jalor","district_code":"116","address1":"NA","address2":"","latitude":"25.0978","longitude":"72.2119","accuracy":"4"},{"address3":"Balera","state":"Rajasthan","state_code":"24","district":"Jalor","district_code":"116","address1":"NA","address2":"","latitude":"25.0978","longitude":"72.2119","accuracy":"4"},{"address3":"Jakhal","state":"Rajasthan","state_code":"24","district":"Jalor","district_code":"116","address1":"NA","address2":"","latitude":"25.0978","longitude":"72.2119","accuracy":"3"},{"address3":"Karola","state":"Rajasthan","state_code":"24","district":"Jalor","district_code":"116","address1":"NA","address2":"","latitude":"25.4117","longitude":"73.6186","accuracy":"3"},{"address3":"Akoli","state":"Rajasthan","state_code":"24","district":"Jalor","district_code":"116","address1":"NA","address2":"","latitude":"25.0978","longitude":"72.2119","accuracy":"4"},{"address3":"Parawa","state":"Rajasthan","state_code":"24","district":"Jalor","district_code":"116","address1":"NA","address2":"","latitude":"25.4117","longitude":"73.6186","accuracy":"3"},{"address3":"Pur","state":"Rajasthan","state_code":"24","district":"Jalor","district_code":"116","address1":"NA","address2":"","latitude":"25.0978","longitude":"72.2119","accuracy":"4"},{"address3":"Sarwana","state":"Rajasthan","state_code":"24","district":"Jalor","district_code":"116","address1":"NA","address2":"","latitude":"25.4117","longitude":"73.6186","accuracy":"3"},{"address3":"Sewara","state":"Rajasthan","state_code":"24","district":"Jalor","district_code":"116","address1":"NA","address2":"","latitude":"24.764","longitude":"72.0421","accuracy":"4"},{"address3":"Sanchore","state":"Rajasthan","state_code":"24","district":"Jalor","district_code":"116","address1":"Sanchore","address2":"","latitude":"24.7536","longitude":"71.7728","accuracy":"4"},{"address3":"Surawa","state":"Rajasthan","state_code":"24","district":"Jalor","district_code":"116","address1":"NA","address2":"","latitude":"25.4117","longitude":"73.6186","accuracy":"3"},{"address3":"Panchala","state":"Rajasthan","state_code":"24","district":"Jalor","district_code":"116","address1":"NA","address2":"","latitude":"25.0978","longitude":"72.2119","accuracy":"4"},{"address3":"Luniyasar","state":"Rajasthan","state_code":"24","district":"Jalor","district_code":"116","address1":"NA","address2":"","latitude":"25.4117","longitude":"73.6186","accuracy":"3"},{"address3":"Chora","state":"Rajasthan","state_code":"24","district":"Jalor","district_code":"116","address1":"NA","address2":"","latitude":"25.4117","longitude":"73.6186","accuracy":"3"},{"address3":"Chitalwana","state":"Rajasthan","state_code":"24","district":"Jalor","district_code":"116","address1":"NA","address2":"","latitude":"24.9089","longitude":"71.6607","accuracy":"4"},{"address3":"Hariyali","state":"Rajasthan","state_code":"24","district":"Jalor","district_code":"116","address1":"NA","address2":"","latitude":"24.8743","longitude":"71.8291","accuracy":"4"},{"address3":"Bhadruna","state":"Rajasthan","state_code":"24","district":"Jalor","district_code":"116","address1":"NA","address2":"","latitude":"25.4117","longitude":"73.6186","accuracy":"3"},{"address3":"Ranodar","state":"Rajasthan","state_code":"24","district":"Jalor","district_code":"116","address1":"NA","address2":"","latitude":"25.4117","longitude":"73.6186","accuracy":"3"},{"address3":"Arnay","state":"Rajasthan","state_code":"24","district":"Jalor","district_code":"116","address1":"NA","address2":"","latitude":"25.4117","longitude":"73.6186","accuracy":"3"},{"address3":"Keriya","state":"Rajasthan","state_code":"24","district":"Jalor","district_code":"116","address1":"NA","address2":"","latitude":"25.0978","longitude":"72.2119","accuracy":"4"},{"address3":"Bichhawadi","state":"Rajasthan","state_code":"24","district":"Jalor","district_code":"116","address1":"NA","address2":"","latitude":"25.4117","longitude":"73.6186","accuracy":"3"},{"address3":"Hotigaon","state":"Rajasthan","state_code":"24","district":"Jalor","district_code":"116","address1":"NA","address2":"","latitude":"25.4117","longitude":"73.6186","accuracy":"3"},{"address3":"Nenol","state":"Rajasthan","state_code":"24","district":"Jalor","district_code":"116","address1":"Sanchore","address2":"","latitude":"25.4117","longitude":"73.6186","accuracy":"3"},{"address3":"Duthwa","state":"Rajasthan","state_code":"24","district":"Jalor","district_code":"116","address1":"NA","address2":"","latitude":"24.8809","longitude":"71.4979","accuracy":"4"},{"address3":"Golasan","state":"Rajasthan","state_code":"24","district":"Jalor","district_code":"116","address1":"NA","address2":"","latitude":"25.4117","longitude":"73.6186","accuracy":"3"},{"address3":"Dabal","state":"Rajasthan","state_code":"24","district":"Jalor","district_code":"116","address1":"NA","address2":"","latitude":"25.4117","longitude":"73.6186","accuracy":"3"},{"address3":"Bhadwal","state":"Rajasthan","state_code":"24","district":"Jalor","district_code":"116","address1":"NA","address2":"","latitude":"25.4117","longitude":"73.6186","accuracy":"3"},{"address3":"Veerawa","state":"Rajasthan","state_code":"24","district":"Jalor","district_code":"116","address1":"Sanchore","address2":"","latitude":"25.4117","longitude":"73.6186","accuracy":"3"},{"address3":"Birol","state":"Rajasthan","state_code":"24","district":"Jalor","district_code":"116","address1":"NA","address2":"","latitude":"25.4117","longitude":"73.6186","accuracy":"3"},{"address3":"Bhawatra","state":"Rajasthan","state_code":"24","district":"Jalor","district_code":"116","address1":"NA","address2":"","latitude":"25.4117","longitude":"73.6186","accuracy":"3"},{"address3":"Hadetar","state":"Rajasthan","state_code":"24","district":"Jalor","district_code":"116","address1":"NA","address2":"","latitude":"25.4117","longitude":"73.6186","accuracy":"3"}],"343042":[{"address3":"Bishangarh","state":"Rajasthan","state_code":"24","district":"Jalor","district_code":"116","address1":"NA","address2":"","latitude":"25.0978","longitude":"72.2119","accuracy":"3"},{"address3":"Odwara","state":"Rajasthan","state_code":"24","district":"Jalor","district_code":"116","address1":"NA","address2":"","latitude":"25.4526","longitude":"72.4379","accuracy":"3"},{"address3":"Raithal","state":"Rajasthan","state_code":"24","district":"Jalor","district_code":"116","address1":"NA","address2":"","latitude":"25.0978","longitude":"72.2119","accuracy":"3"},{"address3":"Mandwala","state":"Rajasthan","state_code":"24","district":"Jalor","district_code":"116","address1":"Jalor","address2":"","latitude":"25.4262","longitude":"72.519","accuracy":"4"},{"address3":"Tikhi","state":"Rajasthan","state_code":"24","district":"Jalor","district_code":"116","address1":"NA","address2":"","latitude":"25.4526","longitude":"72.4379","accuracy":"3"},{"address3":"Balwara","state":"Rajasthan","state_code":"24","district":"Jalor","district_code":"116","address1":"NA","address2":"","latitude":"25.4938","longitude":"72.5432","accuracy":"4"},{"address3":"Bhawrani","state":"Rajasthan","state_code":"24","district":"Jalor","district_code":"116","address1":"NA","address2":"","latitude":"25.4526","longitude":"72.4379","accuracy":"3"},{"address3":"Sarana","state":"Rajasthan","state_code":"24","district":"Jalor","district_code":"116","address1":"NA","address2":"","latitude":"25.4192","longitude":"72.0539","accuracy":"4"},{"address3":"Anwloj","state":"Rajasthan","state_code":"24","district":"Jalor","district_code":"116","address1":"NA","address2":"","latitude":"25.4526","longitude":"72.4379","accuracy":"3"},{"address3":"Debawas","state":"Rajasthan","state_code":"24","district":"Jalor","district_code":"116","address1":"NA","address2":"","latitude":"25.4712","longitude":"72.6355","accuracy":"4"}],"343048":[{"address3":"Dhamseen","state":"Rajasthan","state_code":"24","district":"Jalor","district_code":"116","address1":"NA","address2":"","latitude":"25.2291","longitude":"73.1461","accuracy":"1"},{"address3":"Vadgaon (Jalor)","state":"Rajasthan","state_code":"24","district":"Jalor","district_code":"116","address1":"Sanchore","address2":"","latitude":"25.2291","longitude":"73.1461","accuracy":"1"}],"343049":[{"address3":"Ropsi","state":"Rajasthan","state_code":"24","district":"Jalor","district_code":"116","address1":"NA","address2":"","latitude":"25.1437","longitude":"72.7316","accuracy":"3"},{"address3":"Silasan","state":"Rajasthan","state_code":"24","district":"Jalor","district_code":"116","address1":"NA","address2":"","latitude":"24.8583","longitude":"72.225","accuracy":"4"},{"address3":"Kori","state":"Rajasthan","state_code":"24","district":"Jalor","district_code":"116","address1":"NA","address2":"","latitude":"25.0978","longitude":"72.2119","accuracy":"3"},{"address3":"Chitrodi","state":"Rajasthan","state_code":"24","district":"Jalor","district_code":"116","address1":"NA","address2":"","latitude":"25.1437","longitude":"72.7316","accuracy":"3"},{"address3":"Bilar","state":"Rajasthan","state_code":"24","district":"Jalor","district_code":"116","address1":"NA","address2":"","latitude":"24.8605","longitude":"72.2763","accuracy":"4"},{"address3":"Panseri","state":"Rajasthan","state_code":"24","district":"Jalor","district_code":"116","address1":"NA","address2":"","latitude":"25.1437","longitude":"72.7316","accuracy":"3"},{"address3":"Chirpatia","state":"Rajasthan","state_code":"24","district":"Jalor","district_code":"116","address1":"NA","address2":"","latitude":"25.0978","longitude":"72.2119","accuracy":"4"},{"address3":"Alri","state":"Rajasthan","state_code":"24","district":"Jalor","district_code":"116","address1":"NA","address2":"","latitude":"25.1437","longitude":"72.7316","accuracy":"3"},{"address3":"Savidhar","state":"Rajasthan","state_code":"24","district":"Jalor","district_code":"116","address1":"NA","address2":"","latitude":"25.1437","longitude":"72.7316","accuracy":"3"},{"address3":"Kagmala","state":"Rajasthan","state_code":"24","district":"Jalor","district_code":"116","address1":"Bhinmal","address2":"","latitude":"25.1437","longitude":"72.7316","accuracy":"3"}],"credits":[{"name":"geonames","url":"https://www.geonames.org"}],"last_update":"2019-03-01T09:01:34.664Z"}