{"345001":[{"address3":"Poonam Nagar","state":"Rajasthan","state_code":"24","district":"Jodhpur","district_code":"113","address1":"Bilara","address2":"","latitude":"26.9764","longitude":"70.8351","accuracy":"3"},{"address3":"Chatogarh","state":"Rajasthan","state_code":"24","district":"Jodhpur","district_code":"113","address1":"Bilara","address2":"","latitude":"26.9764","longitude":"70.8351","accuracy":"3"},{"address3":"Salkha","state":"Rajasthan","state_code":"24","district":"Jodhpur","district_code":"113","address1":"Bilara","address2":"","latitude":"26.9764","longitude":"70.8351","accuracy":"3"},{"address3":"Tejpala","state":"Rajasthan","state_code":"24","district":"Jodhpur","district_code":"113","address1":"Bilara","address2":"","latitude":"26.9764","longitude":"70.8351","accuracy":"3"},{"address3":"Jaisalmer Collectorate","state":"Rajasthan","state_code":"24","district":"Jaisalmer","district_code":"114","address1":"Jaisalmer","address2":"","latitude":"26.9764","longitude":"70.8351","accuracy":"3"},{"address3":"Adabala","state":"Rajasthan","state_code":"24","district":"Jaisalmer","district_code":"114","address1":"NA","address2":"","latitude":"27.0774","longitude":"70.9034","accuracy":"3"},{"address3":"Sam","state":"Rajasthan","state_code":"24","district":"Jaisalmer","district_code":"114","address1":"NA","address2":"","latitude":"26.8287","longitude":"70.5056","accuracy":"4"},{"address3":"Jaisalmer Bsf","state":"Rajasthan","state_code":"24","district":"Jaisalmer","district_code":"114","address1":"Jaisalmer","address2":"","latitude":"26.9764","longitude":"70.8351","accuracy":"3"},{"address3":"Rasla","state":"Rajasthan","state_code":"24","district":"Jaisalmer","district_code":"114","address1":"NA","address2":"","latitude":"26.7174","longitude":"71.3362","accuracy":"4"},{"address3":"Bhagu Ka Gaon","state":"Rajasthan","state_code":"24","district":"Jaisalmer","district_code":"114","address1":"NA","address2":"","latitude":"26.9764","longitude":"70.8351","accuracy":"3"},{"address3":"Jaisalmer Ignp Colony","state":"Rajasthan","state_code":"24","district":"Jaisalmer","district_code":"114","address1":"Jaisalmer","address2":"","latitude":"26.9764","longitude":"70.8351","accuracy":"3"},{"address3":"Sultana","state":"Rajasthan","state_code":"24","district":"Jaisalmer","district_code":"114","address1":"NA","address2":"","latitude":"27.0774","longitude":"70.9034","accuracy":"3"},{"address3":"Dabla","state":"Rajasthan","state_code":"24","district":"Jaisalmer","district_code":"114","address1":"NA","address2":"","latitude":"27.0774","longitude":"70.9034","accuracy":"3"},{"address3":"Jaisalmer Gopa Chowk","state":"Rajasthan","state_code":"24","district":"Jaisalmer","district_code":"114","address1":"Jaisalmer","address2":"","latitude":"26.9764","longitude":"70.8351","accuracy":"3"},{"address3":"Dewa","state":"Rajasthan","state_code":"24","district":"Jaisalmer","district_code":"114","address1":"NA","address2":"","latitude":"27.1814","longitude":"70.9967","accuracy":"4"},{"address3":"Mokhala","state":"Rajasthan","state_code":"24","district":"Jaisalmer","district_code":"114","address1":"NA","address2":"","latitude":"26.9764","longitude":"70.8351","accuracy":"3"},{"address3":"Kathori","state":"Rajasthan","state_code":"24","district":"Jaisalmer","district_code":"114","address1":"NA","address2":"","latitude":"27.1166","longitude":"70.8783","accuracy":"4"},{"address3":"Kanoi","state":"Rajasthan","state_code":"24","district":"Jaisalmer","district_code":"114","address1":"NA","address2":"","latitude":"26.9764","longitude":"70.8351","accuracy":"3"},{"address3":"Bhadasar","state":"Rajasthan","state_code":"24","district":"Jaisalmer","district_code":"114","address1":"NA","address2":"","latitude":"27.0983","longitude":"70.7873","accuracy":"4"},{"address3":"Mulana","state":"Rajasthan","state_code":"24","district":"Jaisalmer","district_code":"114","address1":"NA","address2":"","latitude":"26.9764","longitude":"70.8351","accuracy":"3"},{"address3":"Deora","state":"Rajasthan","state_code":"24","district":"Jaisalmer","district_code":"114","address1":"NA","address2":"","latitude":"26.3648","longitude":"70.9187","accuracy":"4"},{"address3":"Keeta","state":"Rajasthan","state_code":"24","district":"Jaisalmer","district_code":"114","address1":"NA","address2":"","latitude":"26.9764","longitude":"70.8351","accuracy":"3"},{"address3":"Bandha","state":"Rajasthan","state_code":"24","district":"Jaisalmer","district_code":"114","address1":"NA","address2":"","latitude":"27.1934","longitude":"70.3552","accuracy":"4"},{"address3":"Narsinghaon Ki Dhani","state":"Rajasthan","state_code":"24","district":"Jaisalmer","district_code":"114","address1":"NA","address2":"","latitude":"26.9764","longitude":"70.8351","accuracy":"3"},{"address3":"Dedha","state":"Rajasthan","state_code":"24","district":"Jaisalmer","district_code":"114","address1":"NA","address2":"","latitude":"26.8231","longitude":"70.7135","accuracy":"4"},{"address3":"Nedai","state":"Rajasthan","state_code":"24","district":"Jaisalmer","district_code":"114","address1":"NA","address2":"","latitude":"26.9764","longitude":"70.8351","accuracy":"3"},{"address3":"Baramsar","state":"Rajasthan","state_code":"24","district":"Jaisalmer","district_code":"114","address1":"NA","address2":"","latitude":"27.0109","longitude":"70.8891","accuracy":"4"},{"address3":"Parewar","state":"Rajasthan","state_code":"24","district":"Jaisalmer","district_code":"114","address1":"NA","address2":"","latitude":"26.9764","longitude":"70.8351","accuracy":"3"},{"address3":"Khuiyala","state":"Rajasthan","state_code":"24","district":"Jaisalmer","district_code":"114","address1":"NA","address2":"","latitude":"27.1464","longitude":"70.4264","accuracy":"4"},{"address3":"Jaisalmer H.O","state":"Rajasthan","state_code":"24","district":"Jaisalmer","district_code":"114","address1":"Jaisalmer","address2":"","latitude":"26.9764","longitude":"70.8351","accuracy":"3"},{"address3":"Khinya","state":"Rajasthan","state_code":"24","district":"Jaisalmer","district_code":"114","address1":"NA","address2":"","latitude":"27.329","longitude":"70.8553","accuracy":"4"},{"address3":"Gandhi Colony Jaisalmer","state":"Rajasthan","state_code":"24","district":"Jaisalmer","district_code":"114","address1":"Jaisalmer","address2":"","latitude":"26.9764","longitude":"70.8351","accuracy":"3"},{"address3":"Dhaisar","state":"Rajasthan","state_code":"24","district":"Jaisalmer","district_code":"114","address1":"NA","address2":"","latitude":"26.907","longitude":"71.3585","accuracy":"4"},{"address3":"Roopsi","state":"Rajasthan","state_code":"24","district":"Jaisalmer","district_code":"114","address1":"NA","address2":"","latitude":"26.9764","longitude":"70.8351","accuracy":"3"},{"address3":"Damodara","state":"Rajasthan","state_code":"24","district":"Jaisalmer","district_code":"114","address1":"NA","address2":"","latitude":"26.9764","longitude":"70.8351","accuracy":"3"},{"address3":"Chhatrail","state":"Rajasthan","state_code":"24","district":"Jaisalmer","district_code":"114","address1":"Jaisalmer","address2":"","latitude":"26.9764","longitude":"70.8351","accuracy":"3"},{"address3":"Lanela","state":"Rajasthan","state_code":"24","district":"Jaisalmer","district_code":"114","address1":"Jaisalmer","address2":"","latitude":"26.9764","longitude":"70.8351","accuracy":"3"},{"address3":"Badoda Gaon","state":"Rajasthan","state_code":"24","district":"Jaisalmer","district_code":"114","address1":"NA","address2":"","latitude":"26.9764","longitude":"70.8351","accuracy":"3"},{"address3":"Sonu","state":"Rajasthan","state_code":"24","district":"Jaisalmer","district_code":"114","address1":"NA","address2":"","latitude":"26.9764","longitude":"70.8351","accuracy":"3"},{"address3":"Chelak","state":"Rajasthan","state_code":"24","district":"Jaisalmer","district_code":"114","address1":"NA","address2":"","latitude":"26.9764","longitude":"70.8351","accuracy":"3"},{"address3":"Amarsalagar","state":"Rajasthan","state_code":"24","district":"Jaisalmer","district_code":"114","address1":"NA","address2":"","latitude":"26.9764","longitude":"70.8351","accuracy":"3"},{"address3":"Bida","state":"Rajasthan","state_code":"24","district":"Jaisalmer","district_code":"114","address1":"NA","address2":"","latitude":"26.9764","longitude":"70.8351","accuracy":"3"},{"address3":"Bhoo","state":"Rajasthan","state_code":"24","district":"Jaisalmer","district_code":"114","address1":"NA","address2":"","latitude":"26.9764","longitude":"70.8351","accuracy":"3"}],"345021":[{"address3":"Bamnu","state":"Rajasthan","state_code":"24","district":"Jaisalmer","district_code":"114","address1":"NA","address2":"","latitude":"26.7975","longitude":"72.3656","accuracy":"3"},{"address3":"Nathusar","state":"Rajasthan","state_code":"24","district":"Jaisalmer","district_code":"114","address1":"NA","address2":"","latitude":"27.0774","longitude":"70.9034","accuracy":"4"},{"address3":"Kelawa","state":"Rajasthan","state_code":"24","district":"Jaisalmer","district_code":"114","address1":"NA","address2":"","latitude":"26.9007","longitude":"71.7982","accuracy":"4"},{"address3":"Pokaran","state":"Rajasthan","state_code":"24","district":"Jaisalmer","district_code":"114","address1":"Jaisalmer","address2":"","latitude":"26.9201","longitude":"71.9163","accuracy":"4"},{"address3":"Barath Ka Gaon","state":"Rajasthan","state_code":"24","district":"Jaisalmer","district_code":"114","address1":"NA","address2":"","latitude":"26.7975","longitude":"72.3656","accuracy":"3"},{"address3":"Mandla","state":"Rajasthan","state_code":"24","district":"Jaisalmer","district_code":"114","address1":"NA","address2":"","latitude":"27.0774","longitude":"70.9034","accuracy":"4"},{"address3":"Ratariya","state":"Rajasthan","state_code":"24","district":"Jaisalmer","district_code":"114","address1":"NA","address2":"","latitude":"26.6122","longitude":"72.0338","accuracy":"4"},{"address3":"Jhabra","state":"Rajasthan","state_code":"24","district":"Jaisalmer","district_code":"114","address1":"NA","address2":"","latitude":"26.7975","longitude":"72.3656","accuracy":"3"},{"address3":"Ujlan","state":"Rajasthan","state_code":"24","district":"Jaisalmer","district_code":"114","address1":"NA","address2":"","latitude":"26.8132","longitude":"71.9479","accuracy":"4"},{"address3":"Baghthal","state":"Rajasthan","state_code":"24","district":"Jaisalmer","district_code":"114","address1":"NA","address2":"","latitude":"26.7975","longitude":"72.3656","accuracy":"3"},{"address3":"Lawan","state":"Rajasthan","state_code":"24","district":"Jaisalmer","district_code":"114","address1":"Pokaran","address2":"","latitude":"26.8691","longitude":"72.0391","accuracy":"4"},{"address3":"Modardi","state":"Rajasthan","state_code":"24","district":"Jaisalmer","district_code":"114","address1":"NA","address2":"","latitude":"26.7975","longitude":"72.3656","accuracy":"3"},{"address3":"Dadhu","state":"Rajasthan","state_code":"24","district":"Jaisalmer","district_code":"114","address1":"NA","address2":"","latitude":"26.7975","longitude":"72.3656","accuracy":"3"},{"address3":"Chowk","state":"Rajasthan","state_code":"24","district":"Jaisalmer","district_code":"114","address1":"NA","address2":"","latitude":"26.7975","longitude":"72.3656","accuracy":"3"},{"address3":"Jhalaria","state":"Rajasthan","state_code":"24","district":"Jaisalmer","district_code":"114","address1":"NA","address2":"","latitude":"26.7975","longitude":"72.3656","accuracy":"3"},{"address3":"Gomat","state":"Rajasthan","state_code":"24","district":"Jaisalmer","district_code":"114","address1":"NA","address2":"","latitude":"26.7975","longitude":"72.3656","accuracy":"3"},{"address3":"Pokaran City","state":"Rajasthan","state_code":"24","district":"Jaisalmer","district_code":"114","address1":"Luni","address2":"","latitude":"26.7975","longitude":"72.3656","accuracy":"3"},{"address3":"Padroda","state":"Rajasthan","state_code":"24","district":"Jaisalmer","district_code":"114","address1":"NA","address2":"","latitude":"26.7975","longitude":"72.3656","accuracy":"3"}],"345022":[{"address3":"Raghwa","state":"Rajasthan","state_code":"24","district":"Jaisalmer","district_code":"114","address1":"NA","address2":"","latitude":"27.5845","longitude":"70.4259","accuracy":"3"},{"address3":"Ramgarh (Jaisalmer)","state":"Rajasthan","state_code":"24","district":"Jaisalmer","district_code":"114","address1":"Jaisalmer","address2":"","latitude":"27.3731","longitude":"70.498","accuracy":"4"},{"address3":"Tanot","state":"Rajasthan","state_code":"24","district":"Jaisalmer","district_code":"114","address1":"Jaisalmer","address2":"","latitude":"27.7958","longitude":"70.3538","accuracy":"4"},{"address3":"Seuwa","state":"Rajasthan","state_code":"24","district":"Jaisalmer","district_code":"114","address1":"NA","address2":"","latitude":"27.5845","longitude":"70.4259","accuracy":"3"}],"345023":[{"address3":"Ramdeora","state":"Rajasthan","state_code":"24","district":"Jaisalmer","district_code":"114","address1":"Pokaran","address2":"","latitude":"27.0094","longitude":"71.9226","accuracy":"4"},{"address3":"Chayan","state":"Rajasthan","state_code":"24","district":"Jaisalmer","district_code":"114","address1":"NA","address2":"","latitude":"27.0212","longitude":"71.277","accuracy":"3"},{"address3":"Ekah","state":"Rajasthan","state_code":"24","district":"Jaisalmer","district_code":"114","address1":"NA","address2":"","latitude":"27.0212","longitude":"71.277","accuracy":"3"},{"address3":"Loharki","state":"Rajasthan","state_code":"24","district":"Jaisalmer","district_code":"114","address1":"NA","address2":"","latitude":"27.1468","longitude":"71.7661","accuracy":"4"},{"address3":"Khara","state":"Rajasthan","state_code":"24","district":"Jaisalmer","district_code":"114","address1":"NA","address2":"","latitude":"26.6639","longitude":"69.7135","accuracy":"4"},{"address3":"Bardana","state":"Rajasthan","state_code":"24","district":"Jaisalmer","district_code":"114","address1":"NA","address2":"","latitude":"27.0212","longitude":"71.277","accuracy":"3"},{"address3":"Ajasar","state":"Rajasthan","state_code":"24","district":"Jaisalmer","district_code":"114","address1":"NA","address2":"","latitude":"27.2647","longitude":"71.7057","accuracy":"4"}],"345024":[{"address3":"Madwa","state":"Rajasthan","state_code":"24","district":"Jaisalmer","district_code":"114","address1":"Pokaran","address2":"","latitude":"26.6603","longitude":"71.8893","accuracy":"3"},{"address3":"Jaimla","state":"Rajasthan","state_code":"24","district":"Jaisalmer","district_code":"114","address1":"Jaisalmer","address2":"","latitude":"26.6603","longitude":"71.8893","accuracy":"3"},{"address3":"Pannasar","state":"Rajasthan","state_code":"24","district":"Jaisalmer","district_code":"114","address1":"NA","address2":"","latitude":"26.6603","longitude":"71.8893","accuracy":"3"},{"address3":"Bhaniyana","state":"Rajasthan","state_code":"24","district":"Jaisalmer","district_code":"114","address1":"Jaisalmer","address2":"","latitude":"26.6603","longitude":"71.8893","accuracy":"4"},{"address3":"Balu Singh Ki Dhani","state":"Rajasthan","state_code":"24","district":"Jaisalmer","district_code":"114","address1":"NA","address2":"","latitude":"26.6603","longitude":"71.8893","accuracy":"3"}],"345025":[{"address3":"Sohanpura","state":"Rajasthan","state_code":"24","district":"Jaisalmer","district_code":"114","address1":"Jaisalmer","address2":"","latitude":"27.0774","longitude":"70.9034","accuracy":"4"},{"address3":"Padampura","state":"Rajasthan","state_code":"24","district":"Jaisalmer","district_code":"114","address1":"Jaisalmer","address2":"","latitude":"27.0774","longitude":"70.9034","accuracy":"4"},{"address3":"Bhikodai","state":"Rajasthan","state_code":"24","district":"Jaisalmer","district_code":"114","address1":"NA","address2":"","latitude":"26.0158","longitude":"72.8624","accuracy":"3"},{"address3":"Phalsund","state":"Rajasthan","state_code":"24","district":"Jaisalmer","district_code":"114","address1":"Jaisalmer","address2":"","latitude":"26.3956","longitude":"71.9227","accuracy":"4"},{"address3":"Dantal","state":"Rajasthan","state_code":"24","district":"Jaisalmer","district_code":"114","address1":"NA","address2":"","latitude":"26.5458","longitude":"71.8871","accuracy":"4"},{"address3":"Phulasar","state":"Rajasthan","state_code":"24","district":"Jaisalmer","district_code":"114","address1":"NA","address2":"","latitude":"26.0158","longitude":"72.8624","accuracy":"3"},{"address3":"Bandhewa","state":"Rajasthan","state_code":"24","district":"Jaisalmer","district_code":"114","address1":"NA","address2":"","latitude":"26.0158","longitude":"72.8624","accuracy":"3"},{"address3":"Rajmathai","state":"Rajasthan","state_code":"24","district":"Jaisalmer","district_code":"114","address1":"NA","address2":"","latitude":"26.0158","longitude":"72.8624","accuracy":"3"},{"address3":"Swami Ki Dhani","state":"Rajasthan","state_code":"24","district":"Jaisalmer","district_code":"114","address1":"NA","address2":"","latitude":"26.0158","longitude":"72.8624","accuracy":"3"}],"345026":[{"address3":"Rajgarh","state":"Rajasthan","state_code":"24","district":"Jaisalmer","district_code":"114","address1":"NA","address2":"","latitude":"27.0774","longitude":"70.9034","accuracy":"4"},{"address3":"Sankra (Jaisalmer)","state":"Rajasthan","state_code":"24","district":"Jaisalmer","district_code":"114","address1":"Jaisalmer","address2":"","latitude":"26.733","longitude":"71.5839","accuracy":"4"},{"address3":"Bhensara","state":"Rajasthan","state_code":"24","district":"Jaisalmer","district_code":"114","address1":"NA","address2":"","latitude":"26.5175","longitude":"73.1019","accuracy":"3"},{"address3":"Sanawara","state":"Rajasthan","state_code":"24","district":"Jaisalmer","district_code":"114","address1":"NA","address2":"","latitude":"26.5175","longitude":"73.1019","accuracy":"3"},{"address3":"Ola","state":"Rajasthan","state_code":"24","district":"Jaisalmer","district_code":"114","address1":"NA","address2":"","latitude":"26.5175","longitude":"73.1019","accuracy":"3"},{"address3":"Bonada","state":"Rajasthan","state_code":"24","district":"Jaisalmer","district_code":"114","address1":"NA","address2":"","latitude":"26.5175","longitude":"73.1019","accuracy":"3"},{"address3":"Loona Kallan","state":"Rajasthan","state_code":"24","district":"Jaisalmer","district_code":"114","address1":"NA","address2":"","latitude":"26.5175","longitude":"73.1019","accuracy":"3"},{"address3":"Loona Khurd","state":"Rajasthan","state_code":"24","district":"Jaisalmer","district_code":"114","address1":"NA","address2":"","latitude":"26.5175","longitude":"73.1019","accuracy":"3"},{"address3":"Nedan","state":"Rajasthan","state_code":"24","district":"Jaisalmer","district_code":"114","address1":"Pokaran","address2":"","latitude":"26.5175","longitude":"73.1019","accuracy":"3"}],"345027":[{"address3":"Tejrawa","state":"Rajasthan","state_code":"24","district":"Jaisalmer","district_code":"114","address1":"NA","address2":"","latitude":"26.2562","longitude":"70.6447","accuracy":"4"},{"address3":"Koda","state":"Rajasthan","state_code":"24","district":"Jaisalmer","district_code":"114","address1":"NA","address2":"","latitude":"26.4659","longitude":"71.7701","accuracy":"3"},{"address3":"Jhinjhinyali","state":"Rajasthan","state_code":"24","district":"Jaisalmer","district_code":"114","address1":"NA","address2":"","latitude":"26.4659","longitude":"71.7701","accuracy":"3"},{"address3":"Rewari","state":"Rajasthan","state_code":"24","district":"Jaisalmer","district_code":"114","address1":"NA","address2":"","latitude":"26.4659","longitude":"71.7701","accuracy":"3"},{"address3":"Devikot","state":"Rajasthan","state_code":"24","district":"Jaisalmer","district_code":"114","address1":"NA","address2":"","latitude":"26.6998","longitude":"71.199","accuracy":"4"},{"address3":"Randha","state":"Rajasthan","state_code":"24","district":"Jaisalmer","district_code":"114","address1":"NA","address2":"","latitude":"26.4659","longitude":"71.7701","accuracy":"3"},{"address3":"Rama","state":"Rajasthan","state_code":"24","district":"Jaisalmer","district_code":"114","address1":"NA","address2":"","latitude":"26.5498","longitude":"71.0407","accuracy":"4"},{"address3":"Modha","state":"Rajasthan","state_code":"24","district":"Jaisalmer","district_code":"114","address1":"Fatehgarh","address2":"","latitude":"26.4659","longitude":"71.7701","accuracy":"3"},{"address3":"Baiya","state":"Rajasthan","state_code":"24","district":"Jaisalmer","district_code":"114","address1":"NA","address2":"","latitude":"26.4659","longitude":"71.7701","accuracy":"3"},{"address3":"Kunda","state":"Rajasthan","state_code":"24","district":"Jaisalmer","district_code":"114","address1":"NA","address2":"","latitude":"27.0774","longitude":"70.9034","accuracy":"3"},{"address3":"Kapuriya","state":"Rajasthan","state_code":"24","district":"Jaisalmer","district_code":"114","address1":"NA","address2":"","latitude":"27.0774","longitude":"70.9034","accuracy":"4"},{"address3":"Seerhar","state":"Rajasthan","state_code":"24","district":"Jaisalmer","district_code":"114","address1":"NA","address2":"","latitude":"26.4659","longitude":"71.7701","accuracy":"3"},{"address3":"Sangad","state":"Rajasthan","state_code":"24","district":"Jaisalmer","district_code":"114","address1":"Jaisalmer","address2":"","latitude":"26.5302","longitude":"71.1596","accuracy":"4"},{"address3":"Dangara","state":"Rajasthan","state_code":"24","district":"Jaisalmer","district_code":"114","address1":"NA","address2":"","latitude":"26.4659","longitude":"71.7701","accuracy":"3"},{"address3":"Tejmalta","state":"Rajasthan","state_code":"24","district":"Jaisalmer","district_code":"114","address1":"NA","address2":"","latitude":"26.4659","longitude":"71.7701","accuracy":"3"},{"address3":"Fatehgarh","state":"Rajasthan","state_code":"24","district":"Jaisalmer","district_code":"114","address1":"NA","address2":"","latitude":"27.0774","longitude":"70.9034","accuracy":"4"},{"address3":"Bhadli","state":"Rajasthan","state_code":"24","district":"Jaisalmer","district_code":"114","address1":"NA","address2":"","latitude":"26.4659","longitude":"71.7701","accuracy":"3"},{"address3":"Lakha","state":"Rajasthan","state_code":"24","district":"Jaisalmer","district_code":"114","address1":"NA","address2":"","latitude":"26.1463","longitude":"70.9813","accuracy":"4"}],"345028":[{"address3":"Away","state":"Rajasthan","state_code":"24","district":"Jaisalmer","district_code":"114","address1":"NA","address2":"","latitude":"27.4487","longitude":"71.6639","accuracy":"3"},{"address3":"Bahala","state":"Rajasthan","state_code":"24","district":"Jaisalmer","district_code":"114","address1":"NA","address2":"","latitude":"27.0774","longitude":"70.9034","accuracy":"3"},{"address3":"Pancheka Talab","state":"Rajasthan","state_code":"24","district":"Jaisalmer","district_code":"114","address1":"NA","address2":"","latitude":"27.4487","longitude":"71.6639","accuracy":"3"},{"address3":"Didhu","state":"Rajasthan","state_code":"24","district":"Jaisalmer","district_code":"114","address1":"NA","address2":"","latitude":"27.3318","longitude":"71.7077","accuracy":"4"},{"address3":"Madasar","state":"Rajasthan","state_code":"24","district":"Jaisalmer","district_code":"114","address1":"NA","address2":"","latitude":"27.4487","longitude":"71.6639","accuracy":"3"},{"address3":"Askandra","state":"Rajasthan","state_code":"24","district":"Jaisalmer","district_code":"114","address1":"NA","address2":"","latitude":"27.3689","longitude":"71.7469","accuracy":"4"},{"address3":"Satyaya","state":"Rajasthan","state_code":"24","district":"Jaisalmer","district_code":"114","address1":"NA","address2":"","latitude":"27.4487","longitude":"71.6639","accuracy":"3"},{"address3":"Bharewala","state":"Rajasthan","state_code":"24","district":"Jaisalmer","district_code":"114","address1":"NA","address2":"","latitude":"27.7669","longitude":"71.6586","accuracy":"4"},{"address3":"Nachana","state":"Rajasthan","state_code":"24","district":"Jaisalmer","district_code":"114","address1":"Jaisalmer","address2":"","latitude":"27.4487","longitude":"71.6639","accuracy":"3"},{"address3":"Tadana","state":"Rajasthan","state_code":"24","district":"Jaisalmer","district_code":"114","address1":"NA","address2":"","latitude":"27.327","longitude":"71.5424","accuracy":"4"},{"address3":"Tawriwala","state":"Rajasthan","state_code":"24","district":"Jaisalmer","district_code":"114","address1":"NA","address2":"","latitude":"27.4487","longitude":"71.6639","accuracy":"3"},{"address3":"Chinu","state":"Rajasthan","state_code":"24","district":"Jaisalmer","district_code":"114","address1":"NA","address2":"","latitude":"27.4487","longitude":"71.6639","accuracy":"3"}],"345031":[{"address3":"Chacha","state":"Rajasthan","state_code":"24","district":"Jaisalmer","district_code":"114","address1":"NA","address2":"","latitude":"27.03","longitude":"71.6145","accuracy":"3"},{"address3":"Chandan","state":"Rajasthan","state_code":"24","district":"Jaisalmer","district_code":"114","address1":"NA","address2":"","latitude":"27.03","longitude":"71.6145","accuracy":"3"},{"address3":"Dholiya","state":"Rajasthan","state_code":"24","district":"Jaisalmer","district_code":"114","address1":"NA","address2":"","latitude":"27.0774","longitude":"70.9034","accuracy":"3"},{"address3":"Khetolai","state":"Rajasthan","state_code":"24","district":"Jaisalmer","district_code":"114","address1":"NA","address2":"","latitude":"27.0233","longitude":"71.7122","accuracy":"4"},{"address3":"Sodakore","state":"Rajasthan","state_code":"24","district":"Jaisalmer","district_code":"114","address1":"NA","address2":"","latitude":"27.03","longitude":"71.6145","accuracy":"3"},{"address3":"Lathi (Jaisalmer)","state":"Rajasthan","state_code":"24","district":"Jaisalmer","district_code":"114","address1":"Jaisalmer","address2":"","latitude":"27.0367","longitude":"71.5168","accuracy":"4"},{"address3":"Delasar","state":"Rajasthan","state_code":"24","district":"Jaisalmer","district_code":"114","address1":"NA","address2":"","latitude":"27.03","longitude":"71.6145","accuracy":"3"},{"address3":"Bhadariya","state":"Rajasthan","state_code":"24","district":"Jaisalmer","district_code":"114","address1":"NA","address2":"","latitude":"27.03","longitude":"71.6145","accuracy":"3"},{"address3":"Odhania","state":"Rajasthan","state_code":"24","district":"Jaisalmer","district_code":"114","address1":"NA","address2":"","latitude":"27.03","longitude":"71.6145","accuracy":"3"}],"345033":[{"address3":"Kanod Rawaliya","state":"Rajasthan","state_code":"24","district":"Jodhpur","district_code":"113","address1":"NA","address2":"","latitude":"27.1414","longitude":"71.158","accuracy":"3"},{"address3":"Mohangarh (Jaisalmer)","state":"Rajasthan","state_code":"24","district":"Jaisalmer","district_code":"114","address1":"Jaisalmer","address2":"","latitude":"27.2871","longitude":"71.2419","accuracy":"4"},{"address3":"Hamira","state":"Rajasthan","state_code":"24","district":"Jaisalmer","district_code":"114","address1":"NA","address2":"","latitude":"26.9958","longitude":"71.0741","accuracy":"4"}],"345034":[{"address3":"Miazlar","state":"Rajasthan","state_code":"24","district":"Jaisalmer","district_code":"114","address1":"Jaisalmer","address2":"","latitude":"25.7472","longitude":"73.7288","accuracy":"3"},{"address3":"Phulia","state":"Rajasthan","state_code":"24","district":"Jaisalmer","district_code":"114","address1":"Jaisalmer","address2":"","latitude":"27.0774","longitude":"70.9034","accuracy":"4"},{"address3":"Loonar","state":"Rajasthan","state_code":"24","district":"Jaisalmer","district_code":"114","address1":"Jaisalmer","address2":"","latitude":"25.7472","longitude":"73.7288","accuracy":"3"},{"address3":"Pochina","state":"Rajasthan","state_code":"24","district":"Jaisalmer","district_code":"114","address1":"Jaisalmer","address2":"","latitude":"25.7472","longitude":"73.7288","accuracy":"3"},{"address3":"Kotri","state":"Rajasthan","state_code":"24","district":"Jaisalmer","district_code":"114","address1":"Jaisalmer","address2":"","latitude":"25.7472","longitude":"73.7288","accuracy":"3"},{"address3":"Karda","state":"Rajasthan","state_code":"24","district":"Jaisalmer","district_code":"114","address1":"Jaisalmer","address2":"","latitude":"27.0774","longitude":"70.9034","accuracy":"3"},{"address3":"Khoohri","state":"Rajasthan","state_code":"24","district":"Jaisalmer","district_code":"114","address1":"Jaisalmer","address2":"","latitude":"25.7472","longitude":"73.7288","accuracy":"3"},{"address3":"Berisiyala","state":"Rajasthan","state_code":"24","district":"Jaisalmer","district_code":"114","address1":"Jaisalmer","address2":"","latitude":"25.7472","longitude":"73.7288","accuracy":"3"},{"address3":"Peethla","state":"Rajasthan","state_code":"24","district":"Jaisalmer","district_code":"114","address1":"Jaisalmer","address2":"","latitude":"25.7472","longitude":"73.7288","accuracy":"3"},{"address3":"Satto","state":"Rajasthan","state_code":"24","district":"Jaisalmer","district_code":"114","address1":"Jaisalmer","address2":"","latitude":"25.7472","longitude":"73.7288","accuracy":"3"}],"credits":[{"name":"geonames","url":"https://www.geonames.org"}],"last_update":"2019-03-01T09:01:34.613Z"}