{"370001":[{"address3":"Dhrang","state":"Gujarat","state_code":"09","district":"Kachchh","district_code":"468","address1":"Bhuj","address2":"","latitude":"23.3924","longitude":"69.8923","accuracy":"3"},{"address3":"Nirona","state":"Gujarat","state_code":"09","district":"Kachchh","district_code":"468","address1":"Nakhatrana","address2":"","latitude":"23.3924","longitude":"69.8923","accuracy":"3"},{"address3":"Lodai","state":"Gujarat","state_code":"09","district":"Kachchh","district_code":"468","address1":"Bhuj","address2":"","latitude":"23.3924","longitude":"69.8923","accuracy":"4"},{"address3":"Kotay","state":"Gujarat","state_code":"09","district":"Kachchh","district_code":"468","address1":"Bhuj","address2":"","latitude":"23.3924","longitude":"69.8923","accuracy":"3"},{"address3":"Kunariya","state":"Gujarat","state_code":"09","district":"Kachchh","district_code":"468","address1":"Bhuj","address2":"","latitude":"23.3924","longitude":"69.8923","accuracy":"3"},{"address3":"Dhori","state":"Gujarat","state_code":"09","district":"Kachchh","district_code":"468","address1":"Bhuj","address2":"","latitude":"23.6285","longitude":"69.9604","accuracy":"3"},{"address3":"Habay","state":"Gujarat","state_code":"09","district":"Kachchh","district_code":"468","address1":"Bhuj","address2":"","latitude":"23.3924","longitude":"69.8923","accuracy":"3"},{"address3":"Bibar","state":"Gujarat","state_code":"09","district":"Kachchh","district_code":"468","address1":"Nakhatrana","address2":"","latitude":"23.3924","longitude":"69.8923","accuracy":"3"},{"address3":"Zinkdi","state":"Gujarat","state_code":"09","district":"Kachchh","district_code":"468","address1":"Bhuj","address2":"","latitude":"23.3924","longitude":"69.8923","accuracy":"3"},{"address3":"Bhagadia","state":"Gujarat","state_code":"09","district":"Kachchh","district_code":"468","address1":"Bhuj","address2":"","latitude":"23.3924","longitude":"69.8923","accuracy":"3"},{"address3":"Nagor","state":"Gujarat","state_code":"09","district":"Kachchh","district_code":"468","address1":"Bhuj","address2":"","latitude":"23.3924","longitude":"69.8923","accuracy":"3"},{"address3":"Loria","state":"Gujarat","state_code":"09","district":"Kachchh","district_code":"468","address1":"Bhuj","address2":"","latitude":"23.3924","longitude":"69.8923","accuracy":"3"},{"address3":"Vang","state":"Gujarat","state_code":"09","district":"Kachchh","district_code":"468","address1":"Nakhatrana","address2":"","latitude":"23.3924","longitude":"69.8923","accuracy":"3"},{"address3":"Sumrasar (S)","state":"Gujarat","state_code":"09","district":"Kachchh","district_code":"468","address1":"Bhuj","address2":"","latitude":"23.3924","longitude":"69.8923","accuracy":"3"},{"address3":"Zura","state":"Gujarat","state_code":"09","district":"Kachchh","district_code":"468","address1":"Bhuj","address2":"","latitude":"23.3924","longitude":"69.8923","accuracy":"3"},{"address3":"Mirzapar","state":"Gujarat","state_code":"09","district":"Kachchh","district_code":"468","address1":"Bhuj","address2":"","latitude":"23.3924","longitude":"69.8923","accuracy":"3"},{"address3":"Bhuj Ravalwadi","state":"Gujarat","state_code":"09","district":"Kachchh","district_code":"468","address1":"Bhuj","address2":"","latitude":"23.3924","longitude":"69.8923","accuracy":"3"},{"address3":"Khatri Chakla Bhuj","state":"Gujarat","state_code":"09","district":"Kachchh","district_code":"468","address1":"Bhuj","address2":"","latitude":"23.3924","longitude":"69.8923","accuracy":"3"},{"address3":"Bhuj H.O","state":"Gujarat","state_code":"09","district":"Kachchh","district_code":"468","address1":"Bhuj","address2":"","latitude":"23.3924","longitude":"69.8923","accuracy":"3"},{"address3":"Bhuj Darbargadh Chowk","state":"Gujarat","state_code":"09","district":"Kachchh","district_code":"468","address1":"Bhuj","address2":"","latitude":"23.3924","longitude":"69.8923","accuracy":"3"}],"370015":[{"address3":"Bhuj B S F Camp","state":"Gujarat","state_code":"09","district":"Kachchh","district_code":"468","address1":"Bhuj","address2":"","latitude":"23.2719","longitude":"69.6957","accuracy":"1"},{"address3":"Haripar","state":"Gujarat","state_code":"09","district":"Kachchh","district_code":"468","address1":"Bhuj","address2":"","latitude":"23.2719","longitude":"69.6957","accuracy":"1"}],"370020":[{"address3":"Nadapa","state":"Gujarat","state_code":"09","district":"Kachchh","district_code":"468","address1":"Bhuj","address2":"","latitude":"23.3127","longitude":"69.9012","accuracy":"4"},{"address3":"Dhaneti","state":"Gujarat","state_code":"09","district":"Kachchh","district_code":"468","address1":"Bhuj","address2":"","latitude":"23.2775","longitude":"69.8146","accuracy":"3"},{"address3":"Mamuara","state":"Gujarat","state_code":"09","district":"Kachchh","district_code":"468","address1":"Bhuj","address2":"","latitude":"23.2803","longitude":"69.8731","accuracy":"4"},{"address3":"Madhapar","state":"Gujarat","state_code":"09","district":"Kachchh","district_code":"468","address1":"Bhuj","address2":"","latitude":"23.2395","longitude":"69.6695","accuracy":"4"},{"address3":"Bhujodi","state":"Gujarat","state_code":"09","district":"Kachchh","district_code":"468","address1":"Bhuj","address2":"","latitude":"23.2775","longitude":"69.8146","accuracy":"3"}],"370030":[{"address3":"Roha","state":"Gujarat","state_code":"09","district":"Kachchh","district_code":"468","address1":"Nakhatrana","address2":"","latitude":"23.1965","longitude":"69.2708","accuracy":"4"},{"address3":"Jiyapar","state":"Gujarat","state_code":"09","district":"Kachchh","district_code":"468","address1":"Nakhatrana","address2":"","latitude":"23.2032","longitude":"69.4192","accuracy":"3"},{"address3":"Vibhapar","state":"Gujarat","state_code":"09","district":"Kachchh","district_code":"468","address1":"Nakhatrana","address2":"","latitude":"23.2032","longitude":"69.4192","accuracy":"3"},{"address3":"Kotda Roha","state":"Gujarat","state_code":"09","district":"Kachchh","district_code":"468","address1":"Nakhatrana","address2":"","latitude":"23.2032","longitude":"69.4192","accuracy":"3"},{"address3":"Mankuwa","state":"Gujarat","state_code":"09","district":"Kachchh","district_code":"468","address1":"Bhuj","address2":"","latitude":"23.2099","longitude":"69.5676","accuracy":"4"},{"address3":"Kurbai","state":"Gujarat","state_code":"09","district":"Kachchh","district_code":"468","address1":"Bhuj","address2":"","latitude":"23.2032","longitude":"69.4192","accuracy":"3"},{"address3":"Sumrasar Jat","state":"Gujarat","state_code":"09","district":"Kachchh","district_code":"468","address1":"Bhuj","address2":"","latitude":"23.2032","longitude":"69.4192","accuracy":"3"},{"address3":"Sukhpar Roha","state":"Gujarat","state_code":"09","district":"Kachchh","district_code":"468","address1":"Nakhatrana","address2":"","latitude":"23.2032","longitude":"69.4192","accuracy":"3"},{"address3":"Mangvana","state":"Gujarat","state_code":"09","district":"Kachchh","district_code":"468","address1":"Nakhatrana","address2":"","latitude":"23.2032","longitude":"69.4192","accuracy":"3"},{"address3":"Sanosara","state":"Gujarat","state_code":"09","district":"Kachchh","district_code":"468","address1":"Abdasa","address2":"","latitude":"23.2032","longitude":"69.4192","accuracy":"3"},{"address3":"Naredi","state":"Gujarat","state_code":"09","district":"Kachchh","district_code":"468","address1":"Abdasa","address2":"","latitude":"23.2032","longitude":"69.4192","accuracy":"3"},{"address3":"Bharasar","state":"Gujarat","state_code":"09","district":"Kachchh","district_code":"468","address1":"Bhuj","address2":"","latitude":"23.2032","longitude":"69.4192","accuracy":"3"},{"address3":"Bhitara","state":"Gujarat","state_code":"09","district":"Kachchh","district_code":"468","address1":"Nakhatrana","address2":"","latitude":"23.2032","longitude":"69.4192","accuracy":"3"},{"address3":"Kodki","state":"Gujarat","state_code":"09","district":"Kachchh","district_code":"468","address1":"Bhuj","address2":"","latitude":"23.2032","longitude":"69.4192","accuracy":"3"}],"370040":[{"address3":"Sukhpar","state":"Gujarat","state_code":"09","district":"Kachchh","district_code":"468","address1":"Bhuj","address2":"","latitude":"23.2719","longitude":"69.6957","accuracy":"1"},{"address3":"Ratiya","state":"Gujarat","state_code":"09","district":"Kachchh","district_code":"468","address1":"Bhuj","address2":"","latitude":"23.2719","longitude":"69.6957","accuracy":"1"},{"address3":"Samtra","state":"Gujarat","state_code":"09","district":"Kachchh","district_code":"468","address1":"Bhuj","address2":"","latitude":"23.2719","longitude":"69.6957","accuracy":"1"},{"address3":"Fotdi","state":"Gujarat","state_code":"09","district":"Kachchh","district_code":"468","address1":"Bhuj","address2":"","latitude":"23.2719","longitude":"69.6957","accuracy":"1"},{"address3":"Deshalpar","state":"Gujarat","state_code":"09","district":"Kachchh","district_code":"468","address1":"Bhuj","address2":"","latitude":"23.2719","longitude":"69.6957","accuracy":"1"}],"370105":[{"address3":"Chapredi","state":"Gujarat","state_code":"09","district":"Kachchh","district_code":"468","address1":"Bhuj","address2":"","latitude":"23.1847","longitude":"69.81","accuracy":"3"},{"address3":"Hajapar","state":"Gujarat","state_code":"09","district":"Kachchh","district_code":"468","address1":"Bhuj","address2":"","latitude":"23.1847","longitude":"69.81","accuracy":"3"},{"address3":"Kukma","state":"Gujarat","state_code":"09","district":"Kachchh","district_code":"468","address1":"Bhuj","address2":"","latitude":"23.2171","longitude":"69.778","accuracy":"4"},{"address3":"Kali Talawali","state":"Gujarat","state_code":"09","district":"Kachchh","district_code":"468","address1":"Bhuj","address2":"","latitude":"23.1847","longitude":"69.81","accuracy":"3"},{"address3":"Ningal","state":"Gujarat","state_code":"09","district":"Kachchh","district_code":"468","address1":"Anjar","address2":"","latitude":"23.1847","longitude":"69.81","accuracy":"3"},{"address3":"Reha","state":"Gujarat","state_code":"09","district":"Kachchh","district_code":"468","address1":"Bhuj","address2":"","latitude":"23.15","longitude":"69.75","accuracy":"4"},{"address3":"Sapeda","state":"Gujarat","state_code":"09","district":"Kachchh","district_code":"468","address1":"Anjar","address2":"","latitude":"23.1847","longitude":"69.81","accuracy":"3"},{"address3":"Ratnal","state":"Gujarat","state_code":"09","district":"Kachchh","district_code":"468","address1":"Anjar","address2":"","latitude":"23.187","longitude":"69.9021","accuracy":"4"},{"address3":"Ashram Chakar","state":"Gujarat","state_code":"09","district":"Kachchh","district_code":"468","address1":"Bhuj","address2":"","latitude":"23.1847","longitude":"69.81","accuracy":"3"},{"address3":"Sugaria","state":"Gujarat","state_code":"09","district":"Kachchh","district_code":"468","address1":"Anjar","address2":"","latitude":"23.1847","longitude":"69.81","accuracy":"3"},{"address3":"Kotda (Reha)","state":"Gujarat","state_code":"09","district":"Kachchh","district_code":"468","address1":"Bhuj","address2":"","latitude":"23.1847","longitude":"69.81","accuracy":"3"},{"address3":"Lakhond","state":"Gujarat","state_code":"09","district":"Kachchh","district_code":"468","address1":"Bhuj","address2":"","latitude":"23.1847","longitude":"69.81","accuracy":"3"},{"address3":"Mota Bandra","state":"Gujarat","state_code":"09","district":"Kachchh","district_code":"468","address1":"Bhuj","address2":"","latitude":"23.1847","longitude":"69.81","accuracy":"3"},{"address3":"Padhar","state":"Gujarat","state_code":"09","district":"Kachchh","district_code":"468","address1":"Bhuj","address2":"","latitude":"23.1847","longitude":"69.81","accuracy":"3"}],"370110":[{"address3":"Lakhapar","state":"Gujarat","state_code":"09","district":"Kachchh","district_code":"468","address1":"Anjar","address2":"","latitude":"23.1132","longitude":"70.0267","accuracy":"3"},{"address3":"Anjar","state":"Gujarat","state_code":"09","district":"Kachchh","district_code":"468","address1":"Anjar","address2":"","latitude":"23.1132","longitude":"70.0267","accuracy":"4"},{"address3":"Khambhara","state":"Gujarat","state_code":"09","district":"Kachchh","district_code":"468","address1":"Anjar","address2":"","latitude":"23.1132","longitude":"70.0267","accuracy":"3"},{"address3":"Kumbharia","state":"Gujarat","state_code":"09","district":"Kachchh","district_code":"468","address1":"Anjar","address2":"","latitude":"23.6285","longitude":"69.9604","accuracy":"3"},{"address3":"Vidi","state":"Gujarat","state_code":"09","district":"Kachchh","district_code":"468","address1":"Anjar","address2":"","latitude":"23.1132","longitude":"70.0267","accuracy":"3"},{"address3":"Satapar","state":"Gujarat","state_code":"09","district":"Kachchh","district_code":"468","address1":"Anjar","address2":"","latitude":"23.1132","longitude":"70.0267","accuracy":"3"},{"address3":"Devalia","state":"Gujarat","state_code":"09","district":"Kachchh","district_code":"468","address1":"Anjar","address2":"","latitude":"23.1132","longitude":"70.0267","accuracy":"3"},{"address3":"Modvadar","state":"Gujarat","state_code":"09","district":"Kachchh","district_code":"468","address1":"Anjar","address2":"","latitude":"23.1132","longitude":"70.0267","accuracy":"3"},{"address3":"Vira","state":"Gujarat","state_code":"09","district":"Kachchh","district_code":"468","address1":"Anjar","address2":"","latitude":"23.1132","longitude":"70.0267","accuracy":"3"},{"address3":"Nagalpar","state":"Gujarat","state_code":"09","district":"Kachchh","district_code":"468","address1":"Anjar","address2":"","latitude":"23.1132","longitude":"70.0267","accuracy":"3"},{"address3":"Bitta Valadia","state":"Gujarat","state_code":"09","district":"Kachchh","district_code":"468","address1":"Anjar","address2":"","latitude":"23.1132","longitude":"70.0267","accuracy":"3"},{"address3":"Meghpar Borichi","state":"Gujarat","state_code":"09","district":"Kachchh","district_code":"468","address1":"Anjar","address2":"","latitude":"23.1132","longitude":"70.0267","accuracy":"3"},{"address3":"Zaru","state":"Gujarat","state_code":"09","district":"Kachchh","district_code":"468","address1":"Anjar","address2":"","latitude":"23.1132","longitude":"70.0267","accuracy":"3"},{"address3":"Varsamedi","state":"Gujarat","state_code":"09","district":"Kachchh","district_code":"468","address1":"Anjar","address2":"","latitude":"23.1132","longitude":"70.0267","accuracy":"3"},{"address3":"Tappar","state":"Gujarat","state_code":"09","district":"Kachchh","district_code":"468","address1":"Anjar","address2":"","latitude":"23.1132","longitude":"70.0267","accuracy":"3"},{"address3":"Sinugara","state":"Gujarat","state_code":"09","district":"Kachchh","district_code":"468","address1":"Anjar","address2":"","latitude":"23.1132","longitude":"70.0267","accuracy":"3"}],"370115":[{"address3":"New Dudhai","state":"Gujarat","state_code":"09","district":"Kachchh","district_code":"468","address1":"Bhuj","address2":"","latitude":"23.1132","longitude":"70.0267","accuracy":"1"},{"address3":"Navagam","state":"Gujarat","state_code":"09","district":"Kachchh","district_code":"468","address1":"Anjar","address2":"","latitude":"23.6285","longitude":"69.9604","accuracy":"1"},{"address3":"Chandrani","state":"Gujarat","state_code":"09","district":"Kachchh","district_code":"468","address1":"Anjar","address2":"","latitude":"23.1132","longitude":"70.0267","accuracy":"1"},{"address3":"Baniyari","state":"Gujarat","state_code":"09","district":"Kachchh","district_code":"468","address1":"Bhachau","address2":"","latitude":"23.1132","longitude":"70.0267","accuracy":"1"},{"address3":"Kotda (C)","state":"Gujarat","state_code":"09","district":"Kachchh","district_code":"468","address1":"Anjar","address2":"","latitude":"23.1132","longitude":"70.0267","accuracy":"1"},{"address3":"Rahpar (Khokhara)","state":"Gujarat","state_code":"09","district":"Kachchh","district_code":"468","address1":"Anjar","address2":"","latitude":"23.1132","longitude":"70.0267","accuracy":"1"},{"address3":"Dhamadka","state":"Gujarat","state_code":"09","district":"Kachchh","district_code":"468","address1":"Anjar","address2":"","latitude":"23.1132","longitude":"70.0267","accuracy":"1"},{"address3":"Sukhpar (B)","state":"Gujarat","state_code":"09","district":"Kachchh","district_code":"468","address1":"Bhachau","address2":"","latitude":"23.1132","longitude":"70.0267","accuracy":"1"},{"address3":"Dagara","state":"Gujarat","state_code":"09","district":"Kachchh","district_code":"468","address1":"Bhuj","address2":"","latitude":"23.1132","longitude":"70.0267","accuracy":"1"},{"address3":"Javaharnagar","state":"Gujarat","state_code":"09","district":"Kachchh","district_code":"468","address1":"Bhuj","address2":"","latitude":"23.1132","longitude":"70.0267","accuracy":"1"},{"address3":"Budharmora","state":"Gujarat","state_code":"09","district":"Kachchh","district_code":"468","address1":"Bhuj","address2":"","latitude":"23.1132","longitude":"70.0267","accuracy":"1"},{"address3":"Kanaiyabe","state":"Gujarat","state_code":"09","district":"Kachchh","district_code":"468","address1":"Bhuj","address2":"","latitude":"23.1132","longitude":"70.0267","accuracy":"1"},{"address3":"Khokhara","state":"Gujarat","state_code":"09","district":"Kachchh","district_code":"468","address1":"Anjar","address2":"","latitude":"23.1132","longitude":"70.0267","accuracy":"1"}],"370130":[{"address3":"Khedoi","state":"Gujarat","state_code":"09","district":"Kachchh","district_code":"468","address1":"Anjar","address2":"","latitude":"23.0632","longitude":"69.9166","accuracy":"4"},{"address3":"Bhalot","state":"Gujarat","state_code":"09","district":"Kachchh","district_code":"468","address1":"Anjar","address2":"","latitude":"23.0632","longitude":"69.9166","accuracy":"3"},{"address3":"Mathada","state":"Gujarat","state_code":"09","district":"Kachchh","district_code":"468","address1":"Anjar","address2":"","latitude":"23.0632","longitude":"69.9166","accuracy":"3"},{"address3":"Bhuvad","state":"Gujarat","state_code":"09","district":"Kachchh","district_code":"468","address1":"Anjar","address2":"","latitude":"23.0632","longitude":"69.9166","accuracy":"3"},{"address3":"Loharia","state":"Gujarat","state_code":"09","district":"Kachchh","district_code":"468","address1":"Anjar","address2":"","latitude":"23.0632","longitude":"69.9166","accuracy":"3"},{"address3":"Chandia","state":"Gujarat","state_code":"09","district":"Kachchh","district_code":"468","address1":"Anjar","address2":"","latitude":"23.0632","longitude":"69.9166","accuracy":"3"},{"address3":"Mindhiara","state":"Gujarat","state_code":"09","district":"Kachchh","district_code":"468","address1":"Anjar","address2":"","latitude":"23.0632","longitude":"69.9166","accuracy":"3"},{"address3":"Chandroda","state":"Gujarat","state_code":"09","district":"Kachchh","district_code":"468","address1":"Anjar","address2":"","latitude":"23.0632","longitude":"69.9166","accuracy":"3"},{"address3":"Varli","state":"Gujarat","state_code":"09","district":"Kachchh","district_code":"468","address1":"Bhuj","address2":"","latitude":"23.0632","longitude":"69.9166","accuracy":"3"}],"370135":[{"address3":"Halra","state":"Gujarat","state_code":"09","district":"Kachchh","district_code":"468","address1":"Bhachau","address2":"","latitude":"23.4384","longitude":"70.4901","accuracy":"3"},{"address3":"Adhoi","state":"Gujarat","state_code":"09","district":"Kachchh","district_code":"468","address1":"Bhachau","address2":"","latitude":"23.3961","longitude":"70.5116","accuracy":"4"},{"address3":"Vamka","state":"Gujarat","state_code":"09","district":"Kachchh","district_code":"468","address1":"Bhachau","address2":"","latitude":"23.4384","longitude":"70.4901","accuracy":"3"},{"address3":"Kanthkot","state":"Gujarat","state_code":"09","district":"Kachchh","district_code":"468","address1":"Bhachau","address2":"","latitude":"23.4806","longitude":"70.4687","accuracy":"4"}],"370140":[{"address3":"Amardi","state":"Gujarat","state_code":"09","district":"Kachchh","district_code":"468","address1":"Bhachau","address2":"","latitude":"23.3471","longitude":"70.3131","accuracy":"3"},{"address3":"Ner","state":"Gujarat","state_code":"09","district":"Kachchh","district_code":"468","address1":"Bhachau","address2":"","latitude":"23.3471","longitude":"70.3131","accuracy":"3"},{"address3":"Kumbharadi","state":"Gujarat","state_code":"09","district":"Kachchh","district_code":"468","address1":"Bhachau","address2":"","latitude":"23.3471","longitude":"70.3131","accuracy":"3"},{"address3":"Chirai","state":"Gujarat","state_code":"09","district":"Kachchh","district_code":"468","address1":"Bhachau","address2":"","latitude":"23.218","longitude":"70.2569","accuracy":"4"},{"address3":"Kakarva","state":"Gujarat","state_code":"09","district":"Kachchh","district_code":"468","address1":"Bhachau","address2":"","latitude":"23.3471","longitude":"70.3131","accuracy":"3"},{"address3":"Chobari","state":"Gujarat","state_code":"09","district":"Kachchh","district_code":"468","address1":"Bhachau","address2":"","latitude":"23.5248","longitude":"70.3397","accuracy":"4"},{"address3":"Kadol","state":"Gujarat","state_code":"09","district":"Kachchh","district_code":"468","address1":"Bhachau","address2":"","latitude":"23.3471","longitude":"70.3131","accuracy":"3"},{"address3":"Bhachau","state":"Gujarat","state_code":"09","district":"Kachchh","district_code":"468","address1":"Bhachau","address2":"","latitude":"23.2986","longitude":"70.3428","accuracy":"4"},{"address3":"Chopadva","state":"Gujarat","state_code":"09","district":"Kachchh","district_code":"468","address1":"Bhachau","address2":"","latitude":"23.3471","longitude":"70.3131","accuracy":"3"},{"address3":"Manfara","state":"Gujarat","state_code":"09","district":"Kachchh","district_code":"468","address1":"Bhachau","address2":"","latitude":"23.3471","longitude":"70.3131","accuracy":"3"},{"address3":"Vijapasar","state":"Gujarat","state_code":"09","district":"Kachchh","district_code":"468","address1":"Bhachau","address2":"","latitude":"23.3471","longitude":"70.3131","accuracy":"3"},{"address3":"Shikara","state":"Gujarat","state_code":"09","district":"Kachchh","district_code":"468","address1":"Bhachau","address2":"","latitude":"23.3471","longitude":"70.3131","accuracy":"3"},{"address3":"Vondh","state":"Gujarat","state_code":"09","district":"Kachchh","district_code":"468","address1":"Bhachau","address2":"","latitude":"23.3471","longitude":"70.3131","accuracy":"3"},{"address3":"Vondhada","state":"Gujarat","state_code":"09","district":"Kachchh","district_code":"468","address1":"Bhachau","address2":"","latitude":"23.3471","longitude":"70.3131","accuracy":"3"},{"address3":"Rampar - B","state":"Gujarat","state_code":"09","district":"Kachchh","district_code":"468","address1":"Bhachau","address2":"","latitude":"23.3471","longitude":"70.3131","accuracy":"3"},{"address3":"Kharoi","state":"Gujarat","state_code":"09","district":"Kachchh","district_code":"468","address1":"Bhachau","address2":"","latitude":"23.3471","longitude":"70.3131","accuracy":"3"},{"address3":"Maye","state":"Gujarat","state_code":"09","district":"Kachchh","district_code":"468","address1":"Bhachau","address2":"","latitude":"23.3471","longitude":"70.3131","accuracy":"3"},{"address3":"Chhadwara","state":"Gujarat","state_code":"09","district":"Kachchh","district_code":"468","address1":"Bhachau","address2":"","latitude":"23.3471","longitude":"70.3131","accuracy":"3"},{"address3":"Bharudia","state":"Gujarat","state_code":"09","district":"Kachchh","district_code":"468","address1":"Bhachau","address2":"","latitude":"23.3471","longitude":"70.3131","accuracy":"3"},{"address3":"Bandhadi","state":"Gujarat","state_code":"09","district":"Kachchh","district_code":"468","address1":"Bhachau","address2":"","latitude":"23.3471","longitude":"70.3131","accuracy":"3"},{"address3":"Meghpar","state":"Gujarat","state_code":"09","district":"Kachchh","district_code":"468","address1":"Bhachau","address2":"","latitude":"23.3471","longitude":"70.3131","accuracy":"3"}],"370145":[{"address3":"Chitrod","state":"Gujarat","state_code":"09","district":"Kachchh","district_code":"468","address1":"Rahpar","address2":"","latitude":"23.4099","longitude":"70.6777","accuracy":"4"},{"address3":"Sany","state":"Gujarat","state_code":"09","district":"Kachchh","district_code":"468","address1":"Rahpar","address2":"","latitude":"23.378","longitude":"70.6291","accuracy":"3"},{"address3":"Kumbharia","state":"Gujarat","state_code":"09","district":"Kachchh","district_code":"468","address1":"Rahpar","address2":"","latitude":"23.6285","longitude":"69.9604","accuracy":"3"},{"address3":"Khodasar","state":"Gujarat","state_code":"09","district":"Kachchh","district_code":"468","address1":"Bhachau","address2":"","latitude":"23.378","longitude":"70.6291","accuracy":"3"},{"address3":"Lakadia","state":"Gujarat","state_code":"09","district":"Kachchh","district_code":"468","address1":"Bhachau","address2":"","latitude":"23.346","longitude":"70.5805","accuracy":"4"},{"address3":"Vallabhapar (K)","state":"Gujarat","state_code":"09","district":"Kachchh","district_code":"468","address1":"Bhachau","address2":"","latitude":"23.378","longitude":"70.6291","accuracy":"3"},{"address3":"Kidiyanagar","state":"Gujarat","state_code":"09","district":"Kachchh","district_code":"468","address1":"Rahpar","address2":"","latitude":"23.378","longitude":"70.6291","accuracy":"3"},{"address3":"Manaba","state":"Gujarat","state_code":"09","district":"Kachchh","district_code":"468","address1":"Rahpar","address2":"","latitude":"23.378","longitude":"70.6291","accuracy":"3"},{"address3":"Shivlakha","state":"Gujarat","state_code":"09","district":"Kachchh","district_code":"468","address1":"Bhachau","address2":"","latitude":"23.378","longitude":"70.6291","accuracy":"3"},{"address3":"Badalpar","state":"Gujarat","state_code":"09","district":"Kachchh","district_code":"468","address1":"Rahpar","address2":"","latitude":"23.378","longitude":"70.6291","accuracy":"3"},{"address3":"Gagodar","state":"Gujarat","state_code":"09","district":"Kachchh","district_code":"468","address1":"Rahpar","address2":"","latitude":"23.378","longitude":"70.6291","accuracy":"3"},{"address3":"Thoriyari","state":"Gujarat","state_code":"09","district":"Kachchh","district_code":"468","address1":"Rahpar","address2":"","latitude":"23.378","longitude":"70.6291","accuracy":"3"}],"370150":[{"address3":"Samkhiyali","state":"Gujarat","state_code":"09","district":"Kachchh","district_code":"468","address1":"Bhachau","address2":"","latitude":"23.2212","longitude":"70.5668","accuracy":"3"},{"address3":"Jangi","state":"Gujarat","state_code":"09","district":"Kachchh","district_code":"468","address1":"Bhachau","address2":"","latitude":"23.2212","longitude":"70.5668","accuracy":"4"},{"address3":"Sikarpur","state":"Gujarat","state_code":"09","district":"Kachchh","district_code":"468","address1":"Bhachau","address2":"","latitude":"23.2212","longitude":"70.5668","accuracy":"3"},{"address3":"Vandhiya","state":"Gujarat","state_code":"09","district":"Kachchh","district_code":"468","address1":"Bhachau","address2":"","latitude":"23.2212","longitude":"70.5668","accuracy":"3"},{"address3":"Laliyana","state":"Gujarat","state_code":"09","district":"Kachchh","district_code":"468","address1":"Bhachau","address2":"","latitude":"23.2212","longitude":"70.5668","accuracy":"3"},{"address3":"Amaliyara","state":"Gujarat","state_code":"09","district":"Kachchh","district_code":"468","address1":"Bhachau","address2":"","latitude":"23.2212","longitude":"70.5668","accuracy":"3"},{"address3":"Gharana","state":"Gujarat","state_code":"09","district":"Kachchh","district_code":"468","address1":"Bhachau","address2":"","latitude":"23.2212","longitude":"70.5668","accuracy":"3"}],"370155":[{"address3":"Palansava","state":"Gujarat","state_code":"09","district":"Kachchh","district_code":"468","address1":"Rahpar","address2":"","latitude":"23.6304","longitude":"70.9146","accuracy":"3"},{"address3":"Bhutakia","state":"Gujarat","state_code":"09","district":"Kachchh","district_code":"468","address1":"Rapar","address2":"","latitude":"23.6304","longitude":"70.9146","accuracy":"3"},{"address3":"Adesar","state":"Gujarat","state_code":"09","district":"Kachchh","district_code":"468","address1":"Rahpar","address2":"","latitude":"23.5598","longitude":"70.9827","accuracy":"4"},{"address3":"Sukhpar (V)","state":"Gujarat","state_code":"09","district":"Kachchh","district_code":"468","address1":"Rahpar","address2":"","latitude":"23.6304","longitude":"70.9146","accuracy":"3"},{"address3":"Mamaymora","state":"Gujarat","state_code":"09","district":"Kachchh","district_code":"468","address1":"Rahpar","address2":"","latitude":"23.6304","longitude":"70.9146","accuracy":"3"},{"address3":"Sanva","state":"Gujarat","state_code":"09","district":"Kachchh","district_code":"468","address1":"Rahpar","address2":"","latitude":"23.6304","longitude":"70.9146","accuracy":"3"},{"address3":"Fatehgadh","state":"Gujarat","state_code":"09","district":"Kachchh","district_code":"468","address1":"Rapar","address2":"","latitude":"23.7011","longitude":"70.8465","accuracy":"4"},{"address3":"Praghpar","state":"Gujarat","state_code":"09","district":"Kachchh","district_code":"468","address1":"Rahpar","address2":"","latitude":"23.6304","longitude":"70.9146","accuracy":"3"},{"address3":"Moda","state":"Gujarat","state_code":"09","district":"Kachchh","district_code":"468","address1":"Rahpar","address2":"","latitude":"23.6304","longitude":"70.9146","accuracy":"3"},{"address3":"Makhel","state":"Gujarat","state_code":"09","district":"Kachchh","district_code":"468","address1":"Rahpar","address2":"","latitude":"23.6304","longitude":"70.9146","accuracy":"3"},{"address3":"Lakhagadh","state":"Gujarat","state_code":"09","district":"Kachchh","district_code":"468","address1":"Rahpar","address2":"","latitude":"23.6304","longitude":"70.9146","accuracy":"3"},{"address3":"Khandek","state":"Gujarat","state_code":"09","district":"Kachchh","district_code":"468","address1":"Rahpar","address2":"","latitude":"23.6304","longitude":"70.9146","accuracy":"3"},{"address3":"Kanmer","state":"Gujarat","state_code":"09","district":"Kachchh","district_code":"468","address1":"Rahpar","address2":"","latitude":"23.6304","longitude":"70.9146","accuracy":"3"},{"address3":"Hamirpar","state":"Gujarat","state_code":"09","district":"Kachchh","district_code":"468","address1":"Rahpar","address2":"","latitude":"23.6304","longitude":"70.9146","accuracy":"3"},{"address3":"Ghanithar","state":"Gujarat","state_code":"09","district":"Kachchh","district_code":"468","address1":"Rahpar","address2":"","latitude":"23.6304","longitude":"70.9146","accuracy":"3"},{"address3":"Vallabhapar","state":"Gujarat","state_code":"09","district":"Kachchh","district_code":"468","address1":"Rahpar","address2":"","latitude":"23.6304","longitude":"70.9146","accuracy":"3"},{"address3":"Umaiya","state":"Gujarat","state_code":"09","district":"Kachchh","district_code":"468","address1":"Rahpar","address2":"","latitude":"23.6304","longitude":"70.9146","accuracy":"3"},{"address3":"Taga","state":"Gujarat","state_code":"09","district":"Kachchh","district_code":"468","address1":"Rahpar","address2":"","latitude":"23.6304","longitude":"70.9146","accuracy":"3"}],"370160":[{"address3":"Bhimasar","state":"Gujarat","state_code":"09","district":"Kachchh","district_code":"468","address1":"Rahpar","address2":"","latitude":"23.5399","longitude":"70.873","accuracy":"4"},{"address3":"Padampar","state":"Gujarat","state_code":"09","district":"Kachchh","district_code":"468","address1":"Rahpar","address2":"","latitude":"23.5399","longitude":"70.873","accuracy":"3"}],"370165":[{"address3":"Rahpar","state":"Gujarat","state_code":"09","district":"Kachchh","district_code":"468","address1":"Rahpar","address2":"","latitude":"23.7979","longitude":"70.6438","accuracy":"3"},{"address3":"Trambau","state":"Gujarat","state_code":"09","district":"Kachchh","district_code":"468","address1":"Rahpar","address2":"","latitude":"23.7979","longitude":"70.6438","accuracy":"3"},{"address3":"Kalyanpar","state":"Gujarat","state_code":"09","district":"Kachchh","district_code":"468","address1":"Rahpar","address2":"","latitude":"23.7979","longitude":"70.6438","accuracy":"3"},{"address3":"Janan","state":"Gujarat","state_code":"09","district":"Kachchh","district_code":"468","address1":"Bhachau","address2":"","latitude":"23.8326","longitude":"70.3021","accuracy":"4"},{"address3":"Jesda","state":"Gujarat","state_code":"09","district":"Kachchh","district_code":"468","address1":"Rahpar","address2":"","latitude":"23.7979","longitude":"70.6438","accuracy":"3"},{"address3":"Rav","state":"Gujarat","state_code":"09","district":"Kachchh","district_code":"468","address1":"Rapar","address2":"","latitude":"23.7979","longitude":"70.6438","accuracy":"3"},{"address3":"Jatavada","state":"Gujarat","state_code":"09","district":"Kachchh","district_code":"468","address1":"Rahpar","address2":"","latitude":"23.7979","longitude":"70.6438","accuracy":"3"},{"address3":"Lodrani","state":"Gujarat","state_code":"09","district":"Kachchh","district_code":"468","address1":"Rahpar","address2":"","latitude":"23.9104","longitude":"70.6193","accuracy":"4"},{"address3":"Ganeshpar","state":"Gujarat","state_code":"09","district":"Kachchh","district_code":"468","address1":"Bhachau","address2":"","latitude":"23.7979","longitude":"70.6438","accuracy":"3"},{"address3":"Balasar","state":"Gujarat","state_code":"09","district":"Kachchh","district_code":"468","address1":"Rahpar","address2":"","latitude":"23.8417","longitude":"70.6682","accuracy":"4"},{"address3":"Gadhda (Khadir)","state":"Gujarat","state_code":"09","district":"Kachchh","district_code":"468","address1":"Bhachau","address2":"","latitude":"23.7979","longitude":"70.6438","accuracy":"3"},{"address3":"Selari","state":"Gujarat","state_code":"09","district":"Kachchh","district_code":"468","address1":"Rahpar","address2":"","latitude":"23.6175","longitude":"70.7313","accuracy":"4"},{"address3":"Khengarpar","state":"Gujarat","state_code":"09","district":"Kachchh","district_code":"468","address1":"Rahpar","address2":"","latitude":"23.7979","longitude":"70.6438","accuracy":"3"},{"address3":"Bela","state":"Gujarat","state_code":"09","district":"Kachchh","district_code":"468","address1":"Rahpar","address2":"","latitude":"23.8734","longitude":"70.8039","accuracy":"4"},{"address3":"Dholavira","state":"Gujarat","state_code":"09","district":"Kachchh","district_code":"468","address1":"Bhachau","address2":"","latitude":"23.7979","longitude":"70.6438","accuracy":"3"},{"address3":"Gedi","state":"Gujarat","state_code":"09","district":"Kachchh","district_code":"468","address1":"Rahpar","address2":"","latitude":"23.7121","longitude":"70.7379","accuracy":"4"},{"address3":"Deshalpar (V)","state":"Gujarat","state_code":"09","district":"Kachchh","district_code":"468","address1":"Rapar","address2":"","latitude":"23.7979","longitude":"70.6438","accuracy":"3"},{"address3":"Davri","state":"Gujarat","state_code":"09","district":"Kachchh","district_code":"468","address1":"Rahpar","address2":"","latitude":"23.7979","longitude":"70.6438","accuracy":"3"},{"address3":"Anandpar","state":"Gujarat","state_code":"09","district":"Kachchh","district_code":"468","address1":"Rahpar","address2":"","latitude":"23.7979","longitude":"70.6438","accuracy":"3"},{"address3":"Vijayapar","state":"Gujarat","state_code":"09","district":"Kachchh","district_code":"468","address1":"Rahpar","address2":"","latitude":"23.7979","longitude":"70.6438","accuracy":"3"},{"address3":"Vanoi","state":"Gujarat","state_code":"09","district":"Kachchh","district_code":"468","address1":"Rahpar","address2":"","latitude":"23.7979","longitude":"70.6438","accuracy":"3"},{"address3":"Umrapar","state":"Gujarat","state_code":"09","district":"Kachchh","district_code":"468","address1":"Rapar","address2":"","latitude":"23.7979","longitude":"70.6438","accuracy":"3"},{"address3":"Kalyanpar Gadhda","state":"Gujarat","state_code":"09","district":"Kachchh","district_code":"468","address1":"Bhachau","address2":"","latitude":"23.7979","longitude":"70.6438","accuracy":"3"},{"address3":"Kherai","state":"Gujarat","state_code":"09","district":"Kachchh","district_code":"468","address1":"Rahpar","address2":"","latitude":"23.7979","longitude":"70.6438","accuracy":"3"},{"address3":"Mauvana","state":"Gujarat","state_code":"09","district":"Kachchh","district_code":"468","address1":"Rahpar","address2":"","latitude":"23.7979","longitude":"70.6438","accuracy":"3"},{"address3":"Nandasar","state":"Gujarat","state_code":"09","district":"Kachchh","district_code":"468","address1":"Rahpar","address2":"","latitude":"23.7979","longitude":"70.6438","accuracy":"3"},{"address3":"Nilpar","state":"Gujarat","state_code":"09","district":"Kachchh","district_code":"468","address1":"Rahpar","address2":"","latitude":"23.7979","longitude":"70.6438","accuracy":"3"},{"address3":"Ramvav","state":"Gujarat","state_code":"09","district":"Kachchh","district_code":"468","address1":"Rahpar","address2":"","latitude":"23.7979","longitude":"70.6438","accuracy":"3"},{"address3":"Sai","state":"Gujarat","state_code":"09","district":"Kachchh","district_code":"468","address1":"Rahpar","address2":"","latitude":"23.7979","longitude":"70.6438","accuracy":"3"},{"address3":"Suvai","state":"Gujarat","state_code":"09","district":"Kachchh","district_code":"468","address1":"Rahpar","address2":"","latitude":"23.7979","longitude":"70.6438","accuracy":"3"},{"address3":"Tindalva","state":"Gujarat","state_code":"09","district":"Kachchh","district_code":"468","address1":"Rahpar","address2":"","latitude":"23.7979","longitude":"70.6438","accuracy":"3"},{"address3":"Badargadh","state":"Gujarat","state_code":"09","district":"Kachchh","district_code":"468","address1":"Rahpar","address2":"","latitude":"23.7979","longitude":"70.6438","accuracy":"3"},{"address3":"Dabhunda","state":"Gujarat","state_code":"09","district":"Kachchh","district_code":"468","address1":"Rahpar","address2":"","latitude":"23.7979","longitude":"70.6438","accuracy":"3"}],"370201":[{"address3":"Ganeshnagar","state":"Gujarat","state_code":"09","district":"Kachchh","district_code":"468","address1":"Gandhidham","address2":"","latitude":"23.0833","longitude":"70.1333","accuracy":"3"},{"address3":"Gandhidham","state":"Gujarat","state_code":"09","district":"Kachchh","district_code":"468","address1":"Gandhidham","address2":"","latitude":"23.0833","longitude":"70.1333","accuracy":"4"}],"370203":[{"address3":"Udaynagar","state":"Gujarat","state_code":"09","district":"Kachchh","district_code":"468","address1":"Gandhidham","address2":"","latitude":"22.9959","longitude":"70.3401","accuracy":"1"}],"370205":[{"address3":"Sanghad","state":"Gujarat","state_code":"09","district":"Kachchh","district_code":"468","address1":"Anjar","address2":"","latitude":"22.9667","longitude":"70.4091","accuracy":"3"},{"address3":"Adipur","state":"Gujarat","state_code":"09","district":"Kachchh","district_code":"468","address1":"Gandhidham","address2":"","latitude":"23.0717","longitude":"70.0895","accuracy":"4"},{"address3":"Antarjar","state":"Gujarat","state_code":"09","district":"Kachchh","district_code":"468","address1":"Gandhidham","address2":"","latitude":"22.9667","longitude":"70.4091","accuracy":"3"},{"address3":"Sinay","state":"Gujarat","state_code":"09","district":"Kachchh","district_code":"468","address1":"Gandhidham","address2":"","latitude":"22.9667","longitude":"70.4091","accuracy":"3"},{"address3":"Mathak","state":"Gujarat","state_code":"09","district":"Kachchh","district_code":"468","address1":"Anjar","address2":"","latitude":"23.6285","longitude":"69.9604","accuracy":"4"},{"address3":"Kidana","state":"Gujarat","state_code":"09","district":"Kachchh","district_code":"468","address1":"Gandhidham","address2":"","latitude":"22.9667","longitude":"70.4091","accuracy":"3"},{"address3":"Tuna","state":"Gujarat","state_code":"09","district":"Kachchh","district_code":"468","address1":"Anjar","address2":"","latitude":"22.9867","longitude":"70.0807","accuracy":"4"}],"370210":[{"address3":"Kandla Port","state":"Gujarat","state_code":"09","district":"Kachchh","district_code":"468","address1":"Gandhidham","address2":"","latitude":"22.9833","longitude":"70.2167","accuracy":"4"}],"370230":[{"address3":"Kandla Free Trade Zone","state":"Gujarat","state_code":"09","district":"Kachchh","district_code":"468","address1":"Gandhidham","address2":"","latitude":"22.9103","longitude":"70.2266","accuracy":"1"}],"370240":[{"address3":"Padana","state":"Gujarat","state_code":"09","district":"Kachchh","district_code":"468","address1":"Gandhidham","address2":"","latitude":"23.6285","longitude":"69.9604","accuracy":"4"},{"address3":"Mithi Rohar","state":"Gujarat","state_code":"09","district":"Kachchh","district_code":"468","address1":"Gandhidham","address2":"","latitude":"22.7026","longitude":"70.0046","accuracy":"3"},{"address3":"Khari Rohar","state":"Gujarat","state_code":"09","district":"Kachchh","district_code":"468","address1":"Gandhidham","address2":"","latitude":"23.0747","longitude":"70.1726","accuracy":"4"},{"address3":"Bhimasar ï¿½","state":"Gujarat","state_code":"09","district":"Kachchh","district_code":"468","address1":"Anjar","address2":"","latitude":"22.7026","longitude":"70.0046","accuracy":"3"},{"address3":"Gadpadar","state":"Gujarat","state_code":"09","district":"Kachchh","district_code":"468","address1":"Gandhidham","address2":"","latitude":"22.7026","longitude":"70.0046","accuracy":"3"},{"address3":"Gopalpuri","state":"Gujarat","state_code":"09","district":"Kachchh","district_code":"468","address1":"Gandhidham","address2":"","latitude":"22.7026","longitude":"70.0046","accuracy":"3"}],"370405":[{"address3":"Ramania","state":"Gujarat","state_code":"09","district":"Kachchh","district_code":"468","address1":"Mundra","address2":"","latitude":"22.8964","longitude":"69.6121","accuracy":"3"},{"address3":"Zarpara","state":"Gujarat","state_code":"09","district":"Kachchh","district_code":"468","address1":"Mundra","address2":"","latitude":"22.8964","longitude":"69.6121","accuracy":"3"},{"address3":"Navinal","state":"Gujarat","state_code":"09","district":"Kachchh","district_code":"468","address1":"Mundra","address2":"","latitude":"22.8319","longitude":"69.5998","accuracy":"4"},{"address3":"Gelda","state":"Gujarat","state_code":"09","district":"Kachchh","district_code":"468","address1":"Mundra","address2":"","latitude":"22.8964","longitude":"69.6121","accuracy":"3"},{"address3":"Beraja","state":"Gujarat","state_code":"09","district":"Kachchh","district_code":"468","address1":"Mundra","address2":"","latitude":"22.982","longitude":"69.6074","accuracy":"4"},{"address3":"Pratappar","state":"Gujarat","state_code":"09","district":"Kachchh","district_code":"468","address1":"Mundra","address2":"","latitude":"22.8964","longitude":"69.6121","accuracy":"3"},{"address3":"Bhujpur","state":"Gujarat","state_code":"09","district":"Kachchh","district_code":"468","address1":"Mundra","address2":"","latitude":"22.8754","longitude":"69.6291","accuracy":"4"},{"address3":"Deshalpar","state":"Gujarat","state_code":"09","district":"Kachchh","district_code":"468","address1":"Mundra","address2":"","latitude":"22.8964","longitude":"69.6121","accuracy":"3"}],"370410":[{"address3":"Vovar","state":"Gujarat","state_code":"09","district":"Kachchh","district_code":"468","address1":"Mundra","address2":"","latitude":"22.8863","longitude":"69.7884","accuracy":"3"},{"address3":"Bhadreshwar","state":"Gujarat","state_code":"09","district":"Kachchh","district_code":"468","address1":"Mundra","address2":"","latitude":"22.8863","longitude":"69.7884","accuracy":"3"},{"address3":"Kundrodi","state":"Gujarat","state_code":"09","district":"Kachchh","district_code":"468","address1":"Mundra","address2":"","latitude":"22.8863","longitude":"69.7884","accuracy":"3"},{"address3":"Vadala","state":"Gujarat","state_code":"09","district":"Kachchh","district_code":"468","address1":"Mundra","address2":"","latitude":"22.8863","longitude":"69.7884","accuracy":"3"},{"address3":"Hatdi","state":"Gujarat","state_code":"09","district":"Kachchh","district_code":"468","address1":"Mundra","address2":"","latitude":"22.8863","longitude":"69.7884","accuracy":"3"},{"address3":"Chhasara","state":"Gujarat","state_code":"09","district":"Kachchh","district_code":"468","address1":"Mundra","address2":"","latitude":"22.8863","longitude":"69.7884","accuracy":"3"},{"address3":"Vaghura","state":"Gujarat","state_code":"09","district":"Kachchh","district_code":"468","address1":"Mundra","address2":"","latitude":"22.8863","longitude":"69.7884","accuracy":"3"},{"address3":"Luni","state":"Gujarat","state_code":"09","district":"Kachchh","district_code":"468","address1":"Mundra","address2":"","latitude":"22.8714","longitude":"69.8122","accuracy":"4"},{"address3":"Mokha","state":"Gujarat","state_code":"09","district":"Kachchh","district_code":"468","address1":"Mundra","address2":"","latitude":"22.8863","longitude":"69.7884","accuracy":"3"},{"address3":"Gundala","state":"Gujarat","state_code":"09","district":"Kachchh","district_code":"468","address1":"Mundra","address2":"","latitude":"22.9013","longitude":"69.7646","accuracy":"4"},{"address3":"Ratadiya","state":"Gujarat","state_code":"09","district":"Kachchh","district_code":"468","address1":"Mundra","address2":"","latitude":"22.8863","longitude":"69.7884","accuracy":"3"},{"address3":"Bhorara","state":"Gujarat","state_code":"09","district":"Kachchh","district_code":"468","address1":"Mundra","address2":"","latitude":"22.8863","longitude":"69.7884","accuracy":"3"}],"370415":[{"address3":"Toda","state":"Gujarat","state_code":"09","district":"Kachchh","district_code":"468","address1":"Mundra","address2":"","latitude":"23.6285","longitude":"69.9604","accuracy":"1"},{"address3":"Pragpar","state":"Gujarat","state_code":"09","district":"Kachchh","district_code":"468","address1":"Mundra","address2":"","latitude":"22.8863","longitude":"69.7884","accuracy":"1"},{"address3":"Baraya","state":"Gujarat","state_code":"09","district":"Kachchh","district_code":"468","address1":"Mundra","address2":"","latitude":"22.8863","longitude":"69.7884","accuracy":"1"},{"address3":"Kapaya","state":"Gujarat","state_code":"09","district":"Kachchh","district_code":"468","address1":"Mundra","address2":"","latitude":"22.8863","longitude":"69.7884","accuracy":"1"},{"address3":"Karaghogha","state":"Gujarat","state_code":"09","district":"Kachchh","district_code":"468","address1":"Mundra","address2":"","latitude":"22.8863","longitude":"69.7884","accuracy":"1"},{"address3":"Samaghogha","state":"Gujarat","state_code":"09","district":"Kachchh","district_code":"468","address1":"Mundra","address2":"","latitude":"22.8863","longitude":"69.7884","accuracy":"1"}],"370421":[{"address3":"Adani Port","state":"Gujarat","state_code":"09","district":"Kachchh","district_code":"468","address1":"Mundra","address2":"","latitude":"22.8392","longitude":"69.7219","accuracy":"3"},{"address3":"Mundra","state":"Gujarat","state_code":"09","district":"Kachchh","district_code":"468","address1":"Mundra","address2":"","latitude":"22.8392","longitude":"69.7219","accuracy":"4"},{"address3":"Dhrab","state":"Gujarat","state_code":"09","district":"Kachchh","district_code":"468","address1":"Mundra","address2":"","latitude":"22.8392","longitude":"69.7219","accuracy":"3"},{"address3":"Baroi","state":"Gujarat","state_code":"09","district":"Kachchh","district_code":"468","address1":"Mundra","address2":"","latitude":"22.8392","longitude":"69.7219","accuracy":"3"},{"address3":"Sadau","state":"Gujarat","state_code":"09","district":"Kachchh","district_code":"468","address1":"Mundra","address2":"","latitude":"22.8392","longitude":"69.7219","accuracy":"3"}],"370425":[{"address3":"Patri","state":"Gujarat","state_code":"09","district":"Kachchh","district_code":"468","address1":"Mundra","address2":"","latitude":"23.6285","longitude":"69.9604","accuracy":"4"},{"address3":"Kanjara","state":"Gujarat","state_code":"09","district":"Kachchh","district_code":"468","address1":"Mundra","address2":"","latitude":"23.1914","longitude":"71.797","accuracy":"3"},{"address3":"Lakhapar","state":"Gujarat","state_code":"09","district":"Kachchh","district_code":"468","address1":"Mundra","address2":"","latitude":"23.1914","longitude":"71.797","accuracy":"3"},{"address3":"Tappar (S)","state":"Gujarat","state_code":"09","district":"Kachchh","district_code":"468","address1":"Mundra","address2":"","latitude":"23.1914","longitude":"71.797","accuracy":"3"},{"address3":"Vanki","state":"Gujarat","state_code":"09","district":"Kachchh","district_code":"468","address1":"Mundra","address2":"","latitude":"23.1914","longitude":"71.797","accuracy":"3"}],"370427":[{"address3":"Vadzar","state":"Gujarat","state_code":"09","district":"Kachchh","district_code":"468","address1":"Bhuj","address2":"","latitude":"23.0153","longitude":"70.7595","accuracy":"1"},{"address3":"Bharapar","state":"Gujarat","state_code":"09","district":"Kachchh","district_code":"468","address1":"Bhuj","address2":"","latitude":"23.0153","longitude":"70.7595","accuracy":"1"},{"address3":"Tb Sanatorium","state":"Gujarat","state_code":"09","district":"Kachchh","district_code":"468","address1":"Bhuj","address2":"","latitude":"23.0153","longitude":"70.7595","accuracy":"1"},{"address3":"Baladia","state":"Gujarat","state_code":"09","district":"Kachchh","district_code":"468","address1":"Bhuj","address2":"","latitude":"23.0153","longitude":"70.7595","accuracy":"1"}],"370430":[{"address3":"Naranpar","state":"Gujarat","state_code":"09","district":"Kachchh","district_code":"468","address1":"Bhuj","address2":"","latitude":"23.0786","longitude":"69.5977","accuracy":"3"},{"address3":"Gajod","state":"Gujarat","state_code":"09","district":"Kachchh","district_code":"468","address1":"Bhuj","address2":"","latitude":"23.0786","longitude":"69.5977","accuracy":"3"},{"address3":"Kera","state":"Gujarat","state_code":"09","district":"Kachchh","district_code":"468","address1":"Bhuj","address2":"","latitude":"23.0786","longitude":"69.5977","accuracy":"4"},{"address3":"Chundi","state":"Gujarat","state_code":"09","district":"Kachchh","district_code":"468","address1":"Bhuj","address2":"","latitude":"23.0786","longitude":"69.5977","accuracy":"3"},{"address3":"Meghpar","state":"Gujarat","state_code":"09","district":"Kachchh","district_code":"468","address1":"Bhuj","address2":"","latitude":"23.0786","longitude":"69.5977","accuracy":"3"}],"370435":[{"address3":"Pharadi","state":"Gujarat","state_code":"09","district":"Kachchh","district_code":"468","address1":"K. Mandvi","address2":"","latitude":"22.9424","longitude":"69.5135","accuracy":"4"},{"address3":"Nani Khakhar","state":"Gujarat","state_code":"09","district":"Kachchh","district_code":"468","address1":"Mundra","address2":"","latitude":"22.9199","longitude":"69.4955","accuracy":"3"},{"address3":"Bidada","state":"Gujarat","state_code":"09","district":"Kachchh","district_code":"468","address1":"Mandvi","address2":"","latitude":"22.8974","longitude":"69.4775","accuracy":"4"},{"address3":"Siracha","state":"Gujarat","state_code":"09","district":"Kachchh","district_code":"468","address1":"Mundra","address2":"","latitude":"22.9199","longitude":"69.4955","accuracy":"3"},{"address3":"Tumbadi","state":"Gujarat","state_code":"09","district":"Kachchh","district_code":"468","address1":"Mundra","address2":"","latitude":"22.9199","longitude":"69.4955","accuracy":"3"},{"address3":"Depa","state":"Gujarat","state_code":"09","district":"Kachchh","district_code":"468","address1":"Mundra","address2":"","latitude":"22.9199","longitude":"69.4955","accuracy":"3"},{"address3":"Moti Khakhar","state":"Gujarat","state_code":"09","district":"Kachchh","district_code":"468","address1":"Mundra","address2":"","latitude":"22.9199","longitude":"69.4955","accuracy":"3"},{"address3":"Kandagara","state":"Gujarat","state_code":"09","district":"Kachchh","district_code":"468","address1":"Mundra","address2":"","latitude":"22.9199","longitude":"69.4955","accuracy":"3"},{"address3":"Tunda","state":"Gujarat","state_code":"09","district":"Kachchh","district_code":"468","address1":"Mundra","address2":"","latitude":"22.9199","longitude":"69.4955","accuracy":"3"}],"370445":[{"address3":"Rajpar","state":"Gujarat","state_code":"09","district":"Kachchh","district_code":"468","address1":"Mandvi","address2":"","latitude":"22.8698","longitude":"69.63","accuracy":"1"},{"address3":"Virani (Gadh)","state":"Gujarat","state_code":"09","district":"Kachchh","district_code":"468","address1":"Mandvi","address2":"","latitude":"22.8698","longitude":"69.63","accuracy":"1"},{"address3":"Vadva","state":"Gujarat","state_code":"09","district":"Kachchh","district_code":"468","address1":"Nakhatrana","address2":"","latitude":"22.8698","longitude":"69.63","accuracy":"1"},{"address3":"Vadasar","state":"Gujarat","state_code":"09","district":"Kachchh","district_code":"468","address1":"Bhuj","address2":"","latitude":"22.8698","longitude":"69.63","accuracy":"1"},{"address3":"Rampar (Vekra)","state":"Gujarat","state_code":"09","district":"Kachchh","district_code":"468","address1":"Mandvi","address2":"","latitude":"22.8698","longitude":"69.63","accuracy":"1"},{"address3":"Mau","state":"Gujarat","state_code":"09","district":"Kachchh","district_code":"468","address1":"Mandvi","address2":"","latitude":"22.8698","longitude":"69.63","accuracy":"1"},{"address3":"Momaymora","state":"Gujarat","state_code":"09","district":"Kachchh","district_code":"468","address1":"Mandvi","address2":"","latitude":"22.8698","longitude":"69.63","accuracy":"1"},{"address3":"Makda","state":"Gujarat","state_code":"09","district":"Kachchh","district_code":"468","address1":"Mandvi","address2":"","latitude":"22.8698","longitude":"69.63","accuracy":"1"},{"address3":"Ludva","state":"Gujarat","state_code":"09","district":"Kachchh","district_code":"468","address1":"Mandvi","address2":"","latitude":"22.8698","longitude":"69.63","accuracy":"1"},{"address3":"Devpar Gadh","state":"Gujarat","state_code":"09","district":"Kachchh","district_code":"468","address1":"Mandvi","address2":"","latitude":"22.8698","longitude":"69.63","accuracy":"1"},{"address3":"Darshadi","state":"Gujarat","state_code":"09","district":"Kachchh","district_code":"468","address1":"Mandvi","address2":"","latitude":"22.8698","longitude":"69.63","accuracy":"1"},{"address3":"Gadhasisa","state":"Gujarat","state_code":"09","district":"Kachchh","district_code":"468","address1":"Mandavi","address2":"","latitude":"22.8698","longitude":"69.63","accuracy":"1"}],"370450":[{"address3":"Godhra","state":"Gujarat","state_code":"09","district":"Kachchh","district_code":"468","address1":"Mandvi","address2":"","latitude":"23.6285","longitude":"69.9604","accuracy":"1"},{"address3":"Sambharai","state":"Gujarat","state_code":"09","district":"Kachchh","district_code":"468","address1":"Mandvi","address2":"","latitude":"22.831","longitude":"69.4845","accuracy":"1"},{"address3":"Undoth","state":"Gujarat","state_code":"09","district":"Kachchh","district_code":"468","address1":"Mandvi","address2":"","latitude":"22.831","longitude":"69.4845","accuracy":"1"},{"address3":"Poladia","state":"Gujarat","state_code":"09","district":"Kachchh","district_code":"468","address1":"Mandvi","address2":"","latitude":"22.831","longitude":"69.4845","accuracy":"1"},{"address3":"Nagrecha","state":"Gujarat","state_code":"09","district":"Kachchh","district_code":"468","address1":"Mandvi","address2":"","latitude":"22.831","longitude":"69.4845","accuracy":"1"},{"address3":"Kotdi (M)","state":"Gujarat","state_code":"09","district":"Kachchh","district_code":"468","address1":"Mandvi","address2":"","latitude":"22.831","longitude":"69.4845","accuracy":"1"},{"address3":"Kokalia","state":"Gujarat","state_code":"09","district":"Kachchh","district_code":"468","address1":"Mandvi","address2":"","latitude":"22.831","longitude":"69.4845","accuracy":"1"},{"address3":"Karodiya Mota","state":"Gujarat","state_code":"09","district":"Kachchh","district_code":"468","address1":"Abdasa","address2":"","latitude":"22.831","longitude":"69.4845","accuracy":"1"},{"address3":"Bhojay","state":"Gujarat","state_code":"09","district":"Kachchh","district_code":"468","address1":"Mandvi","address2":"","latitude":"22.831","longitude":"69.4845","accuracy":"1"},{"address3":"Halapar","state":"Gujarat","state_code":"09","district":"Kachchh","district_code":"468","address1":"Mandvi","address2":"","latitude":"22.831","longitude":"69.4845","accuracy":"1"},{"address3":"Dedhiya","state":"Gujarat","state_code":"09","district":"Kachchh","district_code":"468","address1":"Mandvi","address2":"","latitude":"22.831","longitude":"69.4845","accuracy":"1"},{"address3":"Vidh","state":"Gujarat","state_code":"09","district":"Kachchh","district_code":"468","address1":"Mandvi","address2":"","latitude":"22.831","longitude":"69.4845","accuracy":"1"}],"370455":[{"address3":"Baug","state":"Gujarat","state_code":"09","district":"Kachchh","district_code":"468","address1":"Mandvi","address2":"","latitude":"22.831","longitude":"69.4845","accuracy":"3"},{"address3":"Nana Bhadia","state":"Gujarat","state_code":"09","district":"Kachchh","district_code":"468","address1":"Mandvi","address2":"","latitude":"22.831","longitude":"69.4845","accuracy":"4"},{"address3":"Mota Bhadia","state":"Gujarat","state_code":"09","district":"Kachchh","district_code":"468","address1":"Mandvi","address2":"","latitude":"22.831","longitude":"69.4845","accuracy":"3"},{"address3":"Gundiyali","state":"Gujarat","state_code":"09","district":"Kachchh","district_code":"468","address1":"Mandvi","address2":"","latitude":"22.831","longitude":"69.4845","accuracy":"3"}],"370460":[{"address3":"Koday","state":"Gujarat","state_code":"09","district":"Kachchh","district_code":"468","address1":"Mandvi","address2":"","latitude":"22.4513","longitude":"69.7512","accuracy":"1"},{"address3":"Talwana","state":"Gujarat","state_code":"09","district":"Kachchh","district_code":"468","address1":"Mandvi","address2":"","latitude":"22.4513","longitude":"69.7512","accuracy":"1"}],"370465":[{"address3":"Don","state":"Gujarat","state_code":"09","district":"Kachchh","district_code":"468","address1":"Mandvi","address2":"","latitude":"22.4513","longitude":"69.7512","accuracy":"3"},{"address3":"Kachchh Mandvi","state":"Gujarat","state_code":"09","district":"Kachchh","district_code":"468","address1":"Mandvi","address2":"","latitude":"22.8328","longitude":"69.3524","accuracy":"4"},{"address3":"Shirva","state":"Gujarat","state_code":"09","district":"Kachchh","district_code":"468","address1":"Mandvi","address2":"","latitude":"22.4513","longitude":"69.7512","accuracy":"3"},{"address3":"Ratadia","state":"Gujarat","state_code":"09","district":"Kachchh","district_code":"468","address1":"Mandvi","address2":"","latitude":"22.9364","longitude":"69.7608","accuracy":"4"},{"address3":"Durgapur","state":"Gujarat","state_code":"09","district":"Kachchh","district_code":"468","address1":"Mandvi","address2":"","latitude":"22.4513","longitude":"69.7512","accuracy":"3"},{"address3":"Sherdi","state":"Gujarat","state_code":"09","district":"Kachchh","district_code":"468","address1":"Mandvi","address2":"","latitude":"23.6285","longitude":"69.9604","accuracy":"4"},{"address3":"Vada","state":"Gujarat","state_code":"09","district":"Kachchh","district_code":"468","address1":"Mandvi","address2":"","latitude":"22.4513","longitude":"69.7512","accuracy":"3"},{"address3":"Rayan Moti","state":"Gujarat","state_code":"09","district":"Kachchh","district_code":"468","address1":"Mandvi","address2":"","latitude":"22.4513","longitude":"69.7512","accuracy":"3"},{"address3":"Nagalpar (Dhindh)","state":"Gujarat","state_code":"09","district":"Kachchh","district_code":"468","address1":"Mandvi","address2":"","latitude":"22.4513","longitude":"69.7512","accuracy":"3"},{"address3":"Merau","state":"Gujarat","state_code":"09","district":"Kachchh","district_code":"468","address1":"Mandvi","address2":"","latitude":"22.4513","longitude":"69.7512","accuracy":"3"},{"address3":"Maska","state":"Gujarat","state_code":"09","district":"Kachchh","district_code":"468","address1":"Mandvi","address2":"","latitude":"22.4513","longitude":"69.7512","accuracy":"3"},{"address3":"Manjal (H)","state":"Gujarat","state_code":"09","district":"Kachchh","district_code":"468","address1":"Mandvi","address2":"","latitude":"22.4513","longitude":"69.7512","accuracy":"3"},{"address3":"Kathda","state":"Gujarat","state_code":"09","district":"Kachchh","district_code":"468","address1":"Mandvi","address2":"","latitude":"22.4513","longitude":"69.7512","accuracy":"3"},{"address3":"Bhadai Moti","state":"Gujarat","state_code":"09","district":"Kachchh","district_code":"468","address1":"Mandvi","address2":"","latitude":"22.4513","longitude":"69.7512","accuracy":"3"},{"address3":"Salaya Mota","state":"Gujarat","state_code":"09","district":"Kachchh","district_code":"468","address1":"Mandvi","address2":"","latitude":"22.4513","longitude":"69.7512","accuracy":"3"}],"370475":[{"address3":"Laija","state":"Gujarat","state_code":"09","district":"Kachchh","district_code":"468","address1":"Mandvi","address2":"","latitude":"22.9029","longitude":"69.148","accuracy":"3"},{"address3":"Panchotiya","state":"Gujarat","state_code":"09","district":"Kachchh","district_code":"468","address1":"Mandvi","address2":"","latitude":"22.9029","longitude":"69.148","accuracy":"3"},{"address3":"Bada","state":"Gujarat","state_code":"09","district":"Kachchh","district_code":"468","address1":"Mandvi","address2":"","latitude":"22.9029","longitude":"69.148","accuracy":"4"},{"address3":"Bambhadai","state":"Gujarat","state_code":"09","district":"Kachchh","district_code":"468","address1":"Mandvi","address2":"","latitude":"22.9029","longitude":"69.148","accuracy":"3"},{"address3":"Nana Laija","state":"Gujarat","state_code":"09","district":"Kachchh","district_code":"468","address1":"Mandvi","address2":"","latitude":"22.9029","longitude":"69.148","accuracy":"3"},{"address3":"Mapar","state":"Gujarat","state_code":"09","district":"Kachchh","district_code":"468","address1":"Mandvi","address2":"","latitude":"22.9029","longitude":"69.148","accuracy":"3"},{"address3":"Bayath","state":"Gujarat","state_code":"09","district":"Kachchh","district_code":"468","address1":"Mandvi","address2":"","latitude":"22.9029","longitude":"69.148","accuracy":"3"},{"address3":"Bhinsara","state":"Gujarat","state_code":"09","district":"Kachchh","district_code":"468","address1":"Mandvi","address2":"","latitude":"22.9029","longitude":"69.148","accuracy":"3"}],"370485":[{"address3":"Dahisara (Kachchh)","state":"Gujarat","state_code":"09","district":"Kachchh","district_code":"468","address1":"Bhuj","address2":"","latitude":"22.8698","longitude":"69.63","accuracy":"1"},{"address3":"Asambia Mota","state":"Gujarat","state_code":"09","district":"Kachchh","district_code":"468","address1":"Mandvi","address2":"","latitude":"22.8698","longitude":"69.63","accuracy":"1"},{"address3":"Dhunai","state":"Gujarat","state_code":"09","district":"Kachchh","district_code":"468","address1":"Mandvi","address2":"","latitude":"22.8698","longitude":"69.63","accuracy":"1"},{"address3":"Godpar","state":"Gujarat","state_code":"09","district":"Kachchh","district_code":"468","address1":"Bhuj","address2":"","latitude":"22.8698","longitude":"69.63","accuracy":"1"},{"address3":"Goniasar","state":"Gujarat","state_code":"09","district":"Kachchh","district_code":"468","address1":"Mandvi","address2":"","latitude":"22.8698","longitude":"69.63","accuracy":"1"},{"address3":"Kojachora","state":"Gujarat","state_code":"09","district":"Kachchh","district_code":"468","address1":"Mandvi","address2":"","latitude":"22.8698","longitude":"69.63","accuracy":"1"},{"address3":"Nana Asambia","state":"Gujarat","state_code":"09","district":"Kachchh","district_code":"468","address1":"Mandvi","address2":"","latitude":"22.8698","longitude":"69.63","accuracy":"1"},{"address3":"Pundi","state":"Gujarat","state_code":"09","district":"Kachchh","district_code":"468","address1":"Mandvi","address2":"","latitude":"22.8698","longitude":"69.63","accuracy":"1"},{"address3":"Sarli","state":"Gujarat","state_code":"09","district":"Kachchh","district_code":"468","address1":"Bhuj","address2":"","latitude":"22.8698","longitude":"69.63","accuracy":"1"},{"address3":"Vandh","state":"Gujarat","state_code":"09","district":"Kachchh","district_code":"468","address1":"Mandvi","address2":"","latitude":"22.8698","longitude":"69.63","accuracy":"1"}],"370490":[{"address3":"Khirsara (Vinjhan)","state":"Gujarat","state_code":"09","district":"Kachchh","district_code":"468","address1":"Abdasa","address2":"","latitude":"23.0523","longitude":"68.9775","accuracy":"3"},{"address3":"Sandhan","state":"Gujarat","state_code":"09","district":"Kachchh","district_code":"468","address1":"Abdasa","address2":"","latitude":"23.0207","longitude":"68.9934","accuracy":"4"},{"address3":"Lathedi","state":"Gujarat","state_code":"09","district":"Kachchh","district_code":"468","address1":"Abdasa","address2":"","latitude":"23.0523","longitude":"68.9775","accuracy":"3"},{"address3":"Varandi Moti","state":"Gujarat","state_code":"09","district":"Kachchh","district_code":"468","address1":"Abdasa","address2":"","latitude":"23.0523","longitude":"68.9775","accuracy":"3"},{"address3":"Manjal ( R )","state":"Gujarat","state_code":"09","district":"Kachchh","district_code":"468","address1":"Abdasa","address2":"","latitude":"23.0523","longitude":"68.9775","accuracy":"3"},{"address3":"Suthri","state":"Gujarat","state_code":"09","district":"Kachchh","district_code":"468","address1":"Abdasa","address2":"","latitude":"23.0333","longitude":"68.9135","accuracy":"4"},{"address3":"Raydhanjar","state":"Gujarat","state_code":"09","district":"Kachchh","district_code":"468","address1":"Abdasa","address2":"","latitude":"23.0523","longitude":"68.9775","accuracy":"3"},{"address3":"Dumara","state":"Gujarat","state_code":"09","district":"Kachchh","district_code":"468","address1":"Abdasa","address2":"","latitude":"23.0523","longitude":"68.9775","accuracy":"3"},{"address3":"Vinjhan","state":"Gujarat","state_code":"09","district":"Kachchh","district_code":"468","address1":"Abdasa","address2":"","latitude":"23.103","longitude":"69.0254","accuracy":"4"},{"address3":"Varadia","state":"Gujarat","state_code":"09","district":"Kachchh","district_code":"468","address1":"Abdasa","address2":"","latitude":"23.0523","longitude":"68.9775","accuracy":"3"}],"370510":[{"address3":"Mithadi","state":"Gujarat","state_code":"09","district":"Kachchh","district_code":"468","address1":"Bhuj","address2":"","latitude":"23.6366","longitude":"69.813","accuracy":"3"},{"address3":"Dhoravar","state":"Gujarat","state_code":"09","district":"Kachchh","district_code":"468","address1":"Bhuj","address2":"","latitude":"23.6366","longitude":"69.813","accuracy":"3"},{"address3":"Kuran","state":"Gujarat","state_code":"09","district":"Kachchh","district_code":"468","address1":"Bhuj","address2":"","latitude":"23.9695","longitude":"69.7465","accuracy":"4"},{"address3":"Kunariya (K)","state":"Gujarat","state_code":"09","district":"Kachchh","district_code":"468","address1":"Bhuj","address2":"","latitude":"23.6366","longitude":"69.813","accuracy":"3"},{"address3":"Hodka","state":"Gujarat","state_code":"09","district":"Kachchh","district_code":"468","address1":"Bhuj","address2":"","latitude":"23.6591","longitude":"69.6026","accuracy":"4"},{"address3":"Gorevali","state":"Gujarat","state_code":"09","district":"Kachchh","district_code":"468","address1":"Bhuj","address2":"","latitude":"23.6366","longitude":"69.813","accuracy":"3"},{"address3":"Khavda","state":"Gujarat","state_code":"09","district":"Kachchh","district_code":"468","address1":"Bhuj","address2":"","latitude":"23.8431","longitude":"69.7303","accuracy":"4"},{"address3":"Dumado","state":"Gujarat","state_code":"09","district":"Kachchh","district_code":"468","address1":"Bhuj","address2":"","latitude":"23.6366","longitude":"69.813","accuracy":"3"},{"address3":"Khari","state":"Gujarat","state_code":"09","district":"Kachchh","district_code":"468","address1":"Bhuj","address2":"","latitude":"23.0747","longitude":"70.1726","accuracy":"4"},{"address3":"Dhrobana","state":"Gujarat","state_code":"09","district":"Kachchh","district_code":"468","address1":"Bhuj","address2":"","latitude":"23.6366","longitude":"69.813","accuracy":"3"},{"address3":"Juna","state":"Gujarat","state_code":"09","district":"Kachchh","district_code":"468","address1":"Bhuj","address2":"","latitude":"23.6366","longitude":"69.813","accuracy":"3"},{"address3":"Misariado","state":"Gujarat","state_code":"09","district":"Kachchh","district_code":"468","address1":"Bhuj","address2":"","latitude":"23.6366","longitude":"69.813","accuracy":"3"},{"address3":"Dinara","state":"Gujarat","state_code":"09","district":"Kachchh","district_code":"468","address1":"Bhuj","address2":"","latitude":"23.6366","longitude":"69.813","accuracy":"3"},{"address3":"Bhirandiara","state":"Gujarat","state_code":"09","district":"Kachchh","district_code":"468","address1":"Bhuj","address2":"","latitude":"23.6366","longitude":"69.813","accuracy":"3"},{"address3":"Bsf Camp Khavda","state":"Gujarat","state_code":"09","district":"Kachchh","district_code":"468","address1":"Bhuj","address2":"","latitude":"23.6366","longitude":"69.813","accuracy":"3"}],"370511":[{"address3":"Vayor","state":"Gujarat","state_code":"09","district":"Kachchh","district_code":"468","address1":"Abdasa","address2":"","latitude":"23.5386","longitude":"68.6014","accuracy":"3"},{"address3":"Fulay","state":"Gujarat","state_code":"09","district":"Kachchh","district_code":"468","address1":"Kachchh","address2":"","latitude":"23.5386","longitude":"68.6014","accuracy":"3"},{"address3":"Pipar","state":"Gujarat","state_code":"09","district":"Kachchh","district_code":"468","address1":"Kachchh","address2":"","latitude":"23.5216","longitude":"68.5248","accuracy":"4"},{"address3":"Ber moti","state":"Gujarat","state_code":"09","district":"Kachchh","district_code":"468","address1":"Kachchh","address2":"","latitude":"23.5386","longitude":"68.6014","accuracy":"3"},{"address3":"Baranda","state":"Gujarat","state_code":"09","district":"Kachchh","district_code":"468","address1":"Lakhpat","address2":"","latitude":"23.5556","longitude":"68.678","accuracy":"4"},{"address3":"Akri moti","state":"Gujarat","state_code":"09","district":"Kachchh","district_code":"468","address1":"Kachchh","address2":"","latitude":"23.5386","longitude":"68.6014","accuracy":"3"},{"address3":"Valsara","state":"Gujarat","state_code":"09","district":"Kachchh","district_code":"468","address1":"Abdasa","address2":"","latitude":"23.5386","longitude":"68.6014","accuracy":"3"},{"address3":"Sanghipuram","state":"Gujarat","state_code":"09","district":"Kachchh","district_code":"468","address1":"NA","address2":"","latitude":"23.5386","longitude":"68.6014","accuracy":"3"}],"370601":[{"address3":"Narayan Sarovar","state":"Gujarat","state_code":"09","district":"Kachchh","district_code":"468","address1":"Lakhpat","address2":"","latitude":"23.1943","longitude":"69.0819","accuracy":"1"},{"address3":"Koriyani","state":"Gujarat","state_code":"09","district":"Kachchh","district_code":"468","address1":"Lakhpat","address2":"","latitude":"23.1943","longitude":"69.0819","accuracy":"1"},{"address3":"Shyamji Krishna Varma Nagar","state":"Gujarat","state_code":"09","district":"Kachchh","district_code":"468","address1":"Lakhpat","address2":"","latitude":"23.1943","longitude":"69.0819","accuracy":"1"},{"address3":"Mindhiari","state":"Gujarat","state_code":"09","district":"Kachchh","district_code":"468","address1":"Lakhpat","address2":"","latitude":"23.1943","longitude":"69.0819","accuracy":"1"},{"address3":"Guvar Moti","state":"Gujarat","state_code":"09","district":"Kachchh","district_code":"468","address1":"Lakhpat","address2":"","latitude":"23.1943","longitude":"69.0819","accuracy":"1"},{"address3":"Subhashpar","state":"Gujarat","state_code":"09","district":"Kachchh","district_code":"468","address1":"Lakhpat","address2":"","latitude":"23.1943","longitude":"69.0819","accuracy":"1"},{"address3":"Panandhro","state":"Gujarat","state_code":"09","district":"Kachchh","district_code":"468","address1":"Lakhpat","address2":"","latitude":"23.1943","longitude":"69.0819","accuracy":"1"}],"370602":[{"address3":"ATPS Nani Chher","state":"Gujarat","state_code":"09","district":"Kachchh","district_code":"468","address1":"Lakhpat","address2":"","latitude":"23.1943","longitude":"69.0819","accuracy":"1"}],"370605":[{"address3":"Vigodi","state":"Gujarat","state_code":"09","district":"Kachchh","district_code":"468","address1":"Nakhatrana","address2":"","latitude":"23.1943","longitude":"69.0819","accuracy":"1"},{"address3":"Nara","state":"Gujarat","state_code":"09","district":"Kachchh","district_code":"468","address1":"Lakhapat","address2":"","latitude":"23.6285","longitude":"69.9604","accuracy":"1"},{"address3":"Aiyar","state":"Gujarat","state_code":"09","district":"Kachchh","district_code":"468","address1":"Nakhatrana","address2":"","latitude":"23.1943","longitude":"69.0819","accuracy":"1"},{"address3":"Kotda-N","state":"Gujarat","state_code":"09","district":"Kachchh","district_code":"468","address1":"Nakhatrana","address2":"","latitude":"23.1943","longitude":"69.0819","accuracy":"1"},{"address3":"Ratadia (N)","state":"Gujarat","state_code":"09","district":"Kachchh","district_code":"468","address1":"Nakhatrana","address2":"","latitude":"23.1943","longitude":"69.0819","accuracy":"1"},{"address3":"Muru","state":"Gujarat","state_code":"09","district":"Kachchh","district_code":"468","address1":"Nakhatrana","address2":"","latitude":"23.1943","longitude":"69.0819","accuracy":"1"},{"address3":"Ugedi","state":"Gujarat","state_code":"09","district":"Kachchh","district_code":"468","address1":"Nakhatrana","address2":"","latitude":"23.1943","longitude":"69.0819","accuracy":"1"},{"address3":"Mathal","state":"Gujarat","state_code":"09","district":"Kachchh","district_code":"468","address1":"Nakhatrana","address2":"","latitude":"23.1943","longitude":"69.0819","accuracy":"1"},{"address3":"Jinjay","state":"Gujarat","state_code":"09","district":"Kachchh","district_code":"468","address1":"Nakhatrana","address2":"","latitude":"23.1943","longitude":"69.0819","accuracy":"1"},{"address3":"Jadodar","state":"Gujarat","state_code":"09","district":"Kachchh","district_code":"468","address1":"Nakhatrana","address2":"","latitude":"23.1943","longitude":"69.0819","accuracy":"1"},{"address3":"Hajipir","state":"Gujarat","state_code":"09","district":"Kachchh","district_code":"468","address1":"Nakhatrana","address2":"","latitude":"23.1943","longitude":"69.0819","accuracy":"1"},{"address3":"Desalpar (N)","state":"Gujarat","state_code":"09","district":"Kachchh","district_code":"468","address1":"Nakhatrana","address2":"","latitude":"23.1943","longitude":"69.0819","accuracy":"1"},{"address3":"Amara","state":"Gujarat","state_code":"09","district":"Kachchh","district_code":"468","address1":"Nakhatrana","address2":"","latitude":"23.1943","longitude":"69.0819","accuracy":"1"}],"370610":[{"address3":"Sanyra (J)","state":"Gujarat","state_code":"09","district":"Kachchh","district_code":"468","address1":"Nakhatrana","address2":"","latitude":"23.3431","longitude":"69.2669","accuracy":"1"},{"address3":"Manjal","state":"Gujarat","state_code":"09","district":"Kachchh","district_code":"468","address1":"Nakhatrana","address2":"","latitude":"23.3431","longitude":"69.2669","accuracy":"1"},{"address3":"Kalyanpar","state":"Gujarat","state_code":"09","district":"Kachchh","district_code":"468","address1":"Nakhatrana","address2":"","latitude":"23.3431","longitude":"69.2669","accuracy":"1"},{"address3":"Anandpar","state":"Gujarat","state_code":"09","district":"Kachchh","district_code":"468","address1":"Nakhatrana","address2":"","latitude":"23.3431","longitude":"69.2669","accuracy":"1"},{"address3":"Anandsar","state":"Gujarat","state_code":"09","district":"Kachchh","district_code":"468","address1":"Bhuj","address2":"","latitude":"23.3431","longitude":"69.2669","accuracy":"1"}],"370615":[{"address3":"Rampar (R)","state":"Gujarat","state_code":"09","district":"Kachchh","district_code":"468","address1":"Nakhatrana","address2":"","latitude":"23.3431","longitude":"69.2669","accuracy":"3"},{"address3":"Nakhatrana","state":"Gujarat","state_code":"09","district":"Kachchh","district_code":"468","address1":"Nakhatrana","address2":"","latitude":"23.3431","longitude":"69.2669","accuracy":"4"},{"address3":"Naranpar (R)","state":"Gujarat","state_code":"09","district":"Kachchh","district_code":"468","address1":"Nakhatrana","address2":"","latitude":"23.3431","longitude":"69.2669","accuracy":"3"}],"370620":[{"address3":"Netra","state":"Gujarat","state_code":"09","district":"Kachchh","district_code":"468","address1":"Nakhatrana","address2":"","latitude":"23.4125","longitude":"69.0541","accuracy":"4"},{"address3":"Khirsara","state":"Gujarat","state_code":"09","district":"Kachchh","district_code":"468","address1":"Nakhatrana","address2":"","latitude":"23.4125","longitude":"69.0541","accuracy":"3"},{"address3":"Rampar (N)","state":"Gujarat","state_code":"09","district":"Kachchh","district_code":"468","address1":"Nakhatrana","address2":"","latitude":"23.4125","longitude":"69.0541","accuracy":"3"},{"address3":"Ustiya","state":"Gujarat","state_code":"09","district":"Kachchh","district_code":"468","address1":"Abdasa","address2":"","latitude":"23.4125","longitude":"69.0541","accuracy":"3"},{"address3":"Bandiya","state":"Gujarat","state_code":"09","district":"Kachchh","district_code":"468","address1":"Abdasa","address2":"","latitude":"23.4125","longitude":"69.0541","accuracy":"3"},{"address3":"Laxmipar (N)","state":"Gujarat","state_code":"09","district":"Kachchh","district_code":"468","address1":"Nakhatrana","address2":"","latitude":"23.4125","longitude":"69.0541","accuracy":"3"}],"370625":[{"address3":"Ravapar","state":"Gujarat","state_code":"09","district":"Kachchh","district_code":"468","address1":"Nakhatrana","address2":"","latitude":"23.4435","longitude":"68.9365","accuracy":"3"},{"address3":"Bhadra","state":"Gujarat","state_code":"09","district":"Kachchh","district_code":"468","address1":"Lakhpat","address2":"","latitude":"23.4435","longitude":"68.9365","accuracy":"4"},{"address3":"Madh","state":"Gujarat","state_code":"09","district":"Kachchh","district_code":"468","address1":"Lakhpat","address2":"","latitude":"23.4435","longitude":"68.9365","accuracy":"3"},{"address3":"Valka Mota","state":"Gujarat","state_code":"09","district":"Kachchh","district_code":"468","address1":"Nakhatrana","address2":"","latitude":"23.4435","longitude":"68.9365","accuracy":"3"},{"address3":"Haripar","state":"Gujarat","state_code":"09","district":"Kachchh","district_code":"468","address1":"Nakhatrana","address2":"","latitude":"23.4435","longitude":"68.9365","accuracy":"3"},{"address3":"Gadani","state":"Gujarat","state_code":"09","district":"Kachchh","district_code":"468","address1":"Nakhatrana","address2":"","latitude":"23.4435","longitude":"68.9365","accuracy":"3"},{"address3":"Bharapar","state":"Gujarat","state_code":"09","district":"Kachchh","district_code":"468","address1":"Nakhatrana","address2":"","latitude":"23.4435","longitude":"68.9365","accuracy":"3"},{"address3":"Meghpar (Lakhpat)","state":"Gujarat","state_code":"09","district":"Kachchh","district_code":"468","address1":"Lakhpat","address2":"","latitude":"23.4435","longitude":"68.9365","accuracy":"3"},{"address3":"Kotda (Madh)","state":"Gujarat","state_code":"09","district":"Kachchh","district_code":"468","address1":"Lakhpat","address2":"","latitude":"23.4435","longitude":"68.9365","accuracy":"3"}],"370627":[{"address3":"Siyot","state":"Gujarat","state_code":"09","district":"Kachchh","district_code":"468","address1":"Lakhpat","address2":"","latitude":"23.428","longitude":"68.9953","accuracy":"1"},{"address3":"Guneri","state":"Gujarat","state_code":"09","district":"Kachchh","district_code":"468","address1":"Lakhpat","address2":"","latitude":"23.428","longitude":"68.9953","accuracy":"1"},{"address3":"Gaduli","state":"Gujarat","state_code":"09","district":"Kachchh","district_code":"468","address1":"Lakhapat","address2":"","latitude":"23.428","longitude":"68.9953","accuracy":"1"},{"address3":"Lakhapar","state":"Gujarat","state_code":"09","district":"Kachchh","district_code":"468","address1":"Lakhpat","address2":"","latitude":"23.428","longitude":"68.9953","accuracy":"1"},{"address3":"Mudhan","state":"Gujarat","state_code":"09","district":"Kachchh","district_code":"468","address1":"Lakhpat","address2":"","latitude":"23.428","longitude":"68.9953","accuracy":"1"},{"address3":"Fulra","state":"Gujarat","state_code":"09","district":"Kachchh","district_code":"468","address1":"Lakhpat","address2":"","latitude":"23.428","longitude":"68.9953","accuracy":"1"},{"address3":"Dhareshi","state":"Gujarat","state_code":"09","district":"Kachchh","district_code":"468","address1":"Lakhpat","address2":"","latitude":"23.428","longitude":"68.9953","accuracy":"1"}],"370630":[{"address3":"Daypar","state":"Gujarat","state_code":"09","district":"Kachchh","district_code":"468","address1":"Kachch","address2":"","latitude":"21.8717","longitude":"70.1557","accuracy":"3"},{"address3":"Paneli","state":"Gujarat","state_code":"09","district":"Kachchh","district_code":"468","address1":"Nakhatrana","address2":"","latitude":"23.6285","longitude":"69.9604","accuracy":"4"},{"address3":"Virani Nani","state":"Gujarat","state_code":"09","district":"Kachchh","district_code":"468","address1":"Lakhpat","address2":"","latitude":"21.8717","longitude":"70.1557","accuracy":"3"},{"address3":"Dolatpar","state":"Gujarat","state_code":"09","district":"Kachchh","district_code":"468","address1":"Lakhpat","address2":"","latitude":"21.8717","longitude":"70.1557","accuracy":"3"}],"370640":[{"address3":"Jakhau","state":"Gujarat","state_code":"09","district":"Kachchh","district_code":"468","address1":"Abdasa","address2":"","latitude":"23.2192","longitude":"68.7149","accuracy":"4"},{"address3":"Moti Sindhodi","state":"Gujarat","state_code":"09","district":"Kachchh","district_code":"468","address1":"Abdasa","address2":"","latitude":"23.2192","longitude":"68.7149","accuracy":"3"},{"address3":"Lala","state":"Gujarat","state_code":"09","district":"Kachchh","district_code":"468","address1":"Abdasa","address2":"","latitude":"23.2192","longitude":"68.7149","accuracy":"3"},{"address3":"Parjau","state":"Gujarat","state_code":"09","district":"Kachchh","district_code":"468","address1":"Abdasa","address2":"","latitude":"23.2192","longitude":"68.7149","accuracy":"3"}],"370645":[{"address3":"Vanku","state":"Gujarat","state_code":"09","district":"Kachchh","district_code":"468","address1":"Abdasa","address2":"","latitude":"23.1348","longitude":"68.9359","accuracy":"3"},{"address3":"Kothara","state":"Gujarat","state_code":"09","district":"Kachchh","district_code":"468","address1":"Abdasa","address2":"","latitude":"23.1348","longitude":"68.9359","accuracy":"4"},{"address3":"Vadapadhar","state":"Gujarat","state_code":"09","district":"Kachchh","district_code":"468","address1":"Abdasa","address2":"","latitude":"23.1348","longitude":"68.9359","accuracy":"3"},{"address3":"Bhachunda","state":"Gujarat","state_code":"09","district":"Kachchh","district_code":"468","address1":"Abdasa","address2":"","latitude":"23.1348","longitude":"68.9359","accuracy":"3"},{"address3":"Bhanada","state":"Gujarat","state_code":"09","district":"Kachchh","district_code":"468","address1":"Abdasa","address2":"","latitude":"23.1348","longitude":"68.9359","accuracy":"3"},{"address3":"Khirsara","state":"Gujarat","state_code":"09","district":"Kachchh","district_code":"468","address1":"Abdasa","address2":"","latitude":"23.1348","longitude":"68.9359","accuracy":"3"},{"address3":"Arikhana","state":"Gujarat","state_code":"09","district":"Kachchh","district_code":"468","address1":"Abdasa","address2":"","latitude":"23.1348","longitude":"68.9359","accuracy":"3"},{"address3":"Sandhav","state":"Gujarat","state_code":"09","district":"Kachchh","district_code":"468","address1":"Abdasa","address2":"","latitude":"23.1348","longitude":"68.9359","accuracy":"3"},{"address3":"Rapar (Gadhvali)","state":"Gujarat","state_code":"09","district":"Kachchh","district_code":"468","address1":"Abdasa","address2":"","latitude":"23.1348","longitude":"68.9359","accuracy":"3"},{"address3":"Rava","state":"Gujarat","state_code":"09","district":"Kachchh","district_code":"468","address1":"Abdasa","address2":"","latitude":"23.1348","longitude":"68.9359","accuracy":"3"}],"370650":[{"address3":"Vamoti nani","state":"Gujarat","state_code":"09","district":"Kachchh","district_code":"468","address1":"Abdasa","address2":"","latitude":"23.3129","longitude":"68.7574","accuracy":"1"},{"address3":"Bhavanipar","state":"Gujarat","state_code":"09","district":"Kachchh","district_code":"468","address1":"Abdasa","address2":"","latitude":"23.3129","longitude":"68.7574","accuracy":"1"},{"address3":"Nundhatad","state":"Gujarat","state_code":"09","district":"Kachchh","district_code":"468","address1":"Abdasa","address2":"","latitude":"23.3129","longitude":"68.7574","accuracy":"1"},{"address3":"Berachiya","state":"Gujarat","state_code":"09","district":"Kachchh","district_code":"468","address1":"Abdasa","address2":"","latitude":"23.3129","longitude":"68.7574","accuracy":"1"},{"address3":"Kharuva","state":"Gujarat","state_code":"09","district":"Kachchh","district_code":"468","address1":"Abdasa","address2":"","latitude":"23.3129","longitude":"68.7574","accuracy":"1"},{"address3":"Chiyasar","state":"Gujarat","state_code":"09","district":"Kachchh","district_code":"468","address1":"Abdasa","address2":"","latitude":"23.3129","longitude":"68.7574","accuracy":"1"},{"address3":"Vamoti moti","state":"Gujarat","state_code":"09","district":"Kachchh","district_code":"468","address1":"Abdasa","address2":"","latitude":"23.3129","longitude":"68.7574","accuracy":"1"},{"address3":"Dhanavada","state":"Gujarat","state_code":"09","district":"Kachchh","district_code":"468","address1":"Abdasa","address2":"","latitude":"23.3129","longitude":"68.7574","accuracy":"1"},{"address3":"Balapar -b","state":"Gujarat","state_code":"09","district":"Kachchh","district_code":"468","address1":"Bhachau","address2":"","latitude":"23.3129","longitude":"68.7574","accuracy":"1"},{"address3":"Balachod Nani","state":"Gujarat","state_code":"09","district":"Kachchh","district_code":"468","address1":"Abdasa","address2":"","latitude":"23.3129","longitude":"68.7574","accuracy":"1"},{"address3":"Mothara","state":"Gujarat","state_code":"09","district":"Kachchh","district_code":"468","address1":"Abdasa","address2":"","latitude":"23.3129","longitude":"68.7574","accuracy":"1"},{"address3":"Hajapar","state":"Gujarat","state_code":"09","district":"Kachchh","district_code":"468","address1":"Abdasa","address2":"","latitude":"23.3129","longitude":"68.7574","accuracy":"1"},{"address3":"Bitta","state":"Gujarat","state_code":"09","district":"Kachchh","district_code":"468","address1":"Abdasa","address2":"","latitude":"23.3129","longitude":"68.7574","accuracy":"1"},{"address3":"Kanday","state":"Gujarat","state_code":"09","district":"Kachchh","district_code":"468","address1":"Abdasa","address2":"","latitude":"23.3129","longitude":"68.7574","accuracy":"1"},{"address3":"Khanay","state":"Gujarat","state_code":"09","district":"Kachchh","district_code":"468","address1":"Abdasa","address2":"","latitude":"23.3129","longitude":"68.7574","accuracy":"1"},{"address3":"Kanakpar","state":"Gujarat","state_code":"09","district":"Kachchh","district_code":"468","address1":"Abdasa","address2":"","latitude":"23.3129","longitude":"68.7574","accuracy":"1"},{"address3":"Balachod Moti","state":"Gujarat","state_code":"09","district":"Kachchh","district_code":"468","address1":"Abdasa","address2":"","latitude":"23.3129","longitude":"68.7574","accuracy":"1"}],"370655":[{"address3":"Goyala (Mokhra)","state":"Gujarat","state_code":"09","district":"Kachchh","district_code":"468","address1":"Abdasa","address2":"","latitude":"23.3129","longitude":"68.7574","accuracy":"3"},{"address3":"Naliya","state":"Gujarat","state_code":"09","district":"Kachchh","district_code":"468","address1":"Abdasa","address2":"","latitude":"23.2606","longitude":"68.8265","accuracy":"4"},{"address3":"Chhasara","state":"Gujarat","state_code":"09","district":"Kachchh","district_code":"468","address1":"Abdasa","address2":"","latitude":"23.3129","longitude":"68.7574","accuracy":"3"},{"address3":"Charopadi Moti","state":"Gujarat","state_code":"09","district":"Kachchh","district_code":"468","address1":"Abdasa","address2":"","latitude":"23.3652","longitude":"68.6882","accuracy":"4"},{"address3":"Jangadia","state":"Gujarat","state_code":"09","district":"Kachchh","district_code":"468","address1":"Abdasa","address2":"","latitude":"23.3129","longitude":"68.7574","accuracy":"3"},{"address3":"Kervandh","state":"Gujarat","state_code":"09","district":"Kachchh","district_code":"468","address1":"Abdasa","address2":"","latitude":"23.3129","longitude":"68.7574","accuracy":"3"},{"address3":"Rampar (Abda)","state":"Gujarat","state_code":"09","district":"Kachchh","district_code":"468","address1":"Abdasa","address2":"","latitude":"23.3129","longitude":"68.7574","accuracy":"3"},{"address3":"Jashapar","state":"Gujarat","state_code":"09","district":"Kachchh","district_code":"468","address1":"Abdasa","address2":"","latitude":"23.3129","longitude":"68.7574","accuracy":"3"},{"address3":"Moti Sudadhro","state":"Gujarat","state_code":"09","district":"Kachchh","district_code":"468","address1":"Abdasa","address2":"","latitude":"23.3129","longitude":"68.7574","accuracy":"3"},{"address3":"Chhadura","state":"Gujarat","state_code":"09","district":"Kachchh","district_code":"468","address1":"Abdasa","address2":"","latitude":"23.3129","longitude":"68.7574","accuracy":"3"},{"address3":"Butta","state":"Gujarat","state_code":"09","district":"Kachchh","district_code":"468","address1":"Abdasa","address2":"","latitude":"23.3129","longitude":"68.7574","accuracy":"3"},{"address3":"Aida","state":"Gujarat","state_code":"09","district":"Kachchh","district_code":"468","address1":"Abdasa","address2":"","latitude":"23.3129","longitude":"68.7574","accuracy":"3"},{"address3":"Ashapar","state":"Gujarat","state_code":"09","district":"Kachchh","district_code":"468","address1":"Abdasa","address2":"","latitude":"23.3129","longitude":"68.7574","accuracy":"3"},{"address3":"Sukhpar (S)","state":"Gujarat","state_code":"09","district":"Kachchh","district_code":"468","address1":"Abdasa","address2":"","latitude":"23.3129","longitude":"68.7574","accuracy":"3"}],"370660":[{"address3":"Tera","state":"Gujarat","state_code":"09","district":"Kachchh","district_code":"468","address1":"Abdasa","address2":"","latitude":"23.2864","longitude":"68.9389","accuracy":"4"},{"address3":"Bharapar","state":"Gujarat","state_code":"09","district":"Kachchh","district_code":"468","address1":"Abdasa","address2":"","latitude":"23.2864","longitude":"68.9389","accuracy":"3"},{"address3":"Sujapar","state":"Gujarat","state_code":"09","district":"Kachchh","district_code":"468","address1":"Abdasa","address2":"","latitude":"23.2864","longitude":"68.9389","accuracy":"3"},{"address3":"Kalatalav","state":"Gujarat","state_code":"09","district":"Kachchh","district_code":"468","address1":"Abdasa","address2":"","latitude":"23.6285","longitude":"69.9604","accuracy":"3"},{"address3":"Bara Mota","state":"Gujarat","state_code":"09","district":"Kachchh","district_code":"468","address1":"Abdasa","address2":"","latitude":"23.2864","longitude":"68.9389","accuracy":"3"},{"address3":"Dhufi moti","state":"Gujarat","state_code":"09","district":"Kachchh","district_code":"468","address1":"Abdasa","address2":"","latitude":"23.2864","longitude":"68.9389","accuracy":"3"},{"address3":"Hamripar","state":"Gujarat","state_code":"09","district":"Kachchh","district_code":"468","address1":"Abdasa","address2":"","latitude":"23.2864","longitude":"68.9389","accuracy":"3"},{"address3":"Nangia","state":"Gujarat","state_code":"09","district":"Kachchh","district_code":"468","address1":"Abdasa","address2":"","latitude":"23.2864","longitude":"68.9389","accuracy":"3"},{"address3":"Lakhania","state":"Gujarat","state_code":"09","district":"Kachchh","district_code":"468","address1":"Abdasa","address2":"","latitude":"23.2864","longitude":"68.9389","accuracy":"3"}],"370665":[{"address3":"Virani","state":"Gujarat","state_code":"09","district":"Kachchh","district_code":"468","address1":"Nakhatrana","address2":"","latitude":"23.3833","longitude":"69.2667","accuracy":"4"},{"address3":"Lakhiyarvira","state":"Gujarat","state_code":"09","district":"Kachchh","district_code":"468","address1":"Nakhatrana","address2":"","latitude":"23.3833","longitude":"69.2667","accuracy":"3"},{"address3":"Ratamiya","state":"Gujarat","state_code":"09","district":"Kachchh","district_code":"468","address1":"Nakhatrana","address2":"","latitude":"23.3833","longitude":"69.2667","accuracy":"3"},{"address3":"Aral Moti","state":"Gujarat","state_code":"09","district":"Kachchh","district_code":"468","address1":"Nakhatrana","address2":"","latitude":"23.3833","longitude":"69.2667","accuracy":"3"},{"address3":"Devisar","state":"Gujarat","state_code":"09","district":"Kachchh","district_code":"468","address1":"Nakhatrana","address2":"","latitude":"23.3833","longitude":"69.2667","accuracy":"3"},{"address3":"Fulay (Chhari)","state":"Gujarat","state_code":"09","district":"Kachchh","district_code":"468","address1":"Nakhatrana","address2":"","latitude":"23.3833","longitude":"69.2667","accuracy":"3"},{"address3":"Jatavira","state":"Gujarat","state_code":"09","district":"Kachchh","district_code":"468","address1":"Nakhatrana","address2":"","latitude":"23.3833","longitude":"69.2667","accuracy":"3"},{"address3":"Nani Aral","state":"Gujarat","state_code":"09","district":"Kachchh","district_code":"468","address1":"Nakhatrana","address2":"","latitude":"23.3833","longitude":"69.2667","accuracy":"3"},{"address3":"Hirapar","state":"Gujarat","state_code":"09","district":"Kachchh","district_code":"468","address1":"Nakhatrana","address2":"","latitude":"23.3833","longitude":"69.2667","accuracy":"3"}],"370670":[{"address3":"Khombhadi","state":"Gujarat","state_code":"09","district":"Kachchh","district_code":"468","address1":"Nakhatrana","address2":"","latitude":"23.4167","longitude":"69.1167","accuracy":"4"},{"address3":"Rasalia","state":"Gujarat","state_code":"09","district":"Kachchh","district_code":"468","address1":"Nakhatrana","address2":"","latitude":"23.4167","longitude":"69.1167","accuracy":"3"},{"address3":"Kadia Nana","state":"Gujarat","state_code":"09","district":"Kachchh","district_code":"468","address1":"Nakhatrana","address2":"","latitude":"23.4167","longitude":"69.1167","accuracy":"3"},{"address3":"Kadia Mota","state":"Gujarat","state_code":"09","district":"Kachchh","district_code":"468","address1":"Nakhatrana","address2":"","latitude":"23.4167","longitude":"69.1167","accuracy":"3"},{"address3":"Ukheda","state":"Gujarat","state_code":"09","district":"Kachchh","district_code":"468","address1":"Nakhatrana","address2":"","latitude":"23.4167","longitude":"69.1167","accuracy":"3"},{"address3":"Todiya","state":"Gujarat","state_code":"09","district":"Kachchh","district_code":"468","address1":"Nakhatrana","address2":"","latitude":"23.4167","longitude":"69.1167","accuracy":"3"}],"370675":[{"address3":"Vithon","state":"Gujarat","state_code":"09","district":"Kachchh","district_code":"468","address1":"Nakhatrana","address2":"","latitude":"23.4167","longitude":"69.1167","accuracy":"1"},{"address3":"Bhadli","state":"Gujarat","state_code":"09","district":"Kachchh","district_code":"468","address1":"Nakhatrana","address2":"","latitude":"23.6285","longitude":"69.9604","accuracy":"1"},{"address3":"Nana Angia","state":"Gujarat","state_code":"09","district":"Kachchh","district_code":"468","address1":"Nakhatrana","address2":"","latitude":"23.4167","longitude":"69.1167","accuracy":"1"},{"address3":"Devpar Jakh","state":"Gujarat","state_code":"09","district":"Kachchh","district_code":"468","address1":"Nakhatrana","address2":"","latitude":"23.4167","longitude":"69.1167","accuracy":"1"},{"address3":"Angiya Mota","state":"Gujarat","state_code":"09","district":"Kachchh","district_code":"468","address1":"Nakhatrana","address2":"","latitude":"23.4167","longitude":"69.1167","accuracy":"1"},{"address3":"Dhavda","state":"Gujarat","state_code":"09","district":"Kachchh","district_code":"468","address1":"Nakhatrana","address2":"","latitude":"23.4167","longitude":"69.1167","accuracy":"1"},{"address3":"Sangnara","state":"Gujarat","state_code":"09","district":"Kachchh","district_code":"468","address1":"Nakhatrana","address2":"","latitude":"23.4167","longitude":"69.1167","accuracy":"1"}],"credits":[{"name":"geonames","url":"https://www.geonames.org"}],"last_update":"2019-03-01T09:01:29.579Z"}