{"383001":[{"address3":"Jambudi","state":"Gujarat","state_code":"09","district":"Sabarkantha","district_code":"472","address1":"Himatnagar","address2":"","latitude":"23.6807","longitude":"73.0601","accuracy":"3"},{"address3":"Nava","state":"Gujarat","state_code":"09","district":"Sabarkantha","district_code":"472","address1":"Himatnagar","address2":"","latitude":"23.8218","longitude":"73.141","accuracy":"4"},{"address3":"Katwad","state":"Gujarat","state_code":"09","district":"Sabarkantha","district_code":"472","address1":"Himatnagar","address2":"","latitude":"23.6807","longitude":"73.0601","accuracy":"3"},{"address3":"Tajpuri","state":"Gujarat","state_code":"09","district":"Sabarkantha","district_code":"472","address1":"Himatnagar","address2":"","latitude":"23.5537","longitude":"72.9066","accuracy":"4"},{"address3":"Parabada","state":"Gujarat","state_code":"09","district":"Sabarkantha","district_code":"472","address1":"Himatnagar","address2":"","latitude":"23.6807","longitude":"73.0601","accuracy":"3"},{"address3":"Bavsar","state":"Gujarat","state_code":"09","district":"Sabarkantha","district_code":"472","address1":"Himatnagar","address2":"","latitude":"23.6807","longitude":"73.0601","accuracy":"3"},{"address3":"Himatnagar H.O","state":"Gujarat","state_code":"09","district":"Sabarkantha","district_code":"472","address1":"Himatnagar","address2":"","latitude":"23.6807","longitude":"73.0601","accuracy":"3"},{"address3":"Berna","state":"Gujarat","state_code":"09","district":"Sabarkantha","district_code":"472","address1":"Himatnagar","address2":"","latitude":"23.6807","longitude":"73.0601","accuracy":"3"},{"address3":"Hajipura","state":"Gujarat","state_code":"09","district":"Sabarkantha","district_code":"472","address1":"Himatnagar","address2":"","latitude":"23.6807","longitude":"73.0601","accuracy":"3"},{"address3":"Hapa","state":"Gujarat","state_code":"09","district":"Sabarkantha","district_code":"472","address1":"Himatnagar","address2":"","latitude":"23.6807","longitude":"73.0601","accuracy":"3"},{"address3":"Sahebapura","state":"Gujarat","state_code":"09","district":"Sabarkantha","district_code":"472","address1":"Himatnagar","address2":"","latitude":"23.6807","longitude":"73.0601","accuracy":"3"},{"address3":"Viravada","state":"Gujarat","state_code":"09","district":"Sabarkantha","district_code":"472","address1":"Himatnagar","address2":"","latitude":"23.6807","longitude":"73.0601","accuracy":"3"},{"address3":"Kankrol","state":"Gujarat","state_code":"09","district":"Sabarkantha","district_code":"472","address1":"Himatnagar","address2":"","latitude":"23.6807","longitude":"73.0601","accuracy":"3"},{"address3":"Himatnagar Station Road","state":"Gujarat","state_code":"09","district":"Sabarkantha","district_code":"472","address1":"Himatnagar","address2":"","latitude":"23.6807","longitude":"73.0601","accuracy":"3"},{"address3":"Chandarni","state":"Gujarat","state_code":"09","district":"Sabarkantha","district_code":"472","address1":"Himatnagar","address2":"","latitude":"23.6668","longitude":"73.1326","accuracy":"4"},{"address3":"Hadiol","state":"Gujarat","state_code":"09","district":"Sabarkantha","district_code":"472","address1":"Himatnagar","address2":"","latitude":"23.6807","longitude":"73.0601","accuracy":"3"},{"address3":"Savgadh","state":"Gujarat","state_code":"09","district":"Sabarkantha","district_code":"472","address1":"Himatnagar","address2":"","latitude":"23.6807","longitude":"73.0601","accuracy":"3"},{"address3":"Navalpur","state":"Gujarat","state_code":"09","district":"Sabarkantha","district_code":"472","address1":"Himatnagar","address2":"","latitude":"23.6807","longitude":"73.0601","accuracy":"3"},{"address3":"Khed","state":"Gujarat","state_code":"09","district":"Sabarkantha","district_code":"472","address1":"Himatnagar","address2":"","latitude":"23.6807","longitude":"73.0601","accuracy":"3"},{"address3":"Pural","state":"Gujarat","state_code":"09","district":"Sabarkantha","district_code":"472","address1":"Himatnagar","address2":"","latitude":"23.6807","longitude":"73.0601","accuracy":"3"},{"address3":"Agiol","state":"Gujarat","state_code":"09","district":"Sabarkantha","district_code":"472","address1":"Himatnagar","address2":"","latitude":"23.6807","longitude":"73.0601","accuracy":"3"},{"address3":"Gadhoda","state":"Gujarat","state_code":"09","district":"Sabarkantha","district_code":"472","address1":"Himatnagar","address2":"","latitude":"23.6807","longitude":"73.0601","accuracy":"3"},{"address3":"Vishwamangalam","state":"Gujarat","state_code":"09","district":"Sabarkantha","district_code":"472","address1":"Himatnagar","address2":"","latitude":"23.6807","longitude":"73.0601","accuracy":"3"}],"383006":[{"address3":"Boria (Sabarkantha)","state":"Gujarat","state_code":"09","district":"Sabarkantha","district_code":"472","address1":"Himatnagar","address2":"","latitude":"23.6807","longitude":"73.0601","accuracy":"1"}],"383010":[{"address3":"Gadha","state":"Gujarat","state_code":"09","district":"Sabarkantha","district_code":"472","address1":"Himatnagar","address2":"","latitude":"23.6593","longitude":"73.1637","accuracy":"4"},{"address3":"Himatpur","state":"Gujarat","state_code":"09","district":"Sabarkantha","district_code":"472","address1":"Idar","address2":"","latitude":"23.3204","longitude":"73.5386","accuracy":"4"},{"address3":"Virpur","state":"Gujarat","state_code":"09","district":"Sabarkantha","district_code":"472","address1":"Himatnagar","address2":"","latitude":"23.6593","longitude":"73.1637","accuracy":"4"},{"address3":"Rajpur","state":"Gujarat","state_code":"09","district":"Sabarkantha","district_code":"472","address1":"Himatnagar","address2":"","latitude":"23.6593","longitude":"73.1637","accuracy":"4"},{"address3":"Kapoda","state":"Gujarat","state_code":"09","district":"Sabarkantha","district_code":"472","address1":"Idar","address2":"","latitude":"23.4512","longitude":"73.2461","accuracy":"3"},{"address3":"Kaniol","state":"Gujarat","state_code":"09","district":"Sabarkantha","district_code":"472","address1":"Himatnagar.","address2":"","latitude":"23.4512","longitude":"73.2461","accuracy":"3"},{"address3":"Vaktapur","state":"Gujarat","state_code":"09","district":"Sabarkantha","district_code":"472","address1":"Himatnagar","address2":"","latitude":"23.4512","longitude":"73.2461","accuracy":"3"},{"address3":"Lolasan","state":"Gujarat","state_code":"09","district":"Sabarkantha","district_code":"472","address1":"Himatnagar","address2":"","latitude":"23.4512","longitude":"73.2461","accuracy":"3"},{"address3":"Jamla","state":"Gujarat","state_code":"09","district":"Sabarkantha","district_code":"472","address1":"Himatnagar","address2":"","latitude":"23.4512","longitude":"73.2461","accuracy":"3"},{"address3":"Likhi","state":"Gujarat","state_code":"09","district":"Sabarkantha","district_code":"472","address1":"Himatnagar","address2":"","latitude":"23.4512","longitude":"73.2461","accuracy":"3"}],"383030":[{"address3":"Manorpur","state":"Gujarat","state_code":"09","district":"Sabarkantha","district_code":"472","address1":"Himatnagar","address2":"","latitude":"23.1897","longitude":"73.1233","accuracy":"3"},{"address3":"Karanpur","state":"Gujarat","state_code":"09","district":"Sabarkantha","district_code":"472","address1":"Himatnagar","address2":"","latitude":"23.6593","longitude":"73.1637","accuracy":"4"},{"address3":"Vavdi","state":"Gujarat","state_code":"09","district":"Sabarkantha","district_code":"472","address1":"Himatnagar","address2":"","latitude":"23.6593","longitude":"73.1637","accuracy":"4"},{"address3":"Gambhoi","state":"Gujarat","state_code":"09","district":"Sabarkantha","district_code":"472","address1":"Himatnagar","address2":"","latitude":"23.1897","longitude":"73.1233","accuracy":"3"},{"address3":"Hathrol","state":"Gujarat","state_code":"09","district":"Sabarkantha","district_code":"472","address1":"Himatnagar","address2":"","latitude":"23.1897","longitude":"73.1233","accuracy":"3"},{"address3":"Rupal","state":"Gujarat","state_code":"09","district":"Sabarkantha","district_code":"472","address1":"Himatnagar","address2":"","latitude":"23.5529","longitude":"73.1226","accuracy":"4"},{"address3":"Dhundhar","state":"Gujarat","state_code":"09","district":"Sabarkantha","district_code":"472","address1":"Himatnagar","address2":"","latitude":"23.1897","longitude":"73.1233","accuracy":"3"},{"address3":"Shravana","state":"Gujarat","state_code":"09","district":"Sabarkantha","district_code":"472","address1":"Himatanagar","address2":"","latitude":"23.1897","longitude":"73.1233","accuracy":"3"},{"address3":"Sadha","state":"Gujarat","state_code":"09","district":"Sabarkantha","district_code":"472","address1":"Himatnagar","address2":"","latitude":"23.1897","longitude":"73.1233","accuracy":"3"},{"address3":"Pedhmala","state":"Gujarat","state_code":"09","district":"Sabarkantha","district_code":"472","address1":"Himatnagar","address2":"","latitude":"23.1897","longitude":"73.1233","accuracy":"3"}],"383110":[{"address3":"Bhadresar","state":"Gujarat","state_code":"09","district":"Sabarkantha","district_code":"472","address1":"Idar","address2":"","latitude":"23.6593","longitude":"73.1637","accuracy":"4"},{"address3":"Dungri","state":"Gujarat","state_code":"09","district":"Sabarkantha","district_code":"472","address1":"Idar","address2":"","latitude":"23.6593","longitude":"73.1637","accuracy":"4"},{"address3":"Jadar","state":"Gujarat","state_code":"09","district":"Sabarkantha","district_code":"472","address1":"Idar","address2":"","latitude":"22.9362","longitude":"71.9992","accuracy":"3"},{"address3":"Daramali","state":"Gujarat","state_code":"09","district":"Sabarkantha","district_code":"472","address1":"Idar","address2":"","latitude":"22.9362","longitude":"71.9992","accuracy":"3"},{"address3":"Chadasana","state":"Gujarat","state_code":"09","district":"Sabarkantha","district_code":"472","address1":"Idar","address2":"","latitude":"22.9362","longitude":"71.9992","accuracy":"3"},{"address3":"Sachodar","state":"Gujarat","state_code":"09","district":"Sabarkantha","district_code":"472","address1":"Himatnagar","address2":"","latitude":"22.9362","longitude":"71.9992","accuracy":"3"},{"address3":"Aroda","state":"Gujarat","state_code":"09","district":"Sabarkantha","district_code":"472","address1":"Idar","address2":"","latitude":"22.9362","longitude":"71.9992","accuracy":"3"},{"address3":"Kotda Nana","state":"Gujarat","state_code":"09","district":"Sabarkantha","district_code":"472","address1":"Idar","address2":"","latitude":"22.9362","longitude":"71.9992","accuracy":"3"},{"address3":"Mangadh","state":"Gujarat","state_code":"09","district":"Sabarkantha","district_code":"472","address1":"Idar","address2":"","latitude":"22.9362","longitude":"71.9992","accuracy":"3"},{"address3":"Rudardi","state":"Gujarat","state_code":"09","district":"Sabarkantha","district_code":"472","address1":"Idar","address2":"","latitude":"22.9362","longitude":"71.9992","accuracy":"3"}],"383120":[{"address3":"Dalpur","state":"Gujarat","state_code":"09","district":"Sabarkantha","district_code":"472","address1":"Prantij","address2":"","latitude":"22.9362","longitude":"71.9992","accuracy":"1"},{"address3":"Sampad","state":"Gujarat","state_code":"09","district":"Sabarkantha","district_code":"472","address1":"Prantij","address2":"","latitude":"22.9362","longitude":"71.9992","accuracy":"1"},{"address3":"Hajipur","state":"Gujarat","state_code":"09","district":"Sabarkantha","district_code":"472","address1":"Himatnagar","address2":"","latitude":"22.9362","longitude":"71.9992","accuracy":"1"},{"address3":"Piludra","state":"Gujarat","state_code":"09","district":"Sabarkantha","district_code":"472","address1":"Prantij","address2":"","latitude":"22.9362","longitude":"71.9992","accuracy":"1"},{"address3":"Salal","state":"Gujarat","state_code":"09","district":"Sabarkantha","district_code":"472","address1":"Prantij","address2":"","latitude":"22.9362","longitude":"71.9992","accuracy":"1"},{"address3":"Moyad","state":"Gujarat","state_code":"09","district":"Sabarkantha","district_code":"472","address1":"Prantij","address2":"","latitude":"22.9362","longitude":"71.9992","accuracy":"1"}],"383205":[{"address3":"Balisana","state":"Gujarat","state_code":"09","district":"Sabarkantha","district_code":"472","address1":"Prantij","address2":"","latitude":"23.6593","longitude":"73.1637","accuracy":"4"},{"address3":"Sitwada","state":"Gujarat","state_code":"09","district":"Sabarkantha","district_code":"472","address1":"Prantij","address2":"","latitude":"23.7898","longitude":"72.5636","accuracy":"3"},{"address3":"Kamalpur","state":"Gujarat","state_code":"09","district":"Sabarkantha","district_code":"472","address1":"Prantij","address2":"","latitude":"23.6593","longitude":"73.1637","accuracy":"4"},{"address3":"Prantij","state":"Gujarat","state_code":"09","district":"Sabarkantha","district_code":"472","address1":"Prantij","address2":"","latitude":"23.436","longitude":"72.8448","accuracy":"4"},{"address3":"Poglu","state":"Gujarat","state_code":"09","district":"Sabarkantha","district_code":"472","address1":"Prantij","address2":"","latitude":"23.7898","longitude":"72.5636","accuracy":"3"},{"address3":"Bobha","state":"Gujarat","state_code":"09","district":"Sabarkantha","district_code":"472","address1":"Prantij","address2":"","latitude":"23.7898","longitude":"72.5636","accuracy":"3"},{"address3":"Vadrad","state":"Gujarat","state_code":"09","district":"Sabarkantha","district_code":"472","address1":"Prantij","address2":"","latitude":"23.7898","longitude":"72.5636","accuracy":"3"},{"address3":"Vadvasa","state":"Gujarat","state_code":"09","district":"Sabarkantha","district_code":"472","address1":"Prantij","address2":"","latitude":"23.7898","longitude":"72.5636","accuracy":"3"},{"address3":"Unchha","state":"Gujarat","state_code":"09","district":"Sabarkantha","district_code":"472","address1":"Prantij","address2":"","latitude":"23.7898","longitude":"72.5636","accuracy":"3"},{"address3":"Dalani Muvadi","state":"Gujarat","state_code":"09","district":"Sabarkantha","district_code":"472","address1":"Prantij","address2":"","latitude":"23.7898","longitude":"72.5636","accuracy":"3"},{"address3":"Karol","state":"Gujarat","state_code":"09","district":"Sabarkantha","district_code":"472","address1":"Prantij","address2":"","latitude":"23.7898","longitude":"72.5636","accuracy":"3"},{"address3":"Oran","state":"Gujarat","state_code":"09","district":"Sabarkantha","district_code":"472","address1":"Prantij","address2":"","latitude":"23.7898","longitude":"72.5636","accuracy":"3"},{"address3":"Pallachar","state":"Gujarat","state_code":"09","district":"Sabarkantha","district_code":"472","address1":"Prantij","address2":"","latitude":"23.7898","longitude":"72.5636","accuracy":"3"},{"address3":"Majra","state":"Gujarat","state_code":"09","district":"Sabarkantha","district_code":"472","address1":"Prantij","address2":"","latitude":"23.7898","longitude":"72.5636","accuracy":"3"},{"address3":"Ghadkan","state":"Gujarat","state_code":"09","district":"Sabarkantha","district_code":"472","address1":"Prantij","address2":"","latitude":"23.7898","longitude":"72.5636","accuracy":"3"},{"address3":"Tajpur","state":"Gujarat","state_code":"09","district":"Sabarkantha","district_code":"472","address1":"Prantij","address2":"","latitude":"23.7898","longitude":"72.5636","accuracy":"3"},{"address3":"Vaghpur","state":"Gujarat","state_code":"09","district":"Sabarkantha","district_code":"472","address1":"Prantij","address2":"","latitude":"23.7898","longitude":"72.5636","accuracy":"3"},{"address3":"Jenpur","state":"Gujarat","state_code":"09","district":"Sabarkantha","district_code":"472","address1":"Prantij","address2":"","latitude":"23.7898","longitude":"72.5636","accuracy":"3"}],"383210":[{"address3":"Takhatgadh","state":"Gujarat","state_code":"09","district":"Sabarkantha","district_code":"472","address1":"Prantij","address2":"","latitude":"23.5084","longitude":"72.9973","accuracy":"3"},{"address3":"Nananpur","state":"Gujarat","state_code":"09","district":"Sabarkantha","district_code":"472","address1":"Prantij","address2":"","latitude":"23.5086","longitude":"72.9553","accuracy":"4"},{"address3":"Vaghrota","state":"Gujarat","state_code":"09","district":"Sabarkantha","district_code":"472","address1":"Prantij","address2":"","latitude":"23.5084","longitude":"72.9973","accuracy":"3"},{"address3":"Ambawada","state":"Gujarat","state_code":"09","district":"Sabarkantha","district_code":"472","address1":"Prantij","address2":"","latitude":"23.5084","longitude":"72.9973","accuracy":"3"},{"address3":"Mauchha","state":"Gujarat","state_code":"09","district":"Sabarkantha","district_code":"472","address1":"Prantij","address2":"","latitude":"23.5084","longitude":"72.9973","accuracy":"3"},{"address3":"Nikoda","state":"Gujarat","state_code":"09","district":"Sabarkantha","district_code":"472","address1":"Himatnagar","address2":"","latitude":"23.5082","longitude":"73.0392","accuracy":"4"},{"address3":"Zinzva","state":"Gujarat","state_code":"09","district":"Sabarkantha","district_code":"472","address1":"Prantij","address2":"","latitude":"23.5084","longitude":"72.9973","accuracy":"3"},{"address3":"Sonasan","state":"Gujarat","state_code":"09","district":"Sabarkantha","district_code":"472","address1":"Prantij","address2":"","latitude":"23.5084","longitude":"72.9973","accuracy":"3"},{"address3":"Rampur (A)","state":"Gujarat","state_code":"09","district":"Sabarkantha","district_code":"472","address1":"Himatnagar","address2":"","latitude":"23.5084","longitude":"72.9973","accuracy":"3"},{"address3":"Fatepur Mota","state":"Gujarat","state_code":"09","district":"Sabarkantha","district_code":"472","address1":"Prantij","address2":"","latitude":"23.5084","longitude":"72.9973","accuracy":"3"},{"address3":"Mahadevpura","state":"Gujarat","state_code":"09","district":"Sabarkantha","district_code":"472","address1":"Prantij","address2":"","latitude":"23.5084","longitude":"72.9973","accuracy":"3"}],"383215":[{"address3":"Kherol","state":"Gujarat","state_code":"09","district":"Sabarkantha","district_code":"472","address1":"Talod","address2":"","latitude":"23.2918","longitude":"73.0734","accuracy":"3"},{"address3":"Amrapur","state":"Gujarat","state_code":"09","district":"Sabarkantha","district_code":"472","address1":"Prantij","address2":"","latitude":"23.2322","longitude":"73.1969","accuracy":"4"},{"address3":"Ujedia","state":"Gujarat","state_code":"09","district":"Sabarkantha","district_code":"472","address1":"Talod","address2":"","latitude":"23.2918","longitude":"73.0734","accuracy":"3"},{"address3":"Talod M Y","state":"Gujarat","state_code":"09","district":"Sabarkantha","district_code":"472","address1":"Talod","address2":"","latitude":"23.2918","longitude":"73.0734","accuracy":"3"},{"address3":"Jorajini Muvadi","state":"Gujarat","state_code":"09","district":"Sabarkantha","district_code":"472","address1":"Talod","address2":"","latitude":"23.2918","longitude":"73.0734","accuracy":"3"},{"address3":"Talod","state":"Gujarat","state_code":"09","district":"Sabarkantha","district_code":"472","address1":"Talod","address2":"","latitude":"23.3514","longitude":"72.95","accuracy":"4"},{"address3":"Boria Bechraji","state":"Gujarat","state_code":"09","district":"Sabarkantha","district_code":"472","address1":"Talod","address2":"","latitude":"23.2918","longitude":"73.0734","accuracy":"3"},{"address3":"Poyda","state":"Gujarat","state_code":"09","district":"Sabarkantha","district_code":"472","address1":"Prantij","address2":"","latitude":"23.2918","longitude":"73.0734","accuracy":"3"},{"address3":"Salatpur","state":"Gujarat","state_code":"09","district":"Sabarkantha","district_code":"472","address1":"Talod","address2":"","latitude":"23.2918","longitude":"73.0734","accuracy":"3"},{"address3":"Mahiyal","state":"Gujarat","state_code":"09","district":"Sabarkantha","district_code":"472","address1":"Talod","address2":"","latitude":"23.2918","longitude":"73.0734","accuracy":"3"},{"address3":"Mudhasana","state":"Gujarat","state_code":"09","district":"Sabarkantha","district_code":"472","address1":"Talod","address2":"","latitude":"23.2918","longitude":"73.0734","accuracy":"3"},{"address3":"Gora Anjana","state":"Gujarat","state_code":"09","district":"Sabarkantha","district_code":"472","address1":"Talod","address2":"","latitude":"23.2918","longitude":"73.0734","accuracy":"3"},{"address3":"Valiampura","state":"Gujarat","state_code":"09","district":"Sabarkantha","district_code":"472","address1":"Talod","address2":"","latitude":"23.2918","longitude":"73.0734","accuracy":"3"},{"address3":"Doltabad","state":"Gujarat","state_code":"09","district":"Sabarkantha","district_code":"472","address1":"Talod","address2":"","latitude":"23.2918","longitude":"73.0734","accuracy":"3"},{"address3":"Semalia","state":"Gujarat","state_code":"09","district":"Sabarkantha","district_code":"472","address1":"Talod","address2":"","latitude":"23.2918","longitude":"73.0734","accuracy":"3"},{"address3":"Ghadi","state":"Gujarat","state_code":"09","district":"Sabarkantha","district_code":"472","address1":"Prantij","address2":"","latitude":"23.2918","longitude":"73.0734","accuracy":"3"}],"383220":[{"address3":"Derol","state":"Gujarat","state_code":"09","district":"Sabarkantha","district_code":"472","address1":"Himatnagar","address2":"","latitude":"23.5905","longitude":"72.8344","accuracy":"4"},{"address3":"Kanai","state":"Gujarat","state_code":"09","district":"Sabarkantha","district_code":"472","address1":"Himatnagar","address2":"","latitude":"23.7971","longitude":"72.8511","accuracy":"3"},{"address3":"Navanagar","state":"Gujarat","state_code":"09","district":"Sabarkantha","district_code":"472","address1":"Himatnagar","address2":"","latitude":"23.6593","longitude":"73.1637","accuracy":"4"},{"address3":"Kadoli","state":"Gujarat","state_code":"09","district":"Sabarkantha","district_code":"472","address1":"Himatnagar","address2":"","latitude":"23.7971","longitude":"72.8511","accuracy":"3"},{"address3":"Dedhrota","state":"Gujarat","state_code":"09","district":"Sabarkantha","district_code":"472","address1":"Himatnagar","address2":"","latitude":"23.7971","longitude":"72.8511","accuracy":"3"},{"address3":"Ilol","state":"Gujarat","state_code":"09","district":"Sabarkantha","district_code":"472","address1":"Himatnagar","address2":"","latitude":"23.6483","longitude":"72.8921","accuracy":"4"},{"address3":"Khedavada","state":"Gujarat","state_code":"09","district":"Sabarkantha","district_code":"472","address1":"Himatnagar","address2":"","latitude":"23.7971","longitude":"72.8511","accuracy":"3"},{"address3":"Kanda","state":"Gujarat","state_code":"09","district":"Sabarkantha","district_code":"472","address1":"Himatnagar","address2":"","latitude":"23.7971","longitude":"72.8511","accuracy":"3"}],"383225":[{"address3":"Prempur","state":"Gujarat","state_code":"09","district":"Sabarkantha","district_code":"472","address1":"Himatnagar","address2":"","latitude":"23.7051","longitude":"72.8684","accuracy":"4"},{"address3":"Pethapur","state":"Gujarat","state_code":"09","district":"Sabarkantha","district_code":"472","address1":"Himatnagar","address2":"","latitude":"23.6593","longitude":"73.1637","accuracy":"4"},{"address3":"Davad","state":"Gujarat","state_code":"09","district":"Sabarkantha","district_code":"472","address1":"Idar","address2":"","latitude":"23.5723","longitude":"72.7839","accuracy":"3"},{"address3":"Eklara","state":"Gujarat","state_code":"09","district":"Sabarkantha","district_code":"472","address1":"Idar","address2":"","latitude":"23.7487","longitude":"72.8093","accuracy":"4"},{"address3":"Arsodia","state":"Gujarat","state_code":"09","district":"Sabarkantha","district_code":"472","address1":"Idar","address2":"","latitude":"23.5723","longitude":"72.7839","accuracy":"3"},{"address3":"Singa","state":"Gujarat","state_code":"09","district":"Sabarkantha","district_code":"472","address1":"Idar","address2":"","latitude":"23.5723","longitude":"72.7839","accuracy":"3"},{"address3":"Kabso","state":"Gujarat","state_code":"09","district":"Sabarkantha","district_code":"472","address1":"Idar","address2":"","latitude":"23.5723","longitude":"72.7839","accuracy":"3"}],"383230":[{"address3":"Virpur","state":"Gujarat","state_code":"09","district":"Sabarkantha","district_code":"472","address1":"Idar","address2":"","latitude":"23.6593","longitude":"73.1637","accuracy":"4"},{"address3":"Chhapi","state":"Gujarat","state_code":"09","district":"Sabarkantha","district_code":"472","address1":"Idar","address2":"","latitude":"23.6593","longitude":"73.1637","accuracy":"4"},{"address3":"Kesharpura","state":"Gujarat","state_code":"09","district":"Sabarkantha","district_code":"472","address1":"Idar","address2":"","latitude":"24.1007","longitude":"72.4352","accuracy":"3"},{"address3":"Deshotar","state":"Gujarat","state_code":"09","district":"Sabarkantha","district_code":"472","address1":"Idar","address2":"","latitude":"24.1007","longitude":"72.4352","accuracy":"3"},{"address3":"Finchod","state":"Gujarat","state_code":"09","district":"Sabarkantha","district_code":"472","address1":"Idar","address2":"","latitude":"24.1007","longitude":"72.4352","accuracy":"3"},{"address3":"Falasan","state":"Gujarat","state_code":"09","district":"Sabarkantha","district_code":"472","address1":"Idar","address2":"","latitude":"24.1007","longitude":"72.4352","accuracy":"3"},{"address3":"Masal","state":"Gujarat","state_code":"09","district":"Sabarkantha","district_code":"472","address1":"Idar","address2":"","latitude":"24.1007","longitude":"72.4352","accuracy":"3"},{"address3":"Oda","state":"Gujarat","state_code":"09","district":"Sabarkantha","district_code":"472","address1":"Idar","address2":"","latitude":"24.1007","longitude":"72.4352","accuracy":"3"},{"address3":"Bolundra (S)","state":"Gujarat","state_code":"09","district":"Sabarkantha","district_code":"472","address1":"Idar","address2":"","latitude":"24.1007","longitude":"72.4352","accuracy":"3"},{"address3":"Umedgadh","state":"Gujarat","state_code":"09","district":"Sabarkantha","district_code":"472","address1":"Idar","address2":"","latitude":"24.1007","longitude":"72.4352","accuracy":"3"},{"address3":"Maniyor","state":"Gujarat","state_code":"09","district":"Sabarkantha","district_code":"472","address1":"Idar","address2":"","latitude":"24.1007","longitude":"72.4352","accuracy":"3"},{"address3":"Budheli","state":"Gujarat","state_code":"09","district":"Sabarkantha","district_code":"472","address1":"Idar","address2":"","latitude":"24.1007","longitude":"72.4352","accuracy":"3"}],"383235":[{"address3":"Gadu","state":"Gujarat","state_code":"09","district":"Sabarkantha","district_code":"472","address1":"Khedbrahma","address2":"","latitude":"23.6593","longitude":"73.1637","accuracy":"3"},{"address3":"Raheda","state":"Gujarat","state_code":"09","district":"Sabarkantha","district_code":"472","address1":"Vadali","address2":"","latitude":"23.9362","longitude":"73.048","accuracy":"3"},{"address3":"Vadali (Sabarkantha)","state":"Gujarat","state_code":"09","district":"Sabarkantha","district_code":"472","address1":"Vadali","address2":"","latitude":"23.9423","longitude":"73.0378","accuracy":"4"},{"address3":"Vasan","state":"Gujarat","state_code":"09","district":"Sabarkantha","district_code":"472","address1":"Vadali","address2":"","latitude":"23.9362","longitude":"73.048","accuracy":"3"},{"address3":"Babsar","state":"Gujarat","state_code":"09","district":"Sabarkantha","district_code":"472","address1":"Vadali","address2":"","latitude":"23.9362","longitude":"73.048","accuracy":"3"},{"address3":"Vadoth","state":"Gujarat","state_code":"09","district":"Sabarkantha","district_code":"472","address1":"Vadali","address2":"","latitude":"23.9362","longitude":"73.048","accuracy":"3"},{"address3":"Asai","state":"Gujarat","state_code":"09","district":"Sabarkantha","district_code":"472","address1":"Vadali","address2":"","latitude":"23.9093","longitude":"73.0025","accuracy":"4"},{"address3":"Therasana","state":"Gujarat","state_code":"09","district":"Sabarkantha","district_code":"472","address1":"Vadali","address2":"","latitude":"23.9362","longitude":"73.048","accuracy":"3"},{"address3":"Mahor","state":"Gujarat","state_code":"09","district":"Sabarkantha","district_code":"472","address1":"Vadali","address2":"","latitude":"23.9362","longitude":"73.048","accuracy":"3"},{"address3":"Nadri","state":"Gujarat","state_code":"09","district":"Sabarkantha","district_code":"472","address1":"Vadali","address2":"","latitude":"23.9362","longitude":"73.048","accuracy":"3"},{"address3":"Medh","state":"Gujarat","state_code":"09","district":"Sabarkantha","district_code":"472","address1":"Vadali","address2":"","latitude":"23.9569","longitude":"73.1036","accuracy":"4"},{"address3":"Dantroli","state":"Gujarat","state_code":"09","district":"Sabarkantha","district_code":"472","address1":"Vadali","address2":"","latitude":"23.9362","longitude":"73.048","accuracy":"3"},{"address3":"Dobhada","state":"Gujarat","state_code":"09","district":"Sabarkantha","district_code":"472","address1":"Vadali","address2":"","latitude":"23.9362","longitude":"73.048","accuracy":"3"},{"address3":"Dhamadi (Gadu)","state":"Gujarat","state_code":"09","district":"Sabarkantha","district_code":"472","address1":"Vadali","address2":"","latitude":"23.9362","longitude":"73.048","accuracy":"3"},{"address3":"Kesharganj","state":"Gujarat","state_code":"09","district":"Sabarkantha","district_code":"472","address1":"Vadali","address2":"","latitude":"23.9362","longitude":"73.048","accuracy":"3"},{"address3":"Bhandval","state":"Gujarat","state_code":"09","district":"Sabarkantha","district_code":"472","address1":"Vadali","address2":"","latitude":"23.9362","longitude":"73.048","accuracy":"3"},{"address3":"Hathoj","state":"Gujarat","state_code":"09","district":"Sabarkantha","district_code":"472","address1":"Vadali","address2":"","latitude":"23.9362","longitude":"73.048","accuracy":"3"},{"address3":"Kuba Dharol","state":"Gujarat","state_code":"09","district":"Sabarkantha","district_code":"472","address1":"Vadali","address2":"","latitude":"23.9362","longitude":"73.048","accuracy":"3"},{"address3":"Hatharva","state":"Gujarat","state_code":"09","district":"Sabarkantha","district_code":"472","address1":"Vadali","address2":"","latitude":"23.9362","longitude":"73.048","accuracy":"3"}],"383240":[{"address3":"Himmatpur","state":"Gujarat","state_code":"09","district":"Sabarkantha","district_code":"472","address1":"Bhiloda","address2":"","latitude":"23.6805","longitude":"73.3751","accuracy":"3"},{"address3":"Bamna","state":"Gujarat","state_code":"09","district":"Sabarkantha","district_code":"472","address1":"Bhiloda","address2":"","latitude":"23.6593","longitude":"73.1637","accuracy":"4"},{"address3":"Bankhor","state":"Gujarat","state_code":"09","district":"Sabarkantha","district_code":"472","address1":"Himatnagar","address2":"","latitude":"23.6805","longitude":"73.3751","accuracy":"3"},{"address3":"Meditimba","state":"Gujarat","state_code":"09","district":"Sabarkantha","district_code":"472","address1":"Bhiloda","address2":"","latitude":"23.6805","longitude":"73.3751","accuracy":"3"},{"address3":"Ada Hathrol","state":"Gujarat","state_code":"09","district":"Sabarkantha","district_code":"472","address1":"Bhiloda","address2":"","latitude":"23.6805","longitude":"73.3751","accuracy":"3"},{"address3":"Mankdi","state":"Gujarat","state_code":"09","district":"Sabarkantha","district_code":"472","address1":"Bhiloda","address2":"","latitude":"23.6593","longitude":"73.1637","accuracy":"4"},{"address3":"Hunj","state":"Gujarat","state_code":"09","district":"Sabarkantha","district_code":"472","address1":"Himatnagar","address2":"","latitude":"23.6805","longitude":"73.3751","accuracy":"3"},{"address3":"Punasan","state":"Gujarat","state_code":"09","district":"Sabarkantha","district_code":"472","address1":"Bhiloda","address2":"","latitude":"23.6805","longitude":"73.3751","accuracy":"3"}],"383245":[{"address3":"Bhiloda","state":"Gujarat","state_code":"09","district":"Sabarkantha","district_code":"472","address1":"Bhiloda","address2":"","latitude":"23.7676","longitude":"73.247","accuracy":"4"},{"address3":"Vankaner","state":"Gujarat","state_code":"09","district":"Sabarkantha","district_code":"472","address1":"Bhiloda","address2":"","latitude":"23.6593","longitude":"73.1637","accuracy":"4"},{"address3":"Raipur","state":"Gujarat","state_code":"09","district":"Sabarkantha","district_code":"472","address1":"Bhiloda","address2":"","latitude":"23.6593","longitude":"73.1637","accuracy":"4"},{"address3":"Mehru","state":"Gujarat","state_code":"09","district":"Sabarkantha","district_code":"472","address1":"Bhiloda","address2":"","latitude":"23.0674","longitude":"73.3444","accuracy":"3"},{"address3":"Lilchha","state":"Gujarat","state_code":"09","district":"Sabarkantha","district_code":"472","address1":"Bhiloda","address2":"","latitude":"23.7725","longitude":"73.2034","accuracy":"4"},{"address3":"Bhiloda Bazar","state":"Gujarat","state_code":"09","district":"Sabarkantha","district_code":"472","address1":"Bhiloda","address2":"","latitude":"23.0674","longitude":"73.3444","accuracy":"3"},{"address3":"Bhutavad","state":"Gujarat","state_code":"09","district":"Sabarkantha","district_code":"472","address1":"Bhiloda","address2":"","latitude":"23.0674","longitude":"73.3444","accuracy":"3"},{"address3":"Bhetali","state":"Gujarat","state_code":"09","district":"Sabarkantha","district_code":"472","address1":"Bhiloda","address2":"","latitude":"23.0674","longitude":"73.3444","accuracy":"3"},{"address3":"Khalvad","state":"Gujarat","state_code":"09","district":"Sabarkantha","district_code":"472","address1":"Bhiloda","address2":"","latitude":"23.7977","longitude":"73.1886","accuracy":"4"},{"address3":"Nandoj","state":"Gujarat","state_code":"09","district":"Sabarkantha","district_code":"472","address1":"Bhiloda","address2":"","latitude":"23.0674","longitude":"73.3444","accuracy":"3"},{"address3":"Dholvani","state":"Gujarat","state_code":"09","district":"Sabarkantha","district_code":"472","address1":"Bhiloda","address2":"","latitude":"23.0674","longitude":"73.3444","accuracy":"3"},{"address3":"Mau Bhavnath","state":"Gujarat","state_code":"09","district":"Sabarkantha","district_code":"472","address1":"Bhiloda","address2":"","latitude":"23.0674","longitude":"73.3444","accuracy":"3"},{"address3":"Vejpur","state":"Gujarat","state_code":"09","district":"Sabarkantha","district_code":"472","address1":"Bhiloda","address2":"","latitude":"23.7963","longitude":"73.2185","accuracy":"4"},{"address3":"Narsoli","state":"Gujarat","state_code":"09","district":"Sabarkantha","district_code":"472","address1":"Bhiloda","address2":"","latitude":"23.0674","longitude":"73.3444","accuracy":"3"},{"address3":"Nava Bhavnath","state":"Gujarat","state_code":"09","district":"Sabarkantha","district_code":"472","address1":"Bhiloda","address2":"","latitude":"23.0674","longitude":"73.3444","accuracy":"3"},{"address3":"Chunakhan","state":"Gujarat","state_code":"09","district":"Sabarkantha","district_code":"472","address1":"Bhiloda","address2":"","latitude":"23.0674","longitude":"73.3444","accuracy":"3"},{"address3":"Chiboda","state":"Gujarat","state_code":"09","district":"Sabarkantha","district_code":"472","address1":"Bhiloda","address2":"","latitude":"23.0674","longitude":"73.3444","accuracy":"3"},{"address3":"Jeshingpur","state":"Gujarat","state_code":"09","district":"Sabarkantha","district_code":"472","address1":"Bhiloda","address2":"","latitude":"23.0674","longitude":"73.3444","accuracy":"3"},{"address3":"Bhatera","state":"Gujarat","state_code":"09","district":"Sabarkantha","district_code":"472","address1":"Bhiloda","address2":"","latitude":"23.0674","longitude":"73.3444","accuracy":"3"}],"383246":[{"address3":"Virpur","state":"Gujarat","state_code":"09","district":"Sabarkantha","district_code":"472","address1":"Bhiloda","address2":"","latitude":"23.6593","longitude":"73.1637","accuracy":"4"},{"address3":"Raisingpur","state":"Gujarat","state_code":"09","district":"Sabarkantha","district_code":"472","address1":"Bhiloda","address2":"","latitude":"23.6593","longitude":"73.1637","accuracy":"4"},{"address3":"Dhansor","state":"Gujarat","state_code":"09","district":"Sabarkantha","district_code":"472","address1":"Bhiloda","address2":"","latitude":"22.6214","longitude":"73.7897","accuracy":"3"},{"address3":"Chamthan","state":"Gujarat","state_code":"09","district":"Sabarkantha","district_code":"472","address1":"Vijaynagar","address2":"","latitude":"22.6214","longitude":"73.7897","accuracy":"3"},{"address3":"Jinjudi","state":"Gujarat","state_code":"09","district":"Sabarkantha","district_code":"472","address1":"Bhiloda","address2":"","latitude":"22.6214","longitude":"73.7897","accuracy":"3"},{"address3":"Ubsal","state":"Gujarat","state_code":"09","district":"Sabarkantha","district_code":"472","address1":"Bhiloda","address2":"","latitude":"22.6214","longitude":"73.7897","accuracy":"3"},{"address3":"Rampuri","state":"Gujarat","state_code":"09","district":"Sabarkantha","district_code":"472","address1":"Bhiloda","address2":"","latitude":"22.6214","longitude":"73.7897","accuracy":"3"},{"address3":"Budheli","state":"Gujarat","state_code":"09","district":"Sabarkantha","district_code":"472","address1":"Bhiloda","address2":"","latitude":"22.6214","longitude":"73.7897","accuracy":"3"},{"address3":"Chorimala","state":"Gujarat","state_code":"09","district":"Sabarkantha","district_code":"472","address1":"Bhiloda","address2":"","latitude":"22.6214","longitude":"73.7897","accuracy":"3"},{"address3":"Itavadi","state":"Gujarat","state_code":"09","district":"Sabarkantha","district_code":"472","address1":"Vijaynagar","address2":"","latitude":"22.6214","longitude":"73.7897","accuracy":"3"},{"address3":"Ambabar","state":"Gujarat","state_code":"09","district":"Sabarkantha","district_code":"472","address1":"Bhiloda","address2":"","latitude":"22.6214","longitude":"73.7897","accuracy":"3"},{"address3":"Kanadar","state":"Gujarat","state_code":"09","district":"Sabarkantha","district_code":"472","address1":"Vijaynagar","address2":"","latitude":"22.6214","longitude":"73.7897","accuracy":"3"},{"address3":"Budhrasan","state":"Gujarat","state_code":"09","district":"Sabarkantha","district_code":"472","address1":"Bhiloda","address2":"","latitude":"22.6214","longitude":"73.7897","accuracy":"3"},{"address3":"Jayla","state":"Gujarat","state_code":"09","district":"Sabarkantha","district_code":"472","address1":"Bhiloda","address2":"","latitude":"22.6214","longitude":"73.7897","accuracy":"3"},{"address3":"Masota","state":"Gujarat","state_code":"09","district":"Sabarkantha","district_code":"472","address1":"Vijaynagar","address2":"","latitude":"22.6214","longitude":"73.7897","accuracy":"3"},{"address3":"Chitrodi","state":"Gujarat","state_code":"09","district":"Sabarkantha","district_code":"472","address1":"Vijaynagar","address2":"","latitude":"22.6214","longitude":"73.7897","accuracy":"3"},{"address3":"Bhanmer","state":"Gujarat","state_code":"09","district":"Sabarkantha","district_code":"472","address1":"Bhiloda","address2":"","latitude":"22.6214","longitude":"73.7897","accuracy":"3"},{"address3":"Takatuka","state":"Gujarat","state_code":"09","district":"Sabarkantha","district_code":"472","address1":"Bhiloda","address2":"","latitude":"22.6214","longitude":"73.7897","accuracy":"3"},{"address3":"Kundol Pal","state":"Gujarat","state_code":"09","district":"Sabarkantha","district_code":"472","address1":"Bhiloda","address2":"","latitude":"22.6214","longitude":"73.7897","accuracy":"3"},{"address3":"Torda","state":"Gujarat","state_code":"09","district":"Sabarkantha","district_code":"472","address1":"Bhiloda","address2":"","latitude":"22.6214","longitude":"73.7897","accuracy":"3"}],"383250":[{"address3":"Sunokh","state":"Gujarat","state_code":"09","district":"Sabarkantha","district_code":"472","address1":"Bhiloda","address2":"","latitude":"23.6184","longitude":"73.2864","accuracy":"4"},{"address3":"Khiloda","state":"Gujarat","state_code":"09","district":"Sabarkantha","district_code":"472","address1":"Bhiloda","address2":"","latitude":"23.6538","longitude":"73.2908","accuracy":"3"},{"address3":"Kheradi","state":"Gujarat","state_code":"09","district":"Sabarkantha","district_code":"472","address1":"Bhiloda","address2":"","latitude":"23.6892","longitude":"73.2952","accuracy":"4"},{"address3":"Nandisan","state":"Gujarat","state_code":"09","district":"Sabarkantha","district_code":"472","address1":"Modasa","address2":"","latitude":"23.6538","longitude":"73.2908","accuracy":"3"},{"address3":"Adhera","state":"Gujarat","state_code":"09","district":"Sabarkantha","district_code":"472","address1":"Modasa","address2":"","latitude":"23.6538","longitude":"73.2908","accuracy":"3"},{"address3":"Vandhiyol","state":"Gujarat","state_code":"09","district":"Sabarkantha","district_code":"472","address1":"Bhiloda","address2":"","latitude":"23.6538","longitude":"73.2908","accuracy":"3"},{"address3":"Kudol","state":"Gujarat","state_code":"09","district":"Sabarkantha","district_code":"472","address1":"Modasa","address2":"","latitude":"23.6538","longitude":"73.2908","accuracy":"3"},{"address3":"Tintoi","state":"Gujarat","state_code":"09","district":"Sabarkantha","district_code":"472","address1":"Modasa","address2":"","latitude":"23.6538","longitude":"73.2908","accuracy":"3"},{"address3":"Kushki","state":"Gujarat","state_code":"09","district":"Sabarkantha","district_code":"472","address1":"Bhiloda","address2":"","latitude":"23.6538","longitude":"73.2908","accuracy":"3"},{"address3":"Moti Bebar","state":"Gujarat","state_code":"09","district":"Sabarkantha","district_code":"472","address1":"Bhiloda","address2":"","latitude":"23.6538","longitude":"73.2908","accuracy":"3"},{"address3":"Bolundra","state":"Gujarat","state_code":"09","district":"Sabarkantha","district_code":"472","address1":"Modasa","address2":"","latitude":"23.6538","longitude":"73.2908","accuracy":"3"},{"address3":"Vanzar","state":"Gujarat","state_code":"09","district":"Sabarkantha","district_code":"472","address1":"Bhiloda","address2":"","latitude":"23.6538","longitude":"73.2908","accuracy":"3"},{"address3":"Bamanvad","state":"Gujarat","state_code":"09","district":"Sabarkantha","district_code":"472","address1":"Modasa","address2":"","latitude":"23.6538","longitude":"73.2908","accuracy":"3"}],"383251":[{"address3":"Rellawada","state":"Gujarat","state_code":"09","district":"Sabarkantha","district_code":"472","address1":"Meghraj","address2":"","latitude":"23.8415","longitude":"73.1701","accuracy":"1"},{"address3":"Gali Semro","state":"Gujarat","state_code":"09","district":"Sabarkantha","district_code":"472","address1":"Bhiloda","address2":"","latitude":"23.8415","longitude":"73.1701","accuracy":"1"},{"address3":"Navagam(Isri)","state":"Gujarat","state_code":"09","district":"Sabarkantha","district_code":"472","address1":"Meghraj","address2":"","latitude":"23.8415","longitude":"73.1701","accuracy":"1"},{"address3":"Lusadia","state":"Gujarat","state_code":"09","district":"Sabarkantha","district_code":"472","address1":"Bhiloda","address2":"","latitude":"23.8415","longitude":"73.1701","accuracy":"1"},{"address3":"Vaghpur","state":"Gujarat","state_code":"09","district":"Sabarkantha","district_code":"472","address1":"Meghraj","address2":"","latitude":"23.8415","longitude":"73.1701","accuracy":"1"},{"address3":"Panibar","state":"Gujarat","state_code":"09","district":"Sabarkantha","district_code":"472","address1":"Meghraj","address2":"","latitude":"23.8415","longitude":"73.1701","accuracy":"1"},{"address3":"Dahegamda","state":"Gujarat","state_code":"09","district":"Sabarkantha","district_code":"472","address1":"Bhiloda","address2":"","latitude":"23.8415","longitude":"73.1701","accuracy":"1"},{"address3":"Ansol","state":"Gujarat","state_code":"09","district":"Sabarkantha","district_code":"472","address1":"Bhiloda","address2":"","latitude":"23.8415","longitude":"73.1701","accuracy":"1"},{"address3":"Isari","state":"Gujarat","state_code":"09","district":"Sabarkantha","district_code":"472","address1":"Meghraj","address2":"","latitude":"23.8415","longitude":"73.1701","accuracy":"1"},{"address3":"Intva","state":"Gujarat","state_code":"09","district":"Sabarkantha","district_code":"472","address1":"Meghraj","address2":"","latitude":"23.8415","longitude":"73.1701","accuracy":"1"},{"address3":"Mota Kantharia","state":"Gujarat","state_code":"09","district":"Sabarkantha","district_code":"472","address1":"Bhiloda","address2":"","latitude":"23.8415","longitude":"73.1701","accuracy":"1"},{"address3":"Kagda Mahuda","state":"Gujarat","state_code":"09","district":"Sabarkantha","district_code":"472","address1":"Bhiloda","address2":"","latitude":"23.8415","longitude":"73.1701","accuracy":"1"}],"383255":[{"address3":"Padhara","state":"Gujarat","state_code":"09","district":"Sabarkantha","district_code":"472","address1":"Khedbrahma","address2":"","latitude":"23.6593","longitude":"73.1637","accuracy":"4"},{"address3":"Gota","state":"Gujarat","state_code":"09","district":"Sabarkantha","district_code":"472","address1":"Vadali","address2":"","latitude":"23.9941","longitude":"73.063","accuracy":"4"},{"address3":"Navi Metral","state":"Gujarat","state_code":"09","district":"Sabarkantha","district_code":"472","address1":"Khedbrahma","address2":"","latitude":"23.9041","longitude":"73.1299","accuracy":"3"},{"address3":"Nichi Dhanal","state":"Gujarat","state_code":"09","district":"Sabarkantha","district_code":"472","address1":"Khedbrahma","address2":"","latitude":"24.0125","longitude":"73.0091","accuracy":"4"},{"address3":"Paroya","state":"Gujarat","state_code":"09","district":"Sabarkantha","district_code":"472","address1":"Khedbrahma","address2":"","latitude":"23.9041","longitude":"73.1299","accuracy":"3"},{"address3":"Dharoi","state":"Gujarat","state_code":"09","district":"Sabarkantha","district_code":"472","address1":"Khedbrahma","address2":"","latitude":"24.0009","longitude":"72.8516","accuracy":"4"},{"address3":"Sitol","state":"Gujarat","state_code":"09","district":"Sabarkantha","district_code":"472","address1":"Khedbrahma","address2":"","latitude":"23.9041","longitude":"73.1299","accuracy":"3"},{"address3":"Khedbrahma","state":"Gujarat","state_code":"09","district":"Sabarkantha","district_code":"472","address1":"Khedbrahma","address2":"","latitude":"24.0299","longitude":"73.0463","accuracy":"4"},{"address3":"Zanzva Panai","state":"Gujarat","state_code":"09","district":"Sabarkantha","district_code":"472","address1":"Khedbrahma","address2":"","latitude":"23.9041","longitude":"73.1299","accuracy":"3"},{"address3":"Vartol","state":"Gujarat","state_code":"09","district":"Sabarkantha","district_code":"472","address1":"Khedbrahma","address2":"","latitude":"24.0784","longitude":"73.0631","accuracy":"4"},{"address3":"Chikhala","state":"Gujarat","state_code":"09","district":"Sabarkantha","district_code":"472","address1":"Khedbrahma","address2":"","latitude":"23.9041","longitude":"73.1299","accuracy":"3"},{"address3":"Delwada","state":"Gujarat","state_code":"09","district":"Sabarkantha","district_code":"472","address1":"Khedbrahma","address2":"","latitude":"23.9041","longitude":"73.1299","accuracy":"3"},{"address3":"Padardi","state":"Gujarat","state_code":"09","district":"Sabarkantha","district_code":"472","address1":"Khedbrahma","address2":"","latitude":"23.9041","longitude":"73.1299","accuracy":"3"},{"address3":"Vasana","state":"Gujarat","state_code":"09","district":"Sabarkantha","district_code":"472","address1":"Khedbrahma","address2":"","latitude":"23.9041","longitude":"73.1299","accuracy":"3"},{"address3":"Didhiya","state":"Gujarat","state_code":"09","district":"Sabarkantha","district_code":"472","address1":"Khedbrahma","address2":"","latitude":"23.9041","longitude":"73.1299","accuracy":"3"},{"address3":"Valaran","state":"Gujarat","state_code":"09","district":"Sabarkantha","district_code":"472","address1":"Khedbrahma","address2":"","latitude":"23.9041","longitude":"73.1299","accuracy":"3"},{"address3":"Bahediya","state":"Gujarat","state_code":"09","district":"Sabarkantha","district_code":"472","address1":"Khedbrahma","address2":"","latitude":"23.9041","longitude":"73.1299","accuracy":"3"},{"address3":"Khedva","state":"Gujarat","state_code":"09","district":"Sabarkantha","district_code":"472","address1":"Khedbrahma","address2":"","latitude":"23.9041","longitude":"73.1299","accuracy":"3"}],"383260":[{"address3":"Akrund","state":"Gujarat","state_code":"09","district":"Sabarkantha","district_code":"472","address1":"Dhansura","address2":"","latitude":"23.2856","longitude":"73.1297","accuracy":"4"},{"address3":"Chandrej","state":"Gujarat","state_code":"09","district":"Sabarkantha","district_code":"472","address1":"Bayad","address2":"","latitude":"23.2856","longitude":"73.1297","accuracy":"3"},{"address3":"Borditimba","state":"Gujarat","state_code":"09","district":"Sabarkantha","district_code":"472","address1":"Dhansura","address2":"","latitude":"23.2856","longitude":"73.1297","accuracy":"3"},{"address3":"Rampura Kampa","state":"Gujarat","state_code":"09","district":"Sabarkantha","district_code":"472","address1":"Dhansura","address2":"","latitude":"23.2856","longitude":"73.1297","accuracy":"3"},{"address3":"Vatrakgadh","state":"Gujarat","state_code":"09","district":"Sabarkantha","district_code":"472","address1":"Bayad","address2":"","latitude":"23.2856","longitude":"73.1297","accuracy":"3"}],"383270":[{"address3":"Unchi Dhanal","state":"Gujarat","state_code":"09","district":"Sabarkantha","district_code":"472","address1":"Khedbrahma","address2":"","latitude":"23.599","longitude":"72.9978","accuracy":"3"},{"address3":"Ratanpur","state":"Gujarat","state_code":"09","district":"Sabarkantha","district_code":"472","address1":"Khedbrahma","address2":"","latitude":"23.6593","longitude":"73.1637","accuracy":"4"},{"address3":"Nada","state":"Gujarat","state_code":"09","district":"Sabarkantha","district_code":"472","address1":"Khedbrahma","address2":"","latitude":"23.6593","longitude":"73.1637","accuracy":"4"},{"address3":"Demti","state":"Gujarat","state_code":"09","district":"Sabarkantha","district_code":"472","address1":"Khedbrahma","address2":"","latitude":"24.2936","longitude":"73.0872","accuracy":"4"},{"address3":"Gundel","state":"Gujarat","state_code":"09","district":"Sabarkantha","district_code":"472","address1":"Khedbrahma","address2":"","latitude":"24.076","longitude":"72.9876","accuracy":"4"},{"address3":"Nava Mota","state":"Gujarat","state_code":"09","district":"Sabarkantha","district_code":"472","address1":"Khedbrahma","address2":"","latitude":"23.599","longitude":"72.9978","accuracy":"3"},{"address3":"Gadhada Shamlaji","state":"Gujarat","state_code":"09","district":"Sabarkantha","district_code":"472","address1":"Khedbrahma","address2":"","latitude":"23.599","longitude":"72.9978","accuracy":"3"},{"address3":"Kheroj","state":"Gujarat","state_code":"09","district":"Sabarkantha","district_code":"472","address1":"Khedbrahma","address2":"","latitude":"23.4956","longitude":"73.6102","accuracy":"4"},{"address3":"Bandiyana Talav","state":"Gujarat","state_code":"09","district":"Sabarkantha","district_code":"472","address1":"Khedbrahma","address2":"","latitude":"23.599","longitude":"72.9978","accuracy":"3"},{"address3":"Ambaigadha","state":"Gujarat","state_code":"09","district":"Sabarkantha","district_code":"472","address1":"Khedbrahma","address2":"","latitude":"23.599","longitude":"72.9978","accuracy":"3"},{"address3":"Dan Mahudi","state":"Gujarat","state_code":"09","district":"Sabarkantha","district_code":"472","address1":"Khedbrahma","address2":"","latitude":"23.599","longitude":"72.9978","accuracy":"3"},{"address3":"Lambadiya","state":"Gujarat","state_code":"09","district":"Sabarkantha","district_code":"472","address1":"Khedbrahma","address2":"","latitude":"23.599","longitude":"72.9978","accuracy":"3"},{"address3":"Matoda","state":"Gujarat","state_code":"09","district":"Sabarkantha","district_code":"472","address1":"Khedbrahma","address2":"","latitude":"23.599","longitude":"72.9978","accuracy":"3"},{"address3":"Tembada","state":"Gujarat","state_code":"09","district":"Sabarkantha","district_code":"472","address1":"Khedbrahma","address2":"","latitude":"23.599","longitude":"72.9978","accuracy":"3"},{"address3":"Nana Sembalia","state":"Gujarat","state_code":"09","district":"Sabarkantha","district_code":"472","address1":"Khedbrahma","address2":"","latitude":"23.599","longitude":"72.9978","accuracy":"3"},{"address3":"Radhiwad","state":"Gujarat","state_code":"09","district":"Sabarkantha","district_code":"472","address1":"Khedbrahma","address2":"","latitude":"23.599","longitude":"72.9978","accuracy":"3"},{"address3":"Dotad","state":"Gujarat","state_code":"09","district":"Sabarkantha","district_code":"472","address1":"Khedbrahma","address2":"","latitude":"23.599","longitude":"72.9978","accuracy":"3"},{"address3":"Patadiya","state":"Gujarat","state_code":"09","district":"Sabarkantha","district_code":"472","address1":"Khedbrahma","address2":"","latitude":"23.599","longitude":"72.9978","accuracy":"3"},{"address3":"Panch Mahuda","state":"Gujarat","state_code":"09","district":"Sabarkantha","district_code":"472","address1":"Khedbrahma","address2":"","latitude":"23.599","longitude":"72.9978","accuracy":"3"},{"address3":"Agiya","state":"Gujarat","state_code":"09","district":"Sabarkantha","district_code":"472","address1":"Khedbrahma","address2":"","latitude":"23.599","longitude":"72.9978","accuracy":"3"},{"address3":"Mota Baval","state":"Gujarat","state_code":"09","district":"Sabarkantha","district_code":"472","address1":"Khedbrahma","address2":"","latitude":"23.599","longitude":"72.9978","accuracy":"3"}],"383275":[{"address3":"Damavas","state":"Gujarat","state_code":"09","district":"Sabarkantha","district_code":"472","address1":"Khedbrahma","address2":"","latitude":"23.9841","longitude":"73.1262","accuracy":"4"},{"address3":"Khergadh","state":"Gujarat","state_code":"09","district":"Sabarkantha","district_code":"472","address1":"Khedbrahma","address2":"","latitude":"23.9841","longitude":"73.1262","accuracy":"3"},{"address3":"Tandaliya","state":"Gujarat","state_code":"09","district":"Sabarkantha","district_code":"472","address1":"Khedbrahma","address2":"","latitude":"23.9841","longitude":"73.1262","accuracy":"3"},{"address3":"Galodiya","state":"Gujarat","state_code":"09","district":"Sabarkantha","district_code":"472","address1":"Khedbrahma","address2":"","latitude":"23.9841","longitude":"73.1262","accuracy":"3"},{"address3":"Laxmipura (Sabarkantha)","state":"Gujarat","state_code":"09","district":"Sabarkantha","district_code":"472","address1":"Khedbrahma","address2":"","latitude":"23.9841","longitude":"73.1262","accuracy":"3"},{"address3":"Vaghela Derol","state":"Gujarat","state_code":"09","district":"Sabarkantha","district_code":"472","address1":"Khedbrahma","address2":"","latitude":"23.9841","longitude":"73.1262","accuracy":"3"},{"address3":"Kalol Kampa","state":"Gujarat","state_code":"09","district":"Sabarkantha","district_code":"472","address1":"Khedbrahma","address2":"","latitude":"23.9841","longitude":"73.1262","accuracy":"3"}],"383276":[{"address3":"Medhasan","state":"Gujarat","state_code":"09","district":"Sabarkantha","district_code":"472","address1":"Modasa","address2":"","latitude":"23.5441","longitude":"73.2291","accuracy":"4"},{"address3":"Mathasulia","state":"Gujarat","state_code":"09","district":"Sabarkantha","district_code":"472","address1":"Himatnagar","address2":"","latitude":"23.6593","longitude":"73.1637","accuracy":"3"},{"address3":"Vagdi","state":"Gujarat","state_code":"09","district":"Sabarkantha","district_code":"472","address1":"Himatnagar","address2":"","latitude":"23.5441","longitude":"73.2291","accuracy":"3"},{"address3":"Adpodra","state":"Gujarat","state_code":"09","district":"Sabarkantha","district_code":"472","address1":"Himatnagar","address2":"","latitude":"23.5441","longitude":"73.2291","accuracy":"3"},{"address3":"Khambhisar","state":"Gujarat","state_code":"09","district":"Sabarkantha","district_code":"472","address1":"Modasa","address2":"","latitude":"23.5441","longitude":"73.2291","accuracy":"3"},{"address3":"Raigadh","state":"Gujarat","state_code":"09","district":"Sabarkantha","district_code":"472","address1":"Himatnagar","address2":"","latitude":"23.5441","longitude":"73.2291","accuracy":"3"},{"address3":"Rakhiyal","state":"Gujarat","state_code":"09","district":"Sabarkantha","district_code":"472","address1":"Modasa","address2":"","latitude":"23.5441","longitude":"73.2291","accuracy":"3"},{"address3":"Rajendranagar","state":"Gujarat","state_code":"09","district":"Sabarkantha","district_code":"472","address1":"Bhiloda","address2":"","latitude":"23.5441","longitude":"73.2291","accuracy":"3"}],"383305":[{"address3":"Nava","state":"Gujarat","state_code":"09","district":"Sabarkantha","district_code":"472","address1":"Talod","address2":"","latitude":"23.8218","longitude":"73.141","accuracy":"4"},{"address3":"Antroli","state":"Gujarat","state_code":"09","district":"Sabarkantha","district_code":"472","address1":"Talod","address2":"","latitude":"23.6593","longitude":"73.1637","accuracy":"4"},{"address3":"Varvada","state":"Gujarat","state_code":"09","district":"Sabarkantha","district_code":"472","address1":"Talod","address2":"","latitude":"23.4195","longitude":"73.0729","accuracy":"3"},{"address3":"Mohanpur","state":"Gujarat","state_code":"09","district":"Sabarkantha","district_code":"472","address1":"Talod","address2":"","latitude":"23.4457","longitude":"73.0782","accuracy":"4"},{"address3":"Harsol","state":"Gujarat","state_code":"09","district":"Sabarkantha","district_code":"472","address1":"Talod","address2":"","latitude":"23.361","longitude":"73.0174","accuracy":"4"},{"address3":"Mota Chekhla","state":"Gujarat","state_code":"09","district":"Sabarkantha","district_code":"472","address1":"Talod","address2":"","latitude":"23.4195","longitude":"73.0729","accuracy":"3"},{"address3":"Ranasan","state":"Gujarat","state_code":"09","district":"Sabarkantha","district_code":"472","address1":"Talod","address2":"","latitude":"23.4647","longitude":"73.1136","accuracy":"4"},{"address3":"Lavari","state":"Gujarat","state_code":"09","district":"Sabarkantha","district_code":"472","address1":"Talod","address2":"","latitude":"23.4195","longitude":"73.0729","accuracy":"3"},{"address3":"Modhuka","state":"Gujarat","state_code":"09","district":"Sabarkantha","district_code":"472","address1":"Talod","address2":"","latitude":"23.4195","longitude":"73.0729","accuracy":"3"},{"address3":"Madhavgadh","state":"Gujarat","state_code":"09","district":"Sabarkantha","district_code":"472","address1":"Talod","address2":"","latitude":"23.4195","longitude":"73.0729","accuracy":"3"},{"address3":"Badodara","state":"Gujarat","state_code":"09","district":"Sabarkantha","district_code":"472","address1":"Talod","address2":"","latitude":"23.4195","longitude":"73.0729","accuracy":"3"},{"address3":"Nana Chekhla","state":"Gujarat","state_code":"09","district":"Sabarkantha","district_code":"472","address1":"Talod","address2":"","latitude":"23.4195","longitude":"73.0729","accuracy":"3"},{"address3":"Aniod","state":"Gujarat","state_code":"09","district":"Sabarkantha","district_code":"472","address1":"Talod","address2":"","latitude":"23.4195","longitude":"73.0729","accuracy":"3"},{"address3":"Motesari","state":"Gujarat","state_code":"09","district":"Sabarkantha","district_code":"472","address1":"Talod","address2":"","latitude":"23.4195","longitude":"73.0729","accuracy":"3"},{"address3":"Dadarda","state":"Gujarat","state_code":"09","district":"Sabarkantha","district_code":"472","address1":"Talod","address2":"","latitude":"23.4195","longitude":"73.0729","accuracy":"3"},{"address3":"Padusan","state":"Gujarat","state_code":"09","district":"Sabarkantha","district_code":"472","address1":"Talod","address2":"","latitude":"23.4195","longitude":"73.0729","accuracy":"3"},{"address3":"Tajpur (Camp)","state":"Gujarat","state_code":"09","district":"Sabarkantha","district_code":"472","address1":"Talod","address2":"","latitude":"23.4195","longitude":"73.0729","accuracy":"3"},{"address3":"Kabodara","state":"Gujarat","state_code":"09","district":"Sabarkantha","district_code":"472","address1":"Talod","address2":"","latitude":"23.4195","longitude":"73.0729","accuracy":"3"}],"383307":[{"address3":"Rajpur","state":"Gujarat","state_code":"09","district":"Sabarkantha","district_code":"472","address1":"Dhansura","address2":"","latitude":"23.6593","longitude":"73.1637","accuracy":"4"},{"address3":"Ranipura","state":"Gujarat","state_code":"09","district":"Sabarkantha","district_code":"472","address1":"Talod","address2":"","latitude":"23.2466","longitude":"73.1062","accuracy":"3"},{"address3":"Vadagam","state":"Gujarat","state_code":"09","district":"Sabarkantha","district_code":"472","address1":"Dhansura","address2":"","latitude":"23.334","longitude":"73.1363","accuracy":"4"},{"address3":"Sagpur","state":"Gujarat","state_code":"09","district":"Sabarkantha","district_code":"472","address1":"Talod","address2":"","latitude":"23.2466","longitude":"73.1062","accuracy":"3"},{"address3":"Ambasar","state":"Gujarat","state_code":"09","district":"Sabarkantha","district_code":"472","address1":"Dhansura","address2":"","latitude":"23.2466","longitude":"73.1062","accuracy":"3"},{"address3":"Punsari","state":"Gujarat","state_code":"09","district":"Sabarkantha","district_code":"472","address1":"Talod","address2":"","latitude":"23.2466","longitude":"73.1062","accuracy":"3"},{"address3":"Lalinomath","state":"Gujarat","state_code":"09","district":"Sabarkantha","district_code":"472","address1":"Dhansura","address2":"","latitude":"23.2466","longitude":"73.1062","accuracy":"3"},{"address3":"Khilodia","state":"Gujarat","state_code":"09","district":"Sabarkantha","district_code":"472","address1":"Dhansura","address2":"","latitude":"23.2466","longitude":"73.1062","accuracy":"3"}],"383310":[{"address3":"Dhansura","state":"Gujarat","state_code":"09","district":"Sabarkantha","district_code":"472","address1":"Dhansura","address2":"","latitude":"23.348","longitude":"73.209","accuracy":"4"},{"address3":"Kidi","state":"Gujarat","state_code":"09","district":"Sabarkantha","district_code":"472","address1":"Dhansura","address2":"","latitude":"23.2581","longitude":"73.5725","accuracy":"3"},{"address3":"Hirapur","state":"Gujarat","state_code":"09","district":"Sabarkantha","district_code":"472","address1":"Dhansura","address2":"","latitude":"23.6593","longitude":"73.1637","accuracy":"4"},{"address3":"Sika","state":"Gujarat","state_code":"09","district":"Sabarkantha","district_code":"472","address1":"Dhansura","address2":"","latitude":"23.6593","longitude":"73.1637","accuracy":"3"},{"address3":"Butal","state":"Gujarat","state_code":"09","district":"Sabarkantha","district_code":"472","address1":"Dhansura","address2":"","latitude":"23.2581","longitude":"73.5725","accuracy":"3"},{"address3":"Shantipura","state":"Gujarat","state_code":"09","district":"Sabarkantha","district_code":"472","address1":"Dhansura","address2":"","latitude":"23.2581","longitude":"73.5725","accuracy":"3"},{"address3":"Amodara","state":"Gujarat","state_code":"09","district":"Sabarkantha","district_code":"472","address1":"Dhansura","address2":"","latitude":"23.2581","longitude":"73.5725","accuracy":"3"},{"address3":"Dhamania","state":"Gujarat","state_code":"09","district":"Sabarkantha","district_code":"472","address1":"Dhansura","address2":"","latitude":"23.2581","longitude":"73.5725","accuracy":"3"},{"address3":"Jasvantpura Kampa","state":"Gujarat","state_code":"09","district":"Sabarkantha","district_code":"472","address1":"Dhansura","address2":"","latitude":"23.2581","longitude":"73.5725","accuracy":"3"},{"address3":"Naranpura Kampa","state":"Gujarat","state_code":"09","district":"Sabarkantha","district_code":"472","address1":"Dhansura","address2":"","latitude":"23.2581","longitude":"73.5725","accuracy":"3"},{"address3":"Kolvada","state":"Gujarat","state_code":"09","district":"Sabarkantha","district_code":"472","address1":"Dhansura","address2":"","latitude":"23.2581","longitude":"73.5725","accuracy":"3"},{"address3":"Khadoda","state":"Gujarat","state_code":"09","district":"Sabarkantha","district_code":"472","address1":"Dhansura","address2":"","latitude":"23.2581","longitude":"73.5725","accuracy":"3"},{"address3":"Shinol","state":"Gujarat","state_code":"09","district":"Sabarkantha","district_code":"472","address1":"Dhansura","address2":"","latitude":"23.2581","longitude":"73.5725","accuracy":"3"},{"address3":"Navi Shinol","state":"Gujarat","state_code":"09","district":"Sabarkantha","district_code":"472","address1":"Dhansura","address2":"","latitude":"23.2581","longitude":"73.5725","accuracy":"3"},{"address3":"Dolpur","state":"Gujarat","state_code":"09","district":"Sabarkantha","district_code":"472","address1":"Dhansura","address2":"","latitude":"23.2581","longitude":"73.5725","accuracy":"3"},{"address3":"Khadol","state":"Gujarat","state_code":"09","district":"Sabarkantha","district_code":"472","address1":"Dhansura","address2":"","latitude":"23.2581","longitude":"73.5725","accuracy":"3"},{"address3":"Bhensawada","state":"Gujarat","state_code":"09","district":"Sabarkantha","district_code":"472","address1":"Dhansura","address2":"","latitude":"23.2581","longitude":"73.5725","accuracy":"3"},{"address3":"Ujleshvar","state":"Gujarat","state_code":"09","district":"Sabarkantha","district_code":"472","address1":"Dhansura","address2":"","latitude":"23.2581","longitude":"73.5725","accuracy":"3"},{"address3":"Bilwania","state":"Gujarat","state_code":"09","district":"Sabarkantha","district_code":"472","address1":"Dhansura","address2":"","latitude":"23.2581","longitude":"73.5725","accuracy":"3"}],"383315":[{"address3":"Kau","state":"Gujarat","state_code":"09","district":"Sabarkantha","district_code":"472","address1":"Modasa","address2":"","latitude":"23.3831","longitude":"73.3189","accuracy":"4"},{"address3":"Vaniad Kokapur","state":"Gujarat","state_code":"09","district":"Sabarkantha","district_code":"472","address1":"Modasa","address2":"","latitude":"23.5424","longitude":"73.2095","accuracy":"3"},{"address3":"Ganeshpur","state":"Gujarat","state_code":"09","district":"Sabarkantha","district_code":"472","address1":"Modasa","address2":"","latitude":"23.7817","longitude":"73.011","accuracy":"4"},{"address3":"Jhalodar","state":"Gujarat","state_code":"09","district":"Sabarkantha","district_code":"472","address1":"Modasa","address2":"","latitude":"23.5424","longitude":"73.2095","accuracy":"3"},{"address3":"Modasa","state":"Gujarat","state_code":"09","district":"Sabarkantha","district_code":"472","address1":"Modasa","address2":"","latitude":"23.4625","longitude":"73.2986","accuracy":"4"},{"address3":"Rinchvad","state":"Gujarat","state_code":"09","district":"Sabarkantha","district_code":"472","address1":"Modasa","address2":"","latitude":"23.5424","longitude":"73.2095","accuracy":"3"},{"address3":"Dugarvada","state":"Gujarat","state_code":"09","district":"Sabarkantha","district_code":"472","address1":"Modasa","address2":"","latitude":"23.5424","longitude":"73.2095","accuracy":"3"},{"address3":"Mevda","state":"Gujarat","state_code":"09","district":"Sabarkantha","district_code":"472","address1":"Malpur","address2":"","latitude":"23.5424","longitude":"73.2095","accuracy":"3"},{"address3":"Nathavas","state":"Gujarat","state_code":"09","district":"Sabarkantha","district_code":"472","address1":"Malpur","address2":"","latitude":"23.5424","longitude":"73.2095","accuracy":"3"},{"address3":"Pahadpur","state":"Gujarat","state_code":"09","district":"Sabarkantha","district_code":"472","address1":"Modasa","address2":"","latitude":"23.5424","longitude":"73.2095","accuracy":"3"},{"address3":"Ramana","state":"Gujarat","state_code":"09","district":"Sabarkantha","district_code":"472","address1":"Modasa","address2":"","latitude":"23.5424","longitude":"73.2095","accuracy":"3"},{"address3":"Gajan","state":"Gujarat","state_code":"09","district":"Sabarkantha","district_code":"472","address1":"Modasa","address2":"","latitude":"23.5424","longitude":"73.2095","accuracy":"3"},{"address3":"Sayra","state":"Gujarat","state_code":"09","district":"Sabarkantha","district_code":"472","address1":"Modasa","address2":"","latitude":"23.5424","longitude":"73.2095","accuracy":"3"},{"address3":"Mahadevpura Kampa","state":"Gujarat","state_code":"09","district":"Sabarkantha","district_code":"472","address1":"Modasa","address2":"","latitude":"23.5424","longitude":"73.2095","accuracy":"3"},{"address3":"Amlai","state":"Gujarat","state_code":"09","district":"Sabarkantha","district_code":"472","address1":"Modasa","address2":"","latitude":"23.5424","longitude":"73.2095","accuracy":"3"},{"address3":"Kolikhad","state":"Gujarat","state_code":"09","district":"Sabarkantha","district_code":"472","address1":"Modasa","address2":"","latitude":"23.5424","longitude":"73.2095","accuracy":"3"},{"address3":"Sakariya","state":"Gujarat","state_code":"09","district":"Sabarkantha","district_code":"472","address1":"Modasa","address2":"","latitude":"23.5424","longitude":"73.2095","accuracy":"3"},{"address3":"Shinavad","state":"Gujarat","state_code":"09","district":"Sabarkantha","district_code":"472","address1":"Modasa","address2":"","latitude":"23.5424","longitude":"73.2095","accuracy":"3"},{"address3":"Modasa Bazar","state":"Gujarat","state_code":"09","district":"Sabarkantha","district_code":"472","address1":"Modasa","address2":"","latitude":"23.5424","longitude":"73.2095","accuracy":"3"},{"address3":"Muloj","state":"Gujarat","state_code":"09","district":"Sabarkantha","district_code":"472","address1":"Modasa","address2":"","latitude":"23.5424","longitude":"73.2095","accuracy":"3"},{"address3":"Bherunda","state":"Gujarat","state_code":"09","district":"Sabarkantha","district_code":"472","address1":"Modasa","address2":"","latitude":"23.5424","longitude":"73.2095","accuracy":"3"},{"address3":"Madapur Kampa","state":"Gujarat","state_code":"09","district":"Sabarkantha","district_code":"472","address1":"Modasa","address2":"","latitude":"23.5424","longitude":"73.2095","accuracy":"3"},{"address3":"Badodara","state":"Gujarat","state_code":"09","district":"Sabarkantha","district_code":"472","address1":"Modasa","address2":"","latitude":"23.5424","longitude":"73.2095","accuracy":"3"}],"383316":[{"address3":"Ramos","state":"Gujarat","state_code":"09","district":"Sabarkantha","district_code":"472","address1":"Dhansura","address2":"","latitude":"24.1359","longitude":"72.8898","accuracy":"3"},{"address3":"Gadha","state":"Gujarat","state_code":"09","district":"Sabarkantha","district_code":"472","address1":"Modasa","address2":"","latitude":"23.6593","longitude":"73.1637","accuracy":"4"},{"address3":"Itadi","state":"Gujarat","state_code":"09","district":"Sabarkantha","district_code":"472","address1":"Modasa","address2":"","latitude":"24.1359","longitude":"72.8898","accuracy":"3"},{"address3":"Moti Chinchano","state":"Gujarat","state_code":"09","district":"Sabarkantha","district_code":"472","address1":"Modasa","address2":"","latitude":"24.1359","longitude":"72.8898","accuracy":"3"},{"address3":"Bayal Dhankhrol","state":"Gujarat","state_code":"09","district":"Sabarkantha","district_code":"472","address1":"Modasa","address2":"","latitude":"24.1359","longitude":"72.8898","accuracy":"3"},{"address3":"Bhavanpura Kampa","state":"Gujarat","state_code":"09","district":"Sabarkantha","district_code":"472","address1":"Modasa","address2":"","latitude":"24.1359","longitude":"72.8898","accuracy":"3"},{"address3":"Bhachediya","state":"Gujarat","state_code":"09","district":"Sabarkantha","district_code":"472","address1":"Modasa","address2":"","latitude":"24.1359","longitude":"72.8898","accuracy":"3"},{"address3":"Limbhoi","state":"Gujarat","state_code":"09","district":"Sabarkantha","district_code":"472","address1":"Modasa","address2":"","latitude":"24.1359","longitude":"72.8898","accuracy":"3"}],"383317":[{"address3":"Dadhalia","state":"Gujarat","state_code":"09","district":"Sabarkantha","district_code":"472","address1":"Modasa","address2":"","latitude":"23.5568","longitude":"73.3665","accuracy":"4"},{"address3":"Varthu","state":"Gujarat","state_code":"09","district":"Sabarkantha","district_code":"472","address1":"Modasa","address2":"","latitude":"23.5568","longitude":"73.3665","accuracy":"3"},{"address3":"Mahadevgram","state":"Gujarat","state_code":"09","district":"Sabarkantha","district_code":"472","address1":"Modasa","address2":"","latitude":"23.5568","longitude":"73.3665","accuracy":"3"},{"address3":"Moti Isrol","state":"Gujarat","state_code":"09","district":"Sabarkantha","district_code":"472","address1":"Modasa","address2":"","latitude":"23.5568","longitude":"73.3665","accuracy":"3"}],"383320":[{"address3":"Gadhada","state":"Gujarat","state_code":"09","district":"Sabarkantha","district_code":"472","address1":"Modasa","address2":"","latitude":"24.0603","longitude":"72.9536","accuracy":"4"},{"address3":"Sardoi","state":"Gujarat","state_code":"09","district":"Sabarkantha","district_code":"472","address1":"Modasa","address2":"","latitude":"23.5731","longitude":"73.2608","accuracy":"4"},{"address3":"Davli","state":"Gujarat","state_code":"09","district":"Sabarkantha","district_code":"472","address1":"Modasa","address2":"","latitude":"23.8167","longitude":"73.1072","accuracy":"3"},{"address3":"Shampur","state":"Gujarat","state_code":"09","district":"Sabarkantha","district_code":"472","address1":"Modasa","address2":"","latitude":"23.8167","longitude":"73.1072","accuracy":"3"}],"383325":[{"address3":"Dabha","state":"Gujarat","state_code":"09","district":"Sabarkantha","district_code":"472","address1":"Bayad","address2":"","latitude":"23.2026","longitude":"73.1017","accuracy":"4"},{"address3":"Vasnirel","state":"Gujarat","state_code":"09","district":"Sabarkantha","district_code":"472","address1":"Bayad","address2":"","latitude":"23.0915","longitude":"73.3344","accuracy":"3"},{"address3":"Radodara","state":"Gujarat","state_code":"09","district":"Sabarkantha","district_code":"472","address1":"Bayad","address2":"","latitude":"23.6593","longitude":"73.1637","accuracy":"4"},{"address3":"Pipodara","state":"Gujarat","state_code":"09","district":"Sabarkantha","district_code":"472","address1":"Bayad","address2":"","latitude":"23.6593","longitude":"73.1637","accuracy":"4"},{"address3":"Choila","state":"Gujarat","state_code":"09","district":"Sabarkantha","district_code":"472","address1":"Bayad","address2":"","latitude":"23.2186","longitude":"73.1731","accuracy":"4"},{"address3":"Ranechi","state":"Gujarat","state_code":"09","district":"Sabarkantha","district_code":"472","address1":"Bayad","address2":"","latitude":"23.0915","longitude":"73.3344","accuracy":"3"},{"address3":"Amiapura","state":"Gujarat","state_code":"09","district":"Sabarkantha","district_code":"472","address1":"Bayad","address2":"","latitude":"23.1816","longitude":"73.0529","accuracy":"4"},{"address3":"Bhukhel","state":"Gujarat","state_code":"09","district":"Sabarkantha","district_code":"472","address1":"Bayad","address2":"","latitude":"23.2453","longitude":"73.1847","accuracy":"4"},{"address3":"Alwa","state":"Gujarat","state_code":"09","district":"Sabarkantha","district_code":"472","address1":"Bayad","address2":"","latitude":"23.0915","longitude":"73.3344","accuracy":"3"},{"address3":"Limb","state":"Gujarat","state_code":"09","district":"Sabarkantha","district_code":"472","address1":"Bayad","address2":"","latitude":"23.6593","longitude":"73.1637","accuracy":"4"},{"address3":"Ambagam","state":"Gujarat","state_code":"09","district":"Sabarkantha","district_code":"472","address1":"Bayad","address2":"","latitude":"23.2244","longitude":"73.2694","accuracy":"4"},{"address3":"Ambaliara","state":"Gujarat","state_code":"09","district":"Sabarkantha","district_code":"472","address1":"Bayad","address2":"","latitude":"23.0915","longitude":"73.3344","accuracy":"3"},{"address3":"Bayad","state":"Gujarat","state_code":"09","district":"Sabarkantha","district_code":"472","address1":"Bayad","address2":"","latitude":"23.2234","longitude":"73.2149","accuracy":"4"},{"address3":"Bibinivav","state":"Gujarat","state_code":"09","district":"Sabarkantha","district_code":"472","address1":"Bayad","address2":"","latitude":"23.0915","longitude":"73.3344","accuracy":"3"},{"address3":"Ganeshpura","state":"Gujarat","state_code":"09","district":"Sabarkantha","district_code":"472","address1":"Bayad","address2":"","latitude":"23.2459","longitude":"73.2073","accuracy":"4"},{"address3":"Vantda Bayad","state":"Gujarat","state_code":"09","district":"Sabarkantha","district_code":"472","address1":"Bayad","address2":"","latitude":"23.0915","longitude":"73.3344","accuracy":"3"},{"address3":"Untarda","state":"Gujarat","state_code":"09","district":"Sabarkantha","district_code":"472","address1":"Bayad","address2":"","latitude":"23.2367","longitude":"73.0184","accuracy":"4"},{"address3":"Bhundasan","state":"Gujarat","state_code":"09","district":"Sabarkantha","district_code":"472","address1":"Bayad","address2":"","latitude":"23.0915","longitude":"73.3344","accuracy":"3"},{"address3":"Jitpur","state":"Gujarat","state_code":"09","district":"Sabarkantha","district_code":"472","address1":"Bayad","address2":"","latitude":"23.3508","longitude":"73.5401","accuracy":"4"},{"address3":"Dakhneshwar","state":"Gujarat","state_code":"09","district":"Sabarkantha","district_code":"472","address1":"Bayad","address2":"","latitude":"23.0915","longitude":"73.3344","accuracy":"3"},{"address3":"Tenpur","state":"Gujarat","state_code":"09","district":"Sabarkantha","district_code":"472","address1":"Bayad","address2":"","latitude":"23.2084","longitude":"73.0041","accuracy":"4"},{"address3":"Ramos","state":"Gujarat","state_code":"09","district":"Sabarkantha","district_code":"472","address1":"Bayad","address2":"","latitude":"23.0915","longitude":"73.3344","accuracy":"3"}],"383330":[{"address3":"Boral","state":"Gujarat","state_code":"09","district":"Sabarkantha","district_code":"472","address1":"Bayad","address2":"","latitude":"23.1193","longitude":"73.247","accuracy":"3"},{"address3":"Amodara","state":"Gujarat","state_code":"09","district":"Sabarkantha","district_code":"472","address1":"Bayad","address2":"","latitude":"23.1193","longitude":"73.247","accuracy":"3"},{"address3":"Deroli","state":"Gujarat","state_code":"09","district":"Sabarkantha","district_code":"472","address1":"Bayad","address2":"","latitude":"23.087","longitude":"73.2493","accuracy":"4"},{"address3":"Madhavgadh","state":"Gujarat","state_code":"09","district":"Sabarkantha","district_code":"472","address1":"Bayad","address2":"","latitude":"23.1193","longitude":"73.247","accuracy":"3"},{"address3":"Lank","state":"Gujarat","state_code":"09","district":"Sabarkantha","district_code":"472","address1":"Bayad","address2":"","latitude":"23.1517","longitude":"73.2446","accuracy":"4"},{"address3":"Desaipura","state":"Gujarat","state_code":"09","district":"Sabarkantha","district_code":"472","address1":"Bayad","address2":"","latitude":"23.1193","longitude":"73.247","accuracy":"3"},{"address3":"Rampura Kampa","state":"Gujarat","state_code":"09","district":"Sabarkantha","district_code":"472","address1":"Dhansura","address2":"","latitude":"23.1193","longitude":"73.247","accuracy":"3"},{"address3":"Demai","state":"Gujarat","state_code":"09","district":"Sabarkantha","district_code":"472","address1":"Bayad","address2":"","latitude":"23.1193","longitude":"73.247","accuracy":"3"},{"address3":"Chhabhou","state":"Gujarat","state_code":"09","district":"Sabarkantha","district_code":"472","address1":"Bayad","address2":"","latitude":"23.1193","longitude":"73.247","accuracy":"3"}],"383335":[{"address3":"Gabat","state":"Gujarat","state_code":"09","district":"Sabarkantha","district_code":"472","address1":"Bayad","address2":"","latitude":"23.2561","longitude":"73.3374","accuracy":"4"},{"address3":"Gotapur","state":"Gujarat","state_code":"09","district":"Sabarkantha","district_code":"472","address1":"Bayad","address2":"","latitude":"23.2846","longitude":"73.3843","accuracy":"3"},{"address3":"Magodi","state":"Gujarat","state_code":"09","district":"Sabarkantha","district_code":"472","address1":"Malpur","address2":"","latitude":"23.3131","longitude":"73.4311","accuracy":"4"},{"address3":"Barnoli","state":"Gujarat","state_code":"09","district":"Sabarkantha","district_code":"472","address1":"Dhansura","address2":"","latitude":"23.2846","longitude":"73.3843","accuracy":"3"},{"address3":"Vankaneda","state":"Gujarat","state_code":"09","district":"Sabarkantha","district_code":"472","address1":"Malpur","address2":"","latitude":"23.2846","longitude":"73.3843","accuracy":"3"},{"address3":"Bhempoda","state":"Gujarat","state_code":"09","district":"Sabarkantha","district_code":"472","address1":"Malpur","address2":"","latitude":"23.2846","longitude":"73.3843","accuracy":"3"},{"address3":"Khalikpur","state":"Gujarat","state_code":"09","district":"Sabarkantha","district_code":"472","address1":"Malpur","address2":"","latitude":"23.2846","longitude":"73.3843","accuracy":"3"},{"address3":"Sarsoli","state":"Gujarat","state_code":"09","district":"Sabarkantha","district_code":"472","address1":"Bayad","address2":"","latitude":"23.2846","longitude":"73.3843","accuracy":"3"},{"address3":"Ubharan","state":"Gujarat","state_code":"09","district":"Sabarkantha","district_code":"472","address1":"Malpur","address2":"","latitude":"23.2846","longitude":"73.3843","accuracy":"3"},{"address3":"Badarpura","state":"Gujarat","state_code":"09","district":"Sabarkantha","district_code":"472","address1":"Bayad","address2":"","latitude":"23.2846","longitude":"73.3843","accuracy":"3"},{"address3":"Tunadar","state":"Gujarat","state_code":"09","district":"Sabarkantha","district_code":"472","address1":"Malpur","address2":"","latitude":"23.2846","longitude":"73.3843","accuracy":"3"}],"383340":[{"address3":"Talod","state":"Gujarat","state_code":"09","district":"Sabarkantha","district_code":"472","address1":"Bayad","address2":"","latitude":"23.1592","longitude":"73.2786","accuracy":"4"},{"address3":"Savela","state":"Gujarat","state_code":"09","district":"Sabarkantha","district_code":"472","address1":"Bayad","address2":"","latitude":"23.198","longitude":"73.3486","accuracy":"3"},{"address3":"Hathipura","state":"Gujarat","state_code":"09","district":"Sabarkantha","district_code":"472","address1":"Bayad","address2":"","latitude":"23.1505","longitude":"73.3496","accuracy":"4"},{"address3":"Indran","state":"Gujarat","state_code":"09","district":"Sabarkantha","district_code":"472","address1":"Bayad","address2":"","latitude":"23.1279","longitude":"73.3138","accuracy":"4"},{"address3":"Jalampur","state":"Gujarat","state_code":"09","district":"Sabarkantha","district_code":"472","address1":"Bayad","address2":"","latitude":"23.198","longitude":"73.3486","accuracy":"3"},{"address3":"Bordi","state":"Gujarat","state_code":"09","district":"Sabarkantha","district_code":"472","address1":"Bayad","address2":"","latitude":"23.1404","longitude":"73.2951","accuracy":"4"},{"address3":"Sathamba","state":"Gujarat","state_code":"09","district":"Sabarkantha","district_code":"472","address1":"Bayad","address2":"","latitude":"23.1705","longitude":"73.3283","accuracy":"4"},{"address3":"Odha","state":"Gujarat","state_code":"09","district":"Sabarkantha","district_code":"472","address1":"Bayad","address2":"","latitude":"23.4394","longitude":"73.5261","accuracy":"4"}],"383345":[{"address3":"Vavdi","state":"Gujarat","state_code":"09","district":"Sabarkantha","district_code":"472","address1":"Malpur","address2":"","latitude":"23.6593","longitude":"73.1637","accuracy":"4"},{"address3":"Faredi","state":"Gujarat","state_code":"09","district":"Sabarkantha","district_code":"472","address1":"Modasa","address2":"","latitude":"22.8371","longitude":"73.5102","accuracy":"3"},{"address3":"Mahiyapur","state":"Gujarat","state_code":"09","district":"Sabarkantha","district_code":"472","address1":"Malpur","address2":"","latitude":"22.8371","longitude":"73.5102","accuracy":"3"},{"address3":"Helodar","state":"Gujarat","state_code":"09","district":"Sabarkantha","district_code":"472","address1":"Malpur","address2":"","latitude":"23.2992","longitude":"73.5071","accuracy":"4"},{"address3":"Kaswada","state":"Gujarat","state_code":"09","district":"Sabarkantha","district_code":"472","address1":"Malpur","address2":"","latitude":"22.8371","longitude":"73.5102","accuracy":"3"},{"address3":"Malpur","state":"Gujarat","state_code":"09","district":"Sabarkantha","district_code":"472","address1":"Malpur","address2":"","latitude":"23.3603","longitude":"73.466","accuracy":"4"},{"address3":"Mangalpur","state":"Gujarat","state_code":"09","district":"Sabarkantha","district_code":"472","address1":"Malpur","address2":"","latitude":"22.8371","longitude":"73.5102","accuracy":"3"},{"address3":"Aniyor Kampa","state":"Gujarat","state_code":"09","district":"Sabarkantha","district_code":"472","address1":"Malpur","address2":"","latitude":"22.8371","longitude":"73.5102","accuracy":"3"},{"address3":"Piprana","state":"Gujarat","state_code":"09","district":"Sabarkantha","district_code":"472","address1":"Malpur","address2":"","latitude":"22.8371","longitude":"73.5102","accuracy":"3"},{"address3":"Satarda","state":"Gujarat","state_code":"09","district":"Sabarkantha","district_code":"472","address1":"Malpur","address2":"","latitude":"22.8371","longitude":"73.5102","accuracy":"3"},{"address3":"Nanawada","state":"Gujarat","state_code":"09","district":"Sabarkantha","district_code":"472","address1":"Malpur","address2":"","latitude":"22.8371","longitude":"73.5102","accuracy":"3"},{"address3":"Rambhoda","state":"Gujarat","state_code":"09","district":"Sabarkantha","district_code":"472","address1":"Malpur","address2":"","latitude":"22.8371","longitude":"73.5102","accuracy":"3"},{"address3":"Aniyor","state":"Gujarat","state_code":"09","district":"Sabarkantha","district_code":"472","address1":"Malpur","address2":"","latitude":"22.8371","longitude":"73.5102","accuracy":"3"},{"address3":"Ambalia","state":"Gujarat","state_code":"09","district":"Ahmedabad","district_code":"474","address1":"NA","address2":"","latitude":"22.8371","longitude":"73.5102","accuracy":"3"}],"383350":[{"address3":"Vasna","state":"Gujarat","state_code":"09","district":"Sabarkantha","district_code":"472","address1":"Meghraj","address2":"","latitude":"23.4819","longitude":"73.5033","accuracy":"4"},{"address3":"Kunol","state":"Gujarat","state_code":"09","district":"Sabarkantha","district_code":"472","address1":"Meghraj","address2":"","latitude":"23.5767","longitude":"73.4701","accuracy":"4"},{"address3":"Relyo","state":"Gujarat","state_code":"09","district":"Sabarkantha","district_code":"472","address1":"Meghraj","address2":"","latitude":"23.5037","longitude":"73.542","accuracy":"3"},{"address3":"Lalpur","state":"Gujarat","state_code":"09","district":"Sabarkantha","district_code":"472","address1":"Meghraj","address2":"","latitude":"23.5383","longitude":"73.5549","accuracy":"4"},{"address3":"Limbodara","state":"Gujarat","state_code":"09","district":"Sabarkantha","district_code":"472","address1":"Meghraj","address2":"","latitude":"23.6593","longitude":"73.1637","accuracy":"4"},{"address3":"Vaghpur","state":"Gujarat","state_code":"09","district":"Sabarkantha","district_code":"472","address1":"Meghraj","address2":"","latitude":"23.5037","longitude":"73.542","accuracy":"3"},{"address3":"Panchal","state":"Gujarat","state_code":"09","district":"Sabarkantha","district_code":"472","address1":"Meghraj","address2":"","latitude":"23.5825","longitude":"73.5341","accuracy":"4"},{"address3":"Meghraj","state":"Gujarat","state_code":"09","district":"Sabarkantha","district_code":"472","address1":"Meghraj","address2":"","latitude":"23.498","longitude":"73.5135","accuracy":"4"},{"address3":"Sisodara (A)","state":"Gujarat","state_code":"09","district":"Sabarkantha","district_code":"472","address1":"Meghraj","address2":"","latitude":"23.5037","longitude":"73.542","accuracy":"3"},{"address3":"Valuna","state":"Gujarat","state_code":"09","district":"Sabarkantha","district_code":"472","address1":"Meghraj","address2":"","latitude":"23.5037","longitude":"73.542","accuracy":"3"},{"address3":"Shangal","state":"Gujarat","state_code":"09","district":"Sabarkantha","district_code":"472","address1":"Meghraj","address2":"","latitude":"23.5037","longitude":"73.542","accuracy":"3"},{"address3":"Kasana","state":"Gujarat","state_code":"09","district":"Sabarkantha","district_code":"472","address1":"Meghraj","address2":"","latitude":"23.577","longitude":"73.5615","accuracy":"4"},{"address3":"Kadvadi","state":"Gujarat","state_code":"09","district":"Sabarkantha","district_code":"472","address1":"Meghraj","address2":"","latitude":"23.5037","longitude":"73.542","accuracy":"3"},{"address3":"Moti Mori","state":"Gujarat","state_code":"09","district":"Sabarkantha","district_code":"472","address1":"Meghraj","address2":"","latitude":"23.5774","longitude":"73.607","accuracy":"4"},{"address3":"Belyo","state":"Gujarat","state_code":"09","district":"Sabarkantha","district_code":"472","address1":"Meghraj","address2":"","latitude":"23.5037","longitude":"73.542","accuracy":"3"},{"address3":"Jamgadh","state":"Gujarat","state_code":"09","district":"Sabarkantha","district_code":"472","address1":"Modasa","address2":"","latitude":"23.5037","longitude":"73.542","accuracy":"3"},{"address3":"Behdaj","state":"Gujarat","state_code":"09","district":"Sabarkantha","district_code":"472","address1":"Meghraj","address2":"","latitude":"23.5037","longitude":"73.542","accuracy":"3"},{"address3":"Rayawada","state":"Gujarat","state_code":"09","district":"Sabarkantha","district_code":"472","address1":"Meghraj","address2":"","latitude":"23.5037","longitude":"73.542","accuracy":"3"},{"address3":"Bhemapur","state":"Gujarat","state_code":"09","district":"Sabarkantha","district_code":"472","address1":"Meghraj","address2":"","latitude":"23.5037","longitude":"73.542","accuracy":"3"},{"address3":"Moti Moydi","state":"Gujarat","state_code":"09","district":"Sabarkantha","district_code":"472","address1":"Meghraj","address2":"","latitude":"23.5037","longitude":"73.542","accuracy":"3"},{"address3":"Patelna Dhundha","state":"Gujarat","state_code":"09","district":"Sabarkantha","district_code":"472","address1":"Meghraj","address2":"","latitude":"23.5037","longitude":"73.542","accuracy":"3"},{"address3":"Vaniawada","state":"Gujarat","state_code":"09","district":"Sabarkantha","district_code":"472","address1":"Meghraj","address2":"","latitude":"23.5037","longitude":"73.542","accuracy":"3"},{"address3":"Zarda","state":"Gujarat","state_code":"09","district":"Sabarkantha","district_code":"472","address1":"Meghraj","address2":"","latitude":"23.5037","longitude":"73.542","accuracy":"3"},{"address3":"Ramgadhi","state":"Gujarat","state_code":"09","district":"Sabarkantha","district_code":"472","address1":"Meghraj","address2":"","latitude":"23.5037","longitude":"73.542","accuracy":"3"},{"address3":"Iploda","state":"Gujarat","state_code":"09","district":"Sabarkantha","district_code":"472","address1":"Meghraj","address2":"","latitude":"23.5037","longitude":"73.542","accuracy":"3"},{"address3":"Kaliya Kuva","state":"Gujarat","state_code":"09","district":"Sabarkantha","district_code":"472","address1":"Meghraj","address2":"","latitude":"23.5037","longitude":"73.542","accuracy":"3"},{"address3":"Banthiwada","state":"Gujarat","state_code":"09","district":"Sabarkantha","district_code":"472","address1":"Meghraj","address2":"","latitude":"23.5037","longitude":"73.542","accuracy":"3"},{"address3":"Kolundra","state":"Gujarat","state_code":"09","district":"Sabarkantha","district_code":"472","address1":"Meghraj","address2":"","latitude":"23.5037","longitude":"73.542","accuracy":"3"},{"address3":"Undava","state":"Gujarat","state_code":"09","district":"Sabarkantha","district_code":"472","address1":"Meghraj","address2":"","latitude":"23.5037","longitude":"73.542","accuracy":"3"}],"383355":[{"address3":"Palla","state":"Gujarat","state_code":"09","district":"Sabarkantha","district_code":"472","address1":"Bhiloda","address2":"","latitude":"23.5863","longitude":"73.5829","accuracy":"4"},{"address3":"Napda","state":"Gujarat","state_code":"09","district":"Sabarkantha","district_code":"472","address1":"Bhiloda","address2":"","latitude":"23.5863","longitude":"73.5829","accuracy":"3"},{"address3":"Devnimori","state":"Gujarat","state_code":"09","district":"Sabarkantha","district_code":"472","address1":"Bhiloda","address2":"","latitude":"23.5863","longitude":"73.5829","accuracy":"3"},{"address3":"Dhambolia","state":"Gujarat","state_code":"09","district":"Sabarkantha","district_code":"472","address1":"Bhiloda","address2":"","latitude":"23.5863","longitude":"73.5829","accuracy":"3"},{"address3":"Kherancha","state":"Gujarat","state_code":"09","district":"Sabarkantha","district_code":"472","address1":"Bhiloda","address2":"","latitude":"23.5863","longitude":"73.5829","accuracy":"3"},{"address3":"Panch Mahudi","state":"Gujarat","state_code":"09","district":"Sabarkantha","district_code":"472","address1":"Bhiloda","address2":"","latitude":"23.5863","longitude":"73.5829","accuracy":"3"},{"address3":"Dodisara","state":"Gujarat","state_code":"09","district":"Sabarkantha","district_code":"472","address1":"Bhiloda","address2":"","latitude":"23.5863","longitude":"73.5829","accuracy":"3"},{"address3":"Shamlaji","state":"Gujarat","state_code":"09","district":"Sabarkantha","district_code":"472","address1":"Bhiloda","address2":"","latitude":"23.5863","longitude":"73.5829","accuracy":"3"},{"address3":"Jab Chitaria","state":"Gujarat","state_code":"09","district":"Sabarkantha","district_code":"472","address1":"Bhiloda","address2":"","latitude":"23.5863","longitude":"73.5829","accuracy":"3"},{"address3":"Ode","state":"Gujarat","state_code":"09","district":"Sabarkantha","district_code":"472","address1":"Bhiloda","address2":"","latitude":"23.5863","longitude":"73.5829","accuracy":"3"},{"address3":"Karchha","state":"Gujarat","state_code":"09","district":"Sabarkantha","district_code":"472","address1":"Bhiloda","address2":"","latitude":"23.5863","longitude":"73.5829","accuracy":"3"},{"address3":"Dhandhasan","state":"Gujarat","state_code":"09","district":"Sabarkantha","district_code":"472","address1":"Bhiloda","address2":"","latitude":"23.5863","longitude":"73.5829","accuracy":"3"},{"address3":"Sarvoday Kendra","state":"Gujarat","state_code":"09","district":"Sabarkantha","district_code":"472","address1":"Bhiloda","address2":"","latitude":"23.5863","longitude":"73.5829","accuracy":"3"}],"383410":[{"address3":"Lalpur","state":"Gujarat","state_code":"09","district":"Sabarkantha","district_code":"472","address1":"Idar","address2":"","latitude":"23.8317","longitude":"73.0534","accuracy":"4"},{"address3":"Badoli","state":"Gujarat","state_code":"09","district":"Sabarkantha","district_code":"472","address1":"Idar","address2":"","latitude":"23.8249","longitude":"73.0715","accuracy":"4"},{"address3":"Ganthiol","state":"Gujarat","state_code":"09","district":"Sabarkantha","district_code":"472","address1":"Idar","address2":"","latitude":"23.8106","longitude":"73.0628","accuracy":"3"},{"address3":"Sherpur","state":"Gujarat","state_code":"09","district":"Sabarkantha","district_code":"472","address1":"Idar","address2":"","latitude":"23.7849","longitude":"73.0351","accuracy":"4"},{"address3":"Ankala","state":"Gujarat","state_code":"09","district":"Sabarkantha","district_code":"472","address1":"Idar","address2":"","latitude":"23.7628","longitude":"73.0478","accuracy":"4"},{"address3":"Kukadia","state":"Gujarat","state_code":"09","district":"Sabarkantha","district_code":"472","address1":"Idar","address2":"","latitude":"23.8106","longitude":"73.0628","accuracy":"3"},{"address3":"Bhanpur","state":"Gujarat","state_code":"09","district":"Sabarkantha","district_code":"472","address1":"Idar","address2":"","latitude":"23.8488","longitude":"73.1064","accuracy":"4"},{"address3":"Diyoli","state":"Gujarat","state_code":"09","district":"Sabarkantha","district_code":"472","address1":"Idar","address2":"","latitude":"23.8106","longitude":"73.0628","accuracy":"3"},{"address3":"Goral","state":"Gujarat","state_code":"09","district":"Sabarkantha","district_code":"472","address1":"Idar","address2":"","latitude":"23.8106","longitude":"73.0628","accuracy":"3"}],"383421":[{"address3":"Chitroda","state":"Gujarat","state_code":"09","district":"Sabarkantha","district_code":"472","address1":"Idar","address2":"","latitude":"23.7589","longitude":"73.0813","accuracy":"4"},{"address3":"Poshina","state":"Gujarat","state_code":"09","district":"Sabarkantha","district_code":"472","address1":"Idar","address2":"","latitude":"23.7425","longitude":"73.0696","accuracy":"3"},{"address3":"Bolundra(R)","state":"Gujarat","state_code":"09","district":"Sabarkantha","district_code":"472","address1":"Idar","address2":"","latitude":"23.7425","longitude":"73.0696","accuracy":"3"},{"address3":"Sabli","state":"Gujarat","state_code":"09","district":"Sabarkantha","district_code":"472","address1":"Idar","address2":"","latitude":"23.7262","longitude":"73.0578","accuracy":"4"},{"address3":"Mota Kotda","state":"Gujarat","state_code":"09","district":"Sabarkantha","district_code":"472","address1":"Idar","address2":"","latitude":"23.7425","longitude":"73.0696","accuracy":"3"},{"address3":"Dharapur","state":"Gujarat","state_code":"09","district":"Sabarkantha","district_code":"472","address1":"Idar","address2":"","latitude":"23.7425","longitude":"73.0696","accuracy":"3"}],"383422":[{"address3":"Ganer","state":"Gujarat","state_code":"09","district":"Sabarkantha","district_code":"472","address1":"Khedbrahma","address2":"","latitude":"24.3201","longitude":"73.0872","accuracy":"4"},{"address3":"Kalikankar","state":"Gujarat","state_code":"09","district":"Sabarkantha","district_code":"472","address1":"Khedbrahma","address2":"","latitude":"24.4647","longitude":"73.0841","accuracy":"4"},{"address3":"Kotda","state":"Gujarat","state_code":"09","district":"Sabarkantha","district_code":"472","address1":"Khedbrahma","address2":"","latitude":"24.3758","longitude":"73.0586","accuracy":"3"},{"address3":"Salera","state":"Gujarat","state_code":"09","district":"Sabarkantha","district_code":"472","address1":"Khedbrahma","address2":"","latitude":"24.4011","longitude":"73.0428","accuracy":"4"},{"address3":"Vinchhi","state":"Gujarat","state_code":"09","district":"Sabarkantha","district_code":"472","address1":"Khedbrahma","address2":"","latitude":"24.3758","longitude":"73.0586","accuracy":"3"},{"address3":"Dantral","state":"Gujarat","state_code":"09","district":"Sabarkantha","district_code":"472","address1":"Khedbrahma","address2":"","latitude":"24.3174","longitude":"73.0203","accuracy":"4"},{"address3":"Sembalia (Poshina)","state":"Gujarat","state_code":"09","district":"Sabarkantha","district_code":"472","address1":"Khedbrahma","address2":"","latitude":"24.3758","longitude":"73.0586","accuracy":"3"},{"address3":"Ajavas","state":"Gujarat","state_code":"09","district":"Sabarkantha","district_code":"472","address1":"Khedbrahma","address2":"","latitude":"24.3758","longitude":"73.0586","accuracy":"3"},{"address3":"Petachhapra","state":"Gujarat","state_code":"09","district":"Sabarkantha","district_code":"472","address1":"Khedbrahma","address2":"","latitude":"24.3758","longitude":"73.0586","accuracy":"3"},{"address3":"Tadhivedi","state":"Gujarat","state_code":"09","district":"Sabarkantha","district_code":"472","address1":"Khedbrahma","address2":"","latitude":"24.3758","longitude":"73.0586","accuracy":"3"},{"address3":"Ganva","state":"Gujarat","state_code":"09","district":"Sabarkantha","district_code":"472","address1":"Khedbrahma","address2":"","latitude":"24.3758","longitude":"73.0586","accuracy":"3"},