{"414001":[{"address3":"Sarjepura","state":"Maharashtra","state_code":"16","district":"Ahmed Nagar","district_code":"522","address1":"Ahmednagar","address2":"","latitude":"19.0512","longitude":"75.1407","accuracy":"1"},{"address3":"Anandibazar","state":"Maharashtra","state_code":"16","district":"Ahmed Nagar","district_code":"522","address1":"Ahmednagar","address2":"","latitude":"19.0512","longitude":"75.1407","accuracy":"1"},{"address3":"Ahmednagar City","state":"Maharashtra","state_code":"16","district":"Ahmed Nagar","district_code":"522","address1":"Ahmednagar","address2":"","latitude":"19.0512","longitude":"75.1407","accuracy":"1"},{"address3":"M.G.Udyan","state":"Maharashtra","state_code":"16","district":"Ahmed Nagar","district_code":"522","address1":"Ahmednagar","address2":"","latitude":"19.0512","longitude":"75.1407","accuracy":"1"},{"address3":"Ahmednagar H.O","state":"Maharashtra","state_code":"16","district":"Ahmed Nagar","district_code":"522","address1":"Ahmednagar","address2":"","latitude":"19.0512","longitude":"75.1407","accuracy":"1"}],"414002":[{"address3":"Kaudgaon","state":"Maharashtra","state_code":"16","district":"Ahmed Nagar","district_code":"522","address1":"NA","address2":"","latitude":"19.1064","longitude":"74.9107","accuracy":"4"},{"address3":"Bhingar","state":"Maharashtra","state_code":"16","district":"Ahmed Nagar","district_code":"522","address1":"Ahmednagar","address2":"","latitude":"18.6966","longitude":"75.7265","accuracy":"3"},{"address3":"Ruichattisi","state":"Maharashtra","state_code":"16","district":"Ahmed Nagar","district_code":"522","address1":"NA","address2":"","latitude":"18.9055","longitude":"74.842","accuracy":"4"},{"address3":"Ahmednagar Camp","state":"Maharashtra","state_code":"16","district":"Ahmed Nagar","district_code":"522","address1":"Ahmednagar","address2":"","latitude":"18.6966","longitude":"75.7265","accuracy":"3"},{"address3":"Watephal","state":"Maharashtra","state_code":"16","district":"Ahmed Nagar","district_code":"522","address1":"NA","address2":"","latitude":"18.6966","longitude":"75.7265","accuracy":"3"},{"address3":"Darewadi","state":"Maharashtra","state_code":"16","district":"Ahmed Nagar","district_code":"522","address1":"Ahmednagar","address2":"","latitude":"19.2034","longitude":"74.6769","accuracy":"4"},{"address3":"Bhingar Wes","state":"Maharashtra","state_code":"16","district":"Ahmed Nagar","district_code":"522","address1":"Ahmednagar","address2":"","latitude":"18.6966","longitude":"75.7265","accuracy":"3"},{"address3":"Shiradhon","state":"Maharashtra","state_code":"16","district":"Ahmed Nagar","district_code":"522","address1":"NA","address2":"","latitude":"19.2034","longitude":"74.6769","accuracy":"4"},{"address3":"Nimbodi","state":"Maharashtra","state_code":"16","district":"Ahmed Nagar","district_code":"522","address1":"NA","address2":"","latitude":"18.6966","longitude":"75.7265","accuracy":"3"},{"address3":"Agadgaon","state":"Maharashtra","state_code":"16","district":"Ahmed Nagar","district_code":"522","address1":"Ahmednagar","address2":"","latitude":"18.6966","longitude":"75.7265","accuracy":"3"},{"address3":"Gunwadi","state":"Maharashtra","state_code":"16","district":"Ahmed Nagar","district_code":"522","address1":"NA","address2":"","latitude":"18.6966","longitude":"75.7265","accuracy":"3"},{"address3":"Burhan Nagar","state":"Maharashtra","state_code":"16","district":"Ahmed Nagar","district_code":"522","address1":"Ahmednagar","address2":"","latitude":"18.6966","longitude":"75.7265","accuracy":"3"},{"address3":"Kapurwadi","state":"Maharashtra","state_code":"16","district":"Ahmed Nagar","district_code":"522","address1":"NA","address2":"","latitude":"18.6966","longitude":"75.7265","accuracy":"3"},{"address3":"Mehekari","state":"Maharashtra","state_code":"16","district":"Ahmed Nagar","district_code":"522","address1":"Nagar","address2":"","latitude":"18.6966","longitude":"75.7265","accuracy":"3"},{"address3":"Nagardeola","state":"Maharashtra","state_code":"16","district":"Ahmed Nagar","district_code":"522","address1":"NA","address2":"","latitude":"18.6966","longitude":"75.7265","accuracy":"3"}],"414003":[{"address3":"Savedi Road","state":"Maharashtra","state_code":"16","district":"Ahmed Nagar","district_code":"522","address1":"Ahmednagar","address2":"","latitude":"19.0512","longitude":"75.1407","accuracy":"1"}],"414005":[{"address3":"Nimgaon Wagha","state":"Maharashtra","state_code":"16","district":"Ahmed Nagar","district_code":"522","address1":"Ahmednagar","address2":"","latitude":"19.2306","longitude":"74.6025","accuracy":"3"},{"address3":"Chas","state":"Maharashtra","state_code":"16","district":"Ahmed Nagar","district_code":"522","address1":"Ahmednagar","address2":"","latitude":"19.0346","longitude":"74.6496","accuracy":"4"},{"address3":"Kamargaon","state":"Maharashtra","state_code":"16","district":"Ahmed Nagar","district_code":"522","address1":"Ahmednagar","address2":"","latitude":"19.2034","longitude":"74.6769","accuracy":"3"},{"address3":"Nepti","state":"Maharashtra","state_code":"16","district":"Ahmed Nagar","district_code":"522","address1":"Ahmednagar","address2":"","latitude":"19.2306","longitude":"74.6025","accuracy":"3"},{"address3":"Ghospuri","state":"Maharashtra","state_code":"16","district":"Ahmed Nagar","district_code":"522","address1":"Ahmednagar","address2":"","latitude":"19.2306","longitude":"74.6025","accuracy":"3"},{"address3":"Ahmednagar R.S.","state":"Maharashtra","state_code":"16","district":"Ahmed Nagar","district_code":"522","address1":"Ahmednagar","address2":"","latitude":"19.2306","longitude":"74.6025","accuracy":"3"},{"address3":"Sarola Kasar","state":"Maharashtra","state_code":"16","district":"Ahmed Nagar","district_code":"522","address1":"Ahmedangar","address2":"","latitude":"19.2306","longitude":"74.6025","accuracy":"3"},{"address3":"Astagaon","state":"Maharashtra","state_code":"16","district":"Ahmed Nagar","district_code":"522","address1":"Ahmednagar","address2":"","latitude":"19.6713","longitude":"74.5026","accuracy":"4"},{"address3":"Pimpalgaon Kauda","state":"Maharashtra","state_code":"16","district":"Ahmed Nagar","district_code":"522","address1":"Ahmednagar","address2":"","latitude":"19.2306","longitude":"74.6025","accuracy":"3"},{"address3":"Bhorwadi","state":"Maharashtra","state_code":"16","district":"Ahmed Nagar","district_code":"522","address1":"Ahmednagar","address2":"","latitude":"19.2306","longitude":"74.6025","accuracy":"3"},{"address3":"Akolner","state":"Maharashtra","state_code":"16","district":"Ahmed Nagar","district_code":"522","address1":"Ahmednagar","address2":"","latitude":"18.9859","longitude":"74.6554","accuracy":"4"},{"address3":"Bhoyare Pathar","state":"Maharashtra","state_code":"16","district":"Ahmed Nagar","district_code":"522","address1":"Ahmednagar","address2":"","latitude":"19.2306","longitude":"74.6025","accuracy":"3"}],"414006":[{"address3":"Vadgaon Tandali","state":"Maharashtra","state_code":"16","district":"Ahmed Nagar","district_code":"522","address1":"Ahmednagar","address2":"","latitude":"19.4913","longitude":"74.7761","accuracy":"3"},{"address3":"Walki","state":"Maharashtra","state_code":"16","district":"Ahmed Nagar","district_code":"522","address1":"Ahmednagar","address2":"","latitude":"18.9628","longitude":"74.7538","accuracy":"4"},{"address3":"Vahannagar","state":"Maharashtra","state_code":"16","district":"Ahmed Nagar","district_code":"522","address1":"Ahmednagar","address2":"","latitude":"19.4913","longitude":"74.7761","accuracy":"3"},{"address3":"Khandala","state":"Maharashtra","state_code":"16","district":"Ahmed Nagar","district_code":"522","address1":"Ahmednagar","address2":"","latitude":"19.2034","longitude":"74.6769","accuracy":"4"},{"address3":"Meherabad","state":"Maharashtra","state_code":"16","district":"Ahmed Nagar","district_code":"522","address1":"Ahmednagar","address2":"","latitude":"19.4913","longitude":"74.7761","accuracy":"3"},{"address3":"Deulgaon Sidhhi","state":"Maharashtra","state_code":"16","district":"Ahmed Nagar","district_code":"522","address1":"Ahmednagar","address2":"","latitude":"19.4913","longitude":"74.7761","accuracy":"3"},{"address3":"Baburdi Ghumat","state":"Maharashtra","state_code":"16","district":"Ahmed Nagar","district_code":"522","address1":"Ahmednagar","address2":"","latitude":"19.4913","longitude":"74.7761","accuracy":"3"},{"address3":"Hivare Zare","state":"Maharashtra","state_code":"16","district":"Ahmed Nagar","district_code":"522","address1":"Ahmednagar","address2":"","latitude":"19.4913","longitude":"74.7761","accuracy":"3"}],"414101":[{"address3":"Mandavgan","state":"Maharashtra","state_code":"16","district":"Ahmed Nagar","district_code":"522","address1":"Shrigonda","address2":"","latitude":"18.831","longitude":"74.831","accuracy":"4"},{"address3":"Gundegaon","state":"Maharashtra","state_code":"16","district":"Ahmed Nagar","district_code":"522","address1":"Shrigonda","address2":"","latitude":"19.2034","longitude":"74.6769","accuracy":"3"},{"address3":"Ralegan","state":"Maharashtra","state_code":"16","district":"Ahmed Nagar","district_code":"522","address1":"Shrigonda","address2":"","latitude":"18.9154","longitude":"74.415","accuracy":"4"},{"address3":"Pisorekhand","state":"Maharashtra","state_code":"16","district":"Ahmed Nagar","district_code":"522","address1":"Shrigonda","address2":"","latitude":"18.8732","longitude":"74.623","accuracy":"3"}],"414102":[{"address3":"Wadgaon","state":"Maharashtra","state_code":"16","district":"Ahmed Nagar","district_code":"522","address1":"Pathardi","address2":"","latitude":"19.5892","longitude":"74.2742","accuracy":"4"},{"address3":"Tondoli","state":"Maharashtra","state_code":"16","district":"Ahmed Nagar","district_code":"522","address1":"Pathardi","address2":"","latitude":"19.2034","longitude":"74.6769","accuracy":"4"},{"address3":"Sakegaon","state":"Maharashtra","state_code":"16","district":"Ahmed Nagar","district_code":"522","address1":"Pathardi","address2":"","latitude":"19.2034","longitude":"74.6769","accuracy":"4"},{"address3":"Mohote","state":"Maharashtra","state_code":"16","district":"Ahmed Nagar","district_code":"522","address1":"Pathardi","address2":"","latitude":"19.7058","longitude":"75.0227","accuracy":"3"},{"address3":"Manikdaundi","state":"Maharashtra","state_code":"16","district":"Ahmed Nagar","district_code":"522","address1":"Pathardi","address2":"","latitude":"19.0861","longitude":"75.1475","accuracy":"4"},{"address3":"Pagori Pimpalgaon","state":"Maharashtra","state_code":"16","district":"Ahmed Nagar","district_code":"522","address1":"Pathardi","address2":"","latitude":"19.7058","longitude":"75.0227","accuracy":"3"},{"address3":"Jatdeola","state":"Maharashtra","state_code":"16","district":"Ahmed Nagar","district_code":"522","address1":"Pathardi","address2":"","latitude":"19.7058","longitude":"75.0227","accuracy":"3"},{"address3":"Pimpalgaontappa","state":"Maharashtra","state_code":"16","district":"Ahmed Nagar","district_code":"522","address1":"Pathardi","address2":"","latitude":"19.7058","longitude":"75.0227","accuracy":"3"},{"address3":"Chichpur Pangul","state":"Maharashtra","state_code":"16","district":"Ahmed Nagar","district_code":"522","address1":"Pathardi","address2":"","latitude":"19.7058","longitude":"75.0227","accuracy":"3"},{"address3":"Takali Manur","state":"Maharashtra","state_code":"16","district":"Ahmed Nagar","district_code":"522","address1":"Pathardi","address2":"","latitude":"19.7058","longitude":"75.0227","accuracy":"3"},{"address3":"Chinchpur Ijde","state":"Maharashtra","state_code":"16","district":"Ahmed Nagar","district_code":"522","address1":"Pathardi","address2":"","latitude":"19.7058","longitude":"75.0227","accuracy":"3"},{"address3":"Koradgaon","state":"Maharashtra","state_code":"16","district":"Ahmed Nagar","district_code":"522","address1":"Pathardi","address2":"","latitude":"19.232","longitude":"75.2922","accuracy":"4"},{"address3":"Pathardi","state":"Maharashtra","state_code":"16","district":"Ahmed Nagar","district_code":"522","address1":"Pathardi","address2":"","latitude":"19.1728","longitude":"75.1743","accuracy":"4"},{"address3":"Alhanwadi","state":"Maharashtra","state_code":"16","district":"Ahmed Nagar","district_code":"522","address1":"Pathardi","address2":"","latitude":"19.7058","longitude":"75.0227","accuracy":"3"},{"address3":"Nipani Jalgaon","state":"Maharashtra","state_code":"16","district":"Ahmed Nagar","district_code":"522","address1":"Pathardi","address2":"","latitude":"19.2034","longitude":"74.6769","accuracy":"4"},{"address3":"Akhegaon Titarfa","state":"Maharashtra","state_code":"16","district":"Ahmed Nagar","district_code":"522","address1":"Pathardi","address2":"","latitude":"19.7058","longitude":"75.0227","accuracy":"3"},{"address3":"Kasba Pathardi","state":"Maharashtra","state_code":"16","district":"Ahmed Nagar","district_code":"522","address1":"Pathardi","address2":"","latitude":"19.7058","longitude":"75.0227","accuracy":"3"},{"address3":"Mohojdeoda","state":"Maharashtra","state_code":"16","district":"Ahmed Nagar","district_code":"522","address1":"Pathardi","address2":"","latitude":"19.7058","longitude":"75.0227","accuracy":"3"},{"address3":"Akola","state":"Maharashtra","state_code":"16","district":"Ahmed Nagar","district_code":"522","address1":"Pathardi","address2":"","latitude":"19.5424","longitude":"74.0095","accuracy":"4"}],"414103":[{"address3":"Hingangaon","state":"Maharashtra","state_code":"16","district":"Ahmed Nagar","district_code":"522","address1":"Parner","address2":"","latitude":"19.4097","longitude":"75.1954","accuracy":"4"},{"address3":"Hiware Korda","state":"Maharashtra","state_code":"16","district":"Ahmed Nagar","district_code":"522","address1":"Parner","address2":"","latitude":"18.9511","longitude":"74.3846","accuracy":"3"},{"address3":"Jamgaon","state":"Maharashtra","state_code":"16","district":"Ahmed Nagar","district_code":"522","address1":"Parner","address2":"","latitude":"19.0632","longitude":"74.5208","accuracy":"4"},{"address3":"Bhandgaon","state":"Maharashtra","state_code":"16","district":"Ahmed Nagar","district_code":"522","address1":"Parner","address2":"","latitude":"18.9511","longitude":"74.3846","accuracy":"3"},{"address3":"Goregaon","state":"Maharashtra","state_code":"16","district":"Ahmed Nagar","district_code":"522","address1":"Parner","address2":"","latitude":"19.2034","longitude":"74.6769","accuracy":"4"},{"address3":"Bhawlani","state":"Maharashtra","state_code":"16","district":"Ahmed Nagar","district_code":"522","address1":"Parner","address2":"","latitude":"18.9511","longitude":"74.3846","accuracy":"3"},{"address3":"Dhawalpuri","state":"Maharashtra","state_code":"16","district":"Ahmed Nagar","district_code":"522","address1":"Parner","address2":"","latitude":"19.1768","longitude":"74.5306","accuracy":"4"},{"address3":"Malkup","state":"Maharashtra","state_code":"16","district":"Ahmed Nagar","district_code":"522","address1":"Parner","address2":"","latitude":"18.9511","longitude":"74.3846","accuracy":"3"},{"address3":"Takali Khatgaon","state":"Maharashtra","state_code":"16","district":"Ahmed Nagar","district_code":"522","address1":"Parner","address2":"","latitude":"18.9511","longitude":"74.3846","accuracy":"3"},{"address3":"Daithane Gunjal","state":"Maharashtra","state_code":"16","district":"Ahmed Nagar","district_code":"522","address1":"Parner","address2":"","latitude":"18.9511","longitude":"74.3846","accuracy":"3"}],"414105":[{"address3":"Kendal BK","state":"Maharashtra","state_code":"16","district":"Ahmed Nagar","district_code":"522","address1":"Newasa","address2":"","latitude":"19.9993","longitude":"75.4588","accuracy":"3"},{"address3":"Sonai (Ahmed Nagar)","state":"Maharashtra","state_code":"16","district":"Ahmed Nagar","district_code":"522","address1":"Newasa","address2":"","latitude":"19.3956","longitude":"74.8195","accuracy":"4"},{"address3":"Karajgaon","state":"Maharashtra","state_code":"16","district":"Ahmed Nagar","district_code":"522","address1":"Newasa","address2":"","latitude":"19.2034","longitude":"74.6769","accuracy":"4"},{"address3":"Umbra","state":"Maharashtra","state_code":"16","district":"Ahmed Nagar","district_code":"522","address1":"Newasa","address2":"","latitude":"19.2034","longitude":"74.6769","accuracy":"4"},{"address3":"Shani Shinganapur","state":"Maharashtra","state_code":"16","district":"Ahmed Nagar","district_code":"522","address1":"Newasa","address2":"","latitude":"19.9993","longitude":"75.4588","accuracy":"3"},{"address3":"Brahmni","state":"Maharashtra","state_code":"16","district":"Ahmed Nagar","district_code":"522","address1":"Newasa","address2":"","latitude":"19.9993","longitude":"75.4588","accuracy":"3"},{"address3":"Khedle Permananda","state":"Maharashtra","state_code":"16","district":"Ahmed Nagar","district_code":"522","address1":"Newasa","address2":"","latitude":"19.9993","longitude":"75.4588","accuracy":"3"}],"414106":[{"address3":"Majle Chincholi","state":"Maharashtra","state_code":"16","district":"Ahmed Nagar","district_code":"522","address1":"Pathardi","address2":"","latitude":"19.1644","longitude":"74.3729","accuracy":"3"},{"address3":"Tisgaon","state":"Maharashtra","state_code":"16","district":"Ahmed Nagar","district_code":"522","address1":"Pathardi","address2":"","latitude":"19.1884","longitude":"75.0677","accuracy":"4"},{"address3":"Kolhar","state":"Maharashtra","state_code":"16","district":"Ahmed Nagar","district_code":"522","address1":"Pathardi","address2":"","latitude":"19.5405","longitude":"74.5339","accuracy":"4"},{"address3":"Vaiju Babhulgaon","state":"Maharashtra","state_code":"16","district":"Ahmed Nagar","district_code":"522","address1":"Pathardi","address2":"","latitude":"19.1644","longitude":"74.3729","accuracy":"3"},{"address3":"Khandgaon Lohsar","state":"Maharashtra","state_code":"16","district":"Ahmed Nagar","district_code":"522","address1":"Pathardi","address2":"","latitude":"19.1644","longitude":"74.3729","accuracy":"3"},{"address3":"Nivdunga","state":"Maharashtra","state_code":"16","district":"Ahmed Nagar","district_code":"522","address1":"Pathardi","address2":"","latitude":"19.1644","longitude":"74.3729","accuracy":"3"},{"address3":"Karanji","state":"Maharashtra","state_code":"16","district":"Ahmed Nagar","district_code":"522","address1":"Pathardi","address2":"","latitude":"19.1323","longitude":"74.9931","accuracy":"4"},{"address3":"Shirapur","state":"Maharashtra","state_code":"16","district":"Ahmed Nagar","district_code":"522","address1":"Pathardi","address2":"","latitude":"19.1644","longitude":"74.3729","accuracy":"3"},{"address3":"Ghatshiras","state":"Maharashtra","state_code":"16","district":"Ahmed Nagar","district_code":"522","address1":"Pathardi","address2":"","latitude":"19.1644","longitude":"74.3729","accuracy":"3"},{"address3":"Shiral","state":"Maharashtra","state_code":"16","district":"Ahmed Nagar","district_code":"522","address1":"Pathardi","address2":"","latitude":"19.1644","longitude":"74.3729","accuracy":"3"},{"address3":"Mandve","state":"Maharashtra","state_code":"16","district":"Ahmed Nagar","district_code":"522","address1":"Pathardi","address2":"","latitude":"19.2034","longitude":"74.6769","accuracy":"4"},{"address3":"Chichondi Shiral","state":"Maharashtra","state_code":"16","district":"Ahmed Nagar","district_code":"522","address1":"Pathadi","address2":"","latitude":"19.1644","longitude":"74.3729","accuracy":"3"},{"address3":"Devrai","state":"Maharashtra","state_code":"16","district":"Ahmed Nagar","district_code":"522","address1":"Pathardi","address2":"","latitude":"19.1644","longitude":"74.3729","accuracy":"3"}],"414110":[{"address3":"MIRC","state":"Maharashtra","state_code":"16","district":"Ahmed Nagar","district_code":"522","address1":"Ahmednagar","address2":"","latitude":"18.8453","longitude":"75.5907","accuracy":"1"}],"414111":[{"address3":"Vadgaon Gupta","state":"Maharashtra","state_code":"16","district":"Ahmed Nagar","district_code":"522","address1":"Ahmednagar","address2":"","latitude":"19.2076","longitude":"74.6664","accuracy":"3"},{"address3":"MIDC (ANR)","state":"Maharashtra","state_code":"16","district":"Ahmed Nagar","district_code":"522","address1":"Ahmednagar","address2":"","latitude":"19.2076","longitude":"74.6664","accuracy":"3"},{"address3":"Shingave Naik","state":"Maharashtra","state_code":"16","district":"Ahmed Nagar","district_code":"522","address1":"Ahmednagar","address2":"","latitude":"19.2076","longitude":"74.6664","accuracy":"3"},{"address3":"Dehere","state":"Maharashtra","state_code":"16","district":"Ahmed Nagar","district_code":"522","address1":"Ahmednagar","address2":"","latitude":"19.2076","longitude":"74.6664","accuracy":"3"},{"address3":"Vilad","state":"Maharashtra","state_code":"16","district":"Ahmed Nagar","district_code":"522","address1":"Ahmednagar","address2":"","latitude":"19.2076","longitude":"74.6664","accuracy":"4"},{"address3":"Karjune Khare","state":"Maharashtra","state_code":"16","district":"Ahmed Nagar","district_code":"522","address1":"Ahmednagar","address2":"","latitude":"19.2076","longitude":"74.6664","accuracy":"3"},{"address3":"Nimblak","state":"Maharashtra","state_code":"16","district":"Ahmed Nagar","district_code":"522","address1":"Ahmednagar","address2":"","latitude":"19.2076","longitude":"74.6664","accuracy":"3"}],"414113":[{"address3":"Yeli","state":"Maharashtra","state_code":"16","district":"Ahmed Nagar","district_code":"522","address1":"Pathardi","address2":"","latitude":"19.2034","longitude":"74.6769","accuracy":"4"},{"address3":"Kharwandi Kasar","state":"Maharashtra","state_code":"16","district":"Ahmed Nagar","district_code":"522","address1":"Pathardi","address2":"","latitude":"18.6641","longitude":"76.0529","accuracy":"3"},{"address3":"Bhutetakali","state":"Maharashtra","state_code":"16","district":"Ahmed Nagar","district_code":"522","address1":"Pathardi","address2":"","latitude":"18.6641","longitude":"76.0529","accuracy":"3"},{"address3":"Bhalgaon","state":"Maharashtra","state_code":"16","district":"Ahmed Nagar","district_code":"522","address1":"Pathardi","address2":"","latitude":"19.1017","longitude":"75.4556","accuracy":"4"},{"address3":"Munguswade","state":"Maharashtra","state_code":"16","district":"Ahmed Nagar","district_code":"522","address1":"Pathardi","address2":"","latitude":"18.6641","longitude":"76.0529","accuracy":"3"},{"address3":"Nandur Nimba Daitya","state":"Maharashtra","state_code":"16","district":"Ahmed Nagar","district_code":"522","address1":"Pathardi","address2":"","latitude":"18.6641","longitude":"76.0529","accuracy":"3"},{"address3":"Midsangavi","state":"Maharashtra","state_code":"16","district":"Ahmed Nagar","district_code":"522","address1":"Pathardi","address2":"","latitude":"18.6641","longitude":"76.0529","accuracy":"3"}],"414201":[{"address3":"Takali Kazi","state":"Maharashtra","state_code":"16","district":"Ahmed Nagar","district_code":"522","address1":"Ahmednagar","address2":"","latitude":"19.0005","longitude":"74.9178","accuracy":"3"},{"address3":"Chichondi Patil","state":"Maharashtra","state_code":"16","district":"Ahmed Nagar","district_code":"522","address1":"Ahmednagar","address2":"","latitude":"19.0005","longitude":"74.9178","accuracy":"4"},{"address3":"Bhatodi","state":"Maharashtra","state_code":"16","district":"Ahmed Nagar","district_code":"522","address1":"Nagar","address2":"","latitude":"19.0005","longitude":"74.9178","accuracy":"3"},{"address3":"Narayan Doho","state":"Maharashtra","state_code":"16","district":"Ahmed Nagar","district_code":"522","address1":"Ahmednagar","address2":"","latitude":"19.0005","longitude":"74.9178","accuracy":"3"},{"address3":"Sandve","state":"Maharashtra","state_code":"16","district":"Ahmed Nagar","district_code":"522","address1":"Ahmednagar","address2":"","latitude":"19.0005","longitude":"74.9178","accuracy":"3"},{"address3":"Sarolabadhi","state":"Maharashtra","state_code":"16","district":"Ahmed Nagar","district_code":"522","address1":"Ahmednagar","address2":"","latitude":"19.0005","longitude":"74.9178","accuracy":"3"}],"414202":[{"address3":"Deolali","state":"Maharashtra","state_code":"16","district":"Beed","district_code":"523","address1":"Ashti","address2":"","latitude":"18.9304","longitude":"75.8696","accuracy":"4"},{"address3":"Kada (Beed)","state":"Maharashtra","state_code":"16","district":"Beed","district_code":"523","address1":"Ashti","address2":"","latitude":"18.8962","longitude":"75.0785","accuracy":"4"},{"address3":"Waghluj","state":"Maharashtra","state_code":"16","district":"Beed","district_code":"523","address1":"Ashti","address2":"","latitude":"19.4436","longitude":"75.8416","accuracy":"3"},{"address3":"Loni","state":"Maharashtra","state_code":"16","district":"Beed","district_code":"523","address1":"Ashti","address2":"","latitude":"18.9342","longitude":"76.568","accuracy":"4"},{"address3":"Devinimgaon","state":"Maharashtra","state_code":"16","district":"Beed","district_code":"523","address1":"Ashti","address2":"","latitude":"19.4436","longitude":"75.8416","accuracy":"3"},{"address3":"Ambhora","state":"Maharashtra","state_code":"16","district":"Beed","district_code":"523","address1":"Ashti","address2":"","latitude":"18.9304","longitude":"75.8696","accuracy":"4"},{"address3":"Dongargan","state":"Maharashtra","state_code":"16","district":"Beed","district_code":"523","address1":"Ashti","address2":"","latitude":"19.4436","longitude":"75.8416","accuracy":"3"},{"address3":"Dhamangaon","state":"Maharashtra","state_code":"16","district":"Beed","district_code":"523","address1":"Ashti","address2":"","latitude":"18.9304","longitude":"75.8696","accuracy":"4"},{"address3":"Ghatapimpri","state":"Maharashtra","state_code":"16","district":"Beed","district_code":"523","address1":"Ashti","address2":"","latitude":"19.4436","longitude":"75.8416","accuracy":"3"},{"address3":"Pimpla","state":"Maharashtra","state_code":"16","district":"Beed","district_code":"523","address1":"Ashti","address2":"","latitude":"19.203","longitude":"75.5936","accuracy":"4"},{"address3":"Kuntephal Pundi","state":"Maharashtra","state_code":"16","district":"Beed","district_code":"523","address1":"Ashti","address2":"","latitude":"19.4436","longitude":"75.8416","accuracy":"3"},{"address3":"Dadegaon","state":"Maharashtra","state_code":"16","district":"Beed","district_code":"523","address1":"Ashti","address2":"","latitude":"18.9688","longitude":"75.0834","accuracy":"4"},{"address3":"Ruinalkol","state":"Maharashtra","state_code":"16","district":"Beed","district_code":"523","address1":"Ashti","address2":"","latitude":"19.4436","longitude":"75.8416","accuracy":"3"},{"address3":"Hiwara","state":"Maharashtra","state_code":"16","district":"Beed","district_code":"523","address1":"Ashti","address2":"","latitude":"18.9304","longitude":"75.8696","accuracy":"4"},{"address3":"Saratewadgoan","state":"Maharashtra","state_code":"16","district":"Beed","district_code":"523","address1":"Ashti","address2":"","latitude":"19.4436","longitude":"75.8416","accuracy":"3"},{"address3":"Dhanora","state":"Maharashtra","state_code":"16","district":"Beed","district_code":"523","address1":"Ashti","address2":"","latitude":"19.0486","longitude":"76.1386","accuracy":"4"},{"address3":"Suleman Deola","state":"Maharashtra","state_code":"16","district":"Beed","district_code":"523","address1":"Ashti","address2":"","latitude":"19.4436","longitude":"75.8416","accuracy":"3"},{"address3":"Takli Amiya","state":"Maharashtra","state_code":"16","district":"Beed","district_code":"523","address1":"Ashti","address2":"","latitude":"19.4436","longitude":"75.8416","accuracy":"3"},{"address3":"Wadgaon Daula","state":"Maharashtra","state_code":"16","district":"Beed","district_code":"523","address1":"Ashti","address2":"","latitude":"19.4436","longitude":"75.8416","accuracy":"3"},{"address3":"Wahira","state":"Maharashtra","state_code":"16","district":"Beed","district_code":"523","address1":"Ashti","address2":"","latitude":"19.4436","longitude":"75.8416","accuracy":"3"},{"address3":"Deulgaon Ghat","state":"Maharashtra","state_code":"16","district":"Beed","district_code":"523","address1":"Ashti","address2":"","latitude":"19.4436","longitude":"75.8416","accuracy":"3"}],"414203":[{"address3":"Gangadevi","state":"Maharashtra","state_code":"16","district":"Beed","district_code":"523","address1":"Ashti","address2":"","latitude":"18.9304","longitude":"75.8696","accuracy":"3"},{"address3":"Ashti (Beed)","state":"Maharashtra","state_code":"16","district":"Beed","district_code":"523","address1":"Ashti","address2":"","latitude":"18.8052","longitude":"75.1756","accuracy":"4"},{"address3":"Chikhali","state":"Maharashtra","state_code":"16","district":"Beed","district_code":"523","address1":"Ashti","address2":"","latitude":"18.9304","longitude":"75.8696","accuracy":"4"},{"address3":"Brahmagaon","state":"Maharashtra","state_code":"16","district":"Beed","district_code":"523","address1":"Ashti","address2":"","latitude":"19.1194","longitude":"76.1669","accuracy":"4"},{"address3":"Khadkat","state":"Maharashtra","state_code":"16","district":"Beed","district_code":"523","address1":"Ashti","address2":"","latitude":"18.9926","longitude":"75.543","accuracy":"3"},{"address3":"Sawargaon","state":"Maharashtra","state_code":"16","district":"Beed","district_code":"523","address1":"Ashti","address2":"","latitude":"19.1654","longitude":"76.1347","accuracy":"4"},{"address3":"Jogeswari Pargaon","state":"Maharashtra","state_code":"16","district":"Beed","district_code":"523","address1":"Ashti","address2":"","latitude":"18.9926","longitude":"75.543","accuracy":"3"},{"address3":"Ashta Harinarayan","state":"Maharashtra","state_code":"16","district":"Beed","district_code":"523","address1":"Ashti","address2":"","latitude":"18.9926","longitude":"75.543","accuracy":"3"},{"address3":"Doithan","state":"Maharashtra","state_code":"16","district":"Beed","district_code":"523","address1":"Ashti","address2":"","latitude":"18.9926","longitude":"75.543","accuracy":"3"},{"address3":"Beed Sangvi","state":"Maharashtra","state_code":"16","district":"Beed","district_code":"523","address1":"Ashti","address2":"","latitude":"18.9926","longitude":"75.543","accuracy":"3"},{"address3":"Jamgoan","state":"Maharashtra","state_code":"16","district":"Beed","district_code":"523","address1":"Ashti","address2":"","latitude":"18.9926","longitude":"75.543","accuracy":"3"},{"address3":"Karhewadgaon","state":"Maharashtra","state_code":"16","district":"Beed","district_code":"523","address1":"Ashti","address2":"","latitude":"18.9926","longitude":"75.543","accuracy":"3"},{"address3":"Matkuli","state":"Maharashtra","state_code":"16","district":"Beed","district_code":"523","address1":"Ashti","address2":"","latitude":"18.9926","longitude":"75.543","accuracy":"3"},{"address3":"Matawali","state":"Maharashtra","state_code":"16","district":"Beed","district_code":"523","address1":"Ashti","address2":"","latitude":"18.9926","longitude":"75.543","accuracy":"3"},{"address3":"Nagtala","state":"Maharashtra","state_code":"16","district":"Beed","district_code":"523","address1":"Ashti","address2":"","latitude":"18.9926","longitude":"75.543","accuracy":"3"},{"address3":"Patsara","state":"Maharashtra","state_code":"16","district":"Beed","district_code":"523","address1":"Ashti","address2":"","latitude":"18.9926","longitude":"75.543","accuracy":"3"},{"address3":"Takalsingi","state":"Maharashtra","state_code":"16","district":"Beed","district_code":"523","address1":"Ashti","address2":"","latitude":"18.9926","longitude":"75.543","accuracy":"3"},{"address3":"Welturi","state":"Maharashtra","state_code":"16","district":"Beed","district_code":"523","address1":"Ashti","address2":"","latitude":"18.9926","longitude":"75.543","accuracy":"3"},{"address3":"Bhalwani","state":"Maharashtra","state_code":"16","district":"Beed","district_code":"523","address1":"Ashti","address2":"","latitude":"18.9926","longitude":"75.543","accuracy":"3"}],"414204":[{"address3":"Sautada","state":"Maharashtra","state_code":"16","district":"Beed","district_code":"523","address1":"Patoda","address2":"","latitude":"19.0028","longitude":"74.4384","accuracy":"3"},{"address3":"Patoda (Beed)","state":"Maharashtra","state_code":"16","district":"Beed","district_code":"523","address1":"Patoda","address2":"","latitude":"19.0028","longitude":"74.4384","accuracy":"3"},{"address3":"Pachangri","state":"Maharashtra","state_code":"16","district":"Beed","district_code":"523","address1":"Patoda","address2":"","latitude":"19.0028","longitude":"74.4384","accuracy":"3"},{"address3":"Therla","state":"Maharashtra","state_code":"16","district":"Beed","district_code":"523","address1":"Patoda","address2":"","latitude":"19.0028","longitude":"74.4384","accuracy":"3"},{"address3":"Parner","state":"Maharashtra","state_code":"16","district":"Beed","district_code":"523","address1":"Patoda","address2":"","latitude":"18.9304","longitude":"75.8696","accuracy":"4"},{"address3":"Pargaon Ghumra","state":"Maharashtra","state_code":"16","district":"Beed","district_code":"523","address1":"Patoda","address2":"","latitude":"19.0028","longitude":"74.4384","accuracy":"3"},{"address3":"Tambarajuri","state":"Maharashtra","state_code":"16","district":"Beed","district_code":"523","address1":"Patoda","address2":"","latitude":"19.0028","longitude":"74.4384","accuracy":"3"},{"address3":"Bensur","state":"Maharashtra","state_code":"16","district":"Beed","district_code":"523","address1":"Patoda","address2":"","latitude":"19.0028","longitude":"74.4384","accuracy":"3"},{"address3":"Vaidyakinhi","state":"Maharashtra","state_code":"16","district":"Beed","district_code":"523","address1":"Patoda","address2":"","latitude":"19.0028","longitude":"74.4384","accuracy":"3"},{"address3":"Daskhed","state":"Maharashtra","state_code":"16","district":"Beed","district_code":"523","address1":"Patoda","address2":"","latitude":"19.0028","longitude":"74.4384","accuracy":"3"},{"address3":"Waghira","state":"Maharashtra","state_code":"16","district":"Beed","district_code":"523","address1":"Patoda","address2":"","latitude":"19.0028","longitude":"74.4384","accuracy":"3"},{"address3":"Dhangarjawalka","state":"Maharashtra","state_code":"16","district":"Beed","district_code":"523","address1":"Patoda","address2":"","latitude":"19.0028","longitude":"74.4384","accuracy":"3"},{"address3":"Domri","state":"Maharashtra","state_code":"16","district":"Beed","district_code":"523","address1":"Patoda","address2":"","latitude":"19.0028","longitude":"74.4384","accuracy":"3"},{"address3":"Rohatwadi","state":"Maharashtra","state_code":"16","district":"Beed","district_code":"523","address1":"Patoda","address2":"","latitude":"19.0028","longitude":"74.4384","accuracy":"3"},{"address3":"Muggaon","state":"Maharashtra","state_code":"16","district":"Beed","district_code":"523","address1":"Patoda","address2":"","latitude":"19.0028","longitude":"74.4384","accuracy":"3"}],"414205":[{"address3":"Belura","state":"Maharashtra","state_code":"16","district":"Beed","district_code":"523","address1":"Beed","address2":"","latitude":"19.0431","longitude":"76.2616","accuracy":"4"},{"address3":"Naigaon","state":"Maharashtra","state_code":"16","district":"Beed","district_code":"523","address1":"Patoda","address2":"","latitude":"18.9304","longitude":"75.8696","accuracy":"4"},{"address3":"Rajuri Navgan","state":"Maharashtra","state_code":"16","district":"Beed","district_code":"523","address1":"Beed","address2":"","latitude":"18.9457","longitude":"76.8963","accuracy":"3"},{"address3":"Nirgudi","state":"Maharashtra","state_code":"16","district":"Beed","district_code":"523","address1":"Beed","address2":"","latitude":"18.9304","longitude":"75.8696","accuracy":"3"},{"address3":"Murshadpur","state":"Maharashtra","state_code":"16","district":"Beed","district_code":"523","address1":"Bid","address2":"","latitude":"18.9457","longitude":"76.8963","accuracy":"3"},{"address3":"Khokarmoha","state":"Maharashtra","state_code":"16","district":"Beed","district_code":"523","address1":"Shirur K.","address2":"","latitude":"18.9457","longitude":"76.8963","accuracy":"3"},{"address3":"Dongar Patoda","state":"Maharashtra","state_code":"16","district":"Beed","district_code":"523","address1":"Bid","address2":"","latitude":"18.9457","longitude":"76.8963","accuracy":"3"},{"address3":"Khalapuri","state":"Maharashtra","state_code":"16","district":"Beed","district_code":"523","address1":"Bid","address2":"","latitude":"18.9457","longitude":"76.8963","accuracy":"3"},{"address3":"Pargaon Shiras","state":"Maharashtra","state_code":"16","district":"Beed","district_code":"523","address1":"Beed","address2":"","latitude":"18.9457","longitude":"76.8963","accuracy":"3"},{"address3":"Raimoha","state":"Maharashtra","state_code":"16","district":"Beed","district_code":"523","address1":"Shirur K","address2":"","latitude":"18.9457","longitude":"76.8963","accuracy":"3"},{"address3":"Sakshas Pimpri","state":"Maharashtra","state_code":"16","district":"Beed","district_code":"523","address1":"Bid","address2":"","latitude":"18.9457","longitude":"76.8963","accuracy":"3"}],"414208":[{"address3":"Belgaon","state":"Maharashtra","state_code":"16","district":"Beed","district_code":"523","address1":"Ashti","address2":"","latitude":"18.9304","longitude":"75.8696","accuracy":"4"},{"address3":"Shiral","state":"Maharashtra","state_code":"16","district":"Beed","district_code":"523","address1":"Ashti","address2":"","latitude":"19.5053","longitude":"76.1327","accuracy":"3"},{"address3":"Nimgaon Choba","state":"Maharashtra","state_code":"16","district":"Beed","district_code":"523","address1":"Ashti","address2":"","latitude":"19.5053","longitude":"76.1327","accuracy":"3"},{"address3":"Khilad","state":"Maharashtra","state_code":"16","district":"Beed","district_code":"523","address1":"Ashti","address2":"","latitude":"19.5053","longitude":"76.1327","accuracy":"3"},{"address3":"Kerul","state":"Maharashtra","state_code":"16","district":"Beed","district_code":"523","address1":"Ashti","address2":"","latitude":"19.5053","longitude":"76.1327","accuracy":"3"},{"address3":"Kelsangvi","state":"Maharashtra","state_code":"16","district":"Beed","district_code":"523","address1":"Ashti","address2":"","latitude":"19.5053","longitude":"76.1327","accuracy":"3"},{"address3":"Kadasakhar","state":"Maharashtra","state_code":"16","district":"Beed","district_code":"523","address1":"Ashti","address2":"","latitude":"19.5053","longitude":"76.1327","accuracy":"3"}],"414301":[{"address3":"Jategaon","state":"Maharashtra","state_code":"16","district":"Ahmed Nagar","district_code":"522","address1":"Parner","address2":"","latitude":"19.2034","longitude":"74.6769","accuracy":"4"},{"address3":"Palve BK","state":"Maharashtra","state_code":"16","district":"Ahmed Nagar","district_code":"522","address1":"Parner","address2":"","latitude":"20.0761","longitude":"75.5161","accuracy":"3"},{"address3":"Supa (Ahmed Nagar)","state":"Maharashtra","state_code":"16","district":"Ahmed Nagar","district_code":"522","address1":"Parner","address2":"","latitude":"20.0761","longitude":"75.5161","accuracy":"3"},{"address3":"Vaghunde KH","state":"Maharashtra","state_code":"16","district":"Ahmed Nagar","district_code":"522","address1":"Parner","address2":"","latitude":"20.0761","longitude":"75.5161","accuracy":"3"},{"address3":"Narayan Gavan","state":"Maharashtra","state_code":"16","district":"Ahmed Nagar","district_code":"522","address1":"Parner","address2":"","latitude":"20.0761","longitude":"75.5161","accuracy":"3"},{"address3":"Valvane","state":"Maharashtra","state_code":"16","district":"Ahmed Nagar","district_code":"522","address1":"Parner","address2":"","latitude":"20.0761","longitude":"75.5161","accuracy":"3"},{"address3":"Apdhup","state":"Maharashtra","state_code":"16","district":"Ahmed Nagar","district_code":"522","address1":"Parner","address2":"","latitude":"20.0761","longitude":"75.5161","accuracy":"3"},{"address3":"Hanga","state":"Maharashtra","state_code":"16","district":"Ahmed Nagar","district_code":"522","address1":"Parner","address2":"","latitude":"20.0761","longitude":"75.5161","accuracy":"3"}],"414302":[{"address3":"Chincholi","state":"Maharashtra","state_code":"16","district":"Ahmed Nagar","district_code":"522","address1":"Parner","address2":"","latitude":"19.2034","longitude":"74.6769","accuracy":"4"},{"address3":"Vadner Haveli","state":"Maharashtra","state_code":"16","district":"Ahmed Nagar","district_code":"522","address1":"Parner","address2":"","latitude":"19.2302","longitude":"74.6006","accuracy":"3"},{"address3":"Pimpalner","state":"Maharashtra","state_code":"16","district":"Ahmed Nagar","district_code":"522","address1":"Parner","address2":"","latitude":"18.9149","longitude":"74.3908","accuracy":"4"},{"address3":"Vadzire","state":"Maharashtra","state_code":"16","district":"Ahmed Nagar","district_code":"522","address1":"Parner","address2":"","latitude":"19.2302","longitude":"74.6006","accuracy":"3"},{"address3":"Ralegan Siddhi","state":"Maharashtra","state_code":"16","district":"Ahmed Nagar","district_code":"522","address1":"Parner","address2":"","latitude":"18.9154","longitude":"74.415","accuracy":"4"},{"address3":"Padali Darya","state":"Maharashtra","state_code":"16","district":"Ahmed Nagar","district_code":"522","address1":"Parner","address2":"","latitude":"19.2302","longitude":"74.6006","accuracy":"3"},{"address3":"Panoli","state":"Maharashtra","state_code":"16","district":"Ahmed Nagar","district_code":"522","address1":"Parner","address2":"","latitude":"19.2034","longitude":"74.6769","accuracy":"3"},{"address3":"Ganjibhoyare","state":"Maharashtra","state_code":"16","district":"Ahmed Nagar","district_code":"522","address1":"Parner","address2":"","latitude":"19.2302","longitude":"74.6006","accuracy":"3"},{"address3":"Vadegavan","state":"Maharashtra","state_code":"16","district":"Ahmed Nagar","district_code":"522","address1":"Parner","address2":"","latitude":"19.2302","longitude":"74.6006","accuracy":"3"},{"address3":"Parner","state":"Maharashtra","state_code":"16","district":"Ahmed Nagar","district_code":"522","address1":"Parner","address2":"","latitude":"19.0028","longitude":"74.4384","accuracy":"4"},{"address3":"Babulwade","state":"Maharashtra","state_code":"16","district":"Ahmed Nagar","district_code":"522","address1":"Parner","address2":"","latitude":"19.2302","longitude":"74.6006","accuracy":"3"},{"address3":"Pimprijalsen","state":"Maharashtra","state_code":"16","district":"Ahmed Nagar","district_code":"522","address1":"Parner","address2":"","latitude":"19.2302","longitude":"74.6006","accuracy":"3"},{"address3":"Mhasane","state":"Maharashtra","state_code":"16","district":"Ahmed Nagar","district_code":"522","address1":"Parner","address2":"","latitude":"19.2302","longitude":"74.6006","accuracy":"3"},{"address3":"Loni Haveli","state":"Maharashtra","state_code":"16","district":"Ahmed Nagar","district_code":"522","address1":"Parner","address2":"","latitude":"19.2302","longitude":"74.6006","accuracy":"3"},{"address3":"Punewadi","state":"Maharashtra","state_code":"16","district":"Ahmed Nagar","district_code":"522","address1":"Parner","address2":"","latitude":"19.2302","longitude":"74.6006","accuracy":"3"}],"414303":[{"address3":"Pimpalgaon Rotha","state":"Maharashtra","state_code":"16","district":"Ahmed Nagar","district_code":"522","address1":"Parner","address2":"","latitude":"19.792","longitude":"74.8269","accuracy":"3"},{"address3":"Kanhur","state":"Maharashtra","state_code":"16","district":"Ahmed Nagar","district_code":"522","address1":"Parner","address2":"","latitude":"19.0972","longitude":"74.3861","accuracy":"4"},{"address3":"Karandi","state":"Maharashtra","state_code":"16","district":"Ahmed Nagar","district_code":"522","address1":"Parner","address2":"","latitude":"19.792","longitude":"74.8269","accuracy":"3"},{"address3":"Kinhi","state":"Maharashtra","state_code":"16","district":"Ahmed Nagar","district_code":"522","address1":"Parner","address2":"","latitude":"19.2034","longitude":"74.6769","accuracy":"4"},{"address3":"Gargundi","state":"Maharashtra","state_code":"16","district":"Ahmed Nagar","district_code":"522","address1":"Parner","address2":"","latitude":"19.792","longitude":"74.8269","accuracy":"3"}],"414304":[{"address3":"Takali Dhokeshwar","state":"Maharashtra","state_code":"16","district":"Ahmed Nagar","district_code":"522","address1":"Parner","address2":"","latitude":"19.1576","longitude":"74.3817","accuracy":"4"},{"address3":"Palashi","state":"Maharashtra","state_code":"16","district":"Ahmed Nagar","district_code":"522","address1":"Parner","address2":"","latitude":"19.2034","longitude":"74.6769","accuracy":"4"},{"address3":"Vasunde","state":"Maharashtra","state_code":"16","district":"Ahmed Nagar","district_code":"522","address1":"Parner","address2":"","latitude":"19.5808","longitude":"74.4827","accuracy":"3"},{"address3":"Savargaon","state":"Maharashtra","state_code":"16","district":"Ahmed Nagar","district_code":"522","address1":"Parner","address2":"","latitude":"19.1577","longitude":"74.2783","accuracy":"4"},{"address3":"Karjule Hariya","state":"Maharashtra","state_code":"16","district":"Ahmed Nagar","district_code":"522","address1":"Parner","address2":"","latitude":"19.5808","longitude":"74.4827","accuracy":"3"},{"address3":"Pokhari Kanher","state":"Maharashtra","state_code":"16","district":"Ahmed Nagar","district_code":"522","address1":"Parner","address2":"","latitude":"19.5808","longitude":"74.4827","accuracy":"3"},{"address3":"Nandur Pathar","state":"Maharashtra","state_code":"16","district":"Ahmed Nagar","district_code":"522","address1":"Parner","address2":"","latitude":"19.5808","longitude":"74.4827","accuracy":"3"},{"address3":"Khadakwadi","state":"Maharashtra","state_code":"16","district":"Ahmed Nagar","district_code":"522","address1":"Parner","address2":"","latitude":"19.5808","longitude":"74.4827","accuracy":"3"},{"address3":"Vankute","state":"Maharashtra","state_code":"16","district":"Ahmed Nagar","district_code":"522","address1":"Parner","address2":"","latitude":"19.5808","longitude":"74.4827","accuracy":"3"},{"address3":"Dhotre BK","state":"Maharashtra","state_code":"16","district":"Ahmed Nagar","district_code":"522","address1":"Parner","address2":"","latitude":"19.5808","longitude":"74.4827","accuracy":"3"},{"address3":"Palaspur","state":"Maharashtra","state_code":"16","district":"Ahmed Nagar","district_code":"522","address1":"Parner","address2":"","latitude":"19.5808","longitude":"74.4827","accuracy":"3"}],"414305":[{"address3":"Kalas","state":"Maharashtra","state_code":"16","district":"Ahmed Nagar","district_code":"522","address1":"Parner","address2":"","latitude":"19.2034","longitude":"74.6769","accuracy":"4"},{"address3":"Loni Mavala","state":"Maharashtra","state_code":"16","district":"Ahmed Nagar","district_code":"522","address1":"Parner","address2":"","latitude":"18.6112","longitude":"74.5119","accuracy":"3"},{"address3":"Darodi","state":"Maharashtra","state_code":"16","district":"Ahmed Nagar","district_code":"522","address1":"Parner","address2":"","latitude":"18.6112","longitude":"74.5119","accuracy":"3"},{"address3":"Chombhut","state":"Maharashtra","state_code":"16","district":"Ahmed Nagar","district_code":"522","address1":"Parner","address2":"","latitude":"18.6112","longitude":"74.5119","accuracy":"3"},{"address3":"Alkuti","state":"Maharashtra","state_code":"16","district":"Ahmed Nagar","district_code":"522","address1":"Parner","address2":"","latitude":"19.05","longitude":"74.2333","accuracy":"4"},{"address3":"Padali Ale","state":"Maharashtra","state_code":"16","district":"Ahmed Nagar","district_code":"522","address1":"Parner","address2":"","latitude":"18.6112","longitude":"74.5119","accuracy":"3"}],"414306":[{"address3":"Nighoj","state":"Maharashtra","state_code":"16","district":"Ahmed Nagar","district_code":"522","address1":"Parner","address2":"","latitude":"18.96","longitude":"74.2813","accuracy":"4"},{"address3":"Gunore","state":"Maharashtra","state_code":"16","district":"Ahmed Nagar","district_code":"522","address1":"Parner","address2":"","latitude":"18.96","longitude":"74.2813","accuracy":"3"},{"address3":"Devi Bhoyare","state":"Maharashtra","state_code":"16","district":"Ahmed Nagar","district_code":"522","address1":"Parner","address2":"","latitude":"18.96","longitude":"74.2813","accuracy":"3"},{"address3":"Ralegan Therpal","state":"Maharashtra","state_code":"16","district":"Ahmed Nagar","district_code":"522","address1":"Parner","address2":"","latitude":"18.96","longitude":"74.2813","accuracy":"3"},{"address3":"Vadner BK","state":"Maharashtra","state_code":"16","district":"Ahmed Nagar","district_code":"522","address1":"Parner","address2":"","latitude":"18.96","longitude":"74.2813","accuracy":"3"},{"address3":"Jawala","state":"Maharashtra","state_code":"16","district":"Ahmed Nagar","district_code":"522","address1":"Parner","address2":"","latitude":"18.96","longitude":"74.2813","accuracy":"3"},{"address3":"Parner SSK","state":"Maharashtra","state_code":"16","district":"Ahmed Nagar","district_code":"522","address1":"Parner","address2":"","latitude":"18.96","longitude":"74.2813","accuracy":"3"}],"414401":[{"address3":"Dighi","state":"Maharashtra","state_code":"16","district":"Ahmed Nagar","district_code":"522","address1":"Karjat","address2":"","latitude":"19.2034","longitude":"74.6769","accuracy":"4"},{"address3":"Mirajgaon","state":"Maharashtra","state_code":"16","district":"Ahmed Nagar","district_code":"522","address1":"Karjat","address2":"","latitude":"18.7318","longitude":"75.0258","accuracy":"4"},{"address3":"Kaundane","state":"Maharashtra","state_code":"16","district":"Ahmed Nagar","district_code":"522","address1":"Karjat","address2":"","latitude":"19.1331","longitude":"75.0603","accuracy":"3"},{"address3":"Chapadgaon","state":"Maharashtra","state_code":"16","district":"Ahmed Nagar","district_code":"522","address1":"Karjat","address2":"","latitude":"19.3547","longitude":"75.3692","accuracy":"4"},{"address3":"Nimgaon Daku","state":"Maharashtra","state_code":"16","district":"Ahmed Nagar","district_code":"522","address1":"Karjat","address2":"","latitude":"19.1331","longitude":"75.0603","accuracy":"3"},{"address3":"Diksal","state":"Maharashtra","state_code":"16","district":"Ahmed Nagar","district_code":"522","address1":"Karjat","address2":"","latitude":"19.2034","longitude":"74.6769","accuracy":"4"},{"address3":"Ghogargaon","state":"Maharashtra","state_code":"16","district":"Ahmed Nagar","district_code":"522","address1":"Karjat","address2":"","latitude":"19.1331","longitude":"75.0603","accuracy":"3"},{"address3":"Thergaon","state":"Maharashtra","state_code":"16","district":"Ahmed Nagar","district_code":"522","address1":"Karjat","address2":"","latitude":"18.7716","longitude":"74.9439","accuracy":"4"},{"address3":"Babhulgaon Khalsa","state":"Maharashtra","state_code":"16","district":"Ahmed Nagar","district_code":"522","address1":"Karjat","address2":"","latitude":"19.1331","longitude":"75.0603","accuracy":"3"},{"address3":"Patewadi","state":"Maharashtra","state_code":"16","district":"Ahmed Nagar","district_code":"522","address1":"Karjat","address2":"","latitude":"19.1331","longitude":"75.0603","accuracy":"3"},{"address3":"Pategaon","state":"Maharashtra","state_code":"16","district":"Ahmed Nagar","district_code":"522","address1":"Karjat","address2":"","latitude":"19.1331","longitude":"75.0603","accuracy":"3"},{"address3":"Nimgaon Gangarda","state":"Maharashtra","state_code":"16","district":"Ahmed Nagar","district_code":"522","address1":"Karjat","address2":"","latitude":"19.1331","longitude":"75.0603","accuracy":"3"},{"address3":"Kokangaon","state":"Maharashtra","state_code":"16","district":"Ahmed Nagar","district_code":"522","address1":"Karjat","address2":"","latitude":"19.1331","longitude":"75.0603","accuracy":"3"},{"address3":"Kombli","state":"Maharashtra","state_code":"16","district":"Ahmed Nagar","district_code":"522","address1":"Karjat","address2":"","latitude":"19.1331","longitude":"75.0603","accuracy":"3"},{"address3":"Chande BK","state":"Maharashtra","state_code":"16","district":"Ahmed Nagar","district_code":"522","address1":"Karjat","address2":"","latitude":"19.1331","longitude":"75.0603","accuracy":"3"},{"address3":"Khandvi","state":"Maharashtra","state_code":"16","district":"Ahmed Nagar","district_code":"522","address1":"Karjat","address2":"","latitude":"19.1331","longitude":"75.0603","accuracy":"3"},{"address3":"Guravpimpri","state":"Maharashtra","state_code":"16","district":"Ahmed Nagar","district_code":"522","address1":"Karjat","address2":"","latitude":"19.1331","longitude":"75.0603","accuracy":"3"},{"address3":"Mahijalgaon","state":"Maharashtra","state_code":"16","district":"Ahmed Nagar","district_code":"522","address1":"Karjat","address2":"","latitude":"19.1331","longitude":"75.0603","accuracy":"3"}],"414402":[{"address3":"Karjat (Ahmed Nagar)","state":"Maharashtra","state_code":"16","district":"Ahmed Nagar","district_code":"522","address1":"Karjat","address2":"","latitude":"18.5512","longitude":"75.0105","accuracy":"4"},{"address3":"Durgaon","state":"Maharashtra","state_code":"16","district":"Ahmed Nagar","district_code":"522","address1":"Karjat","address2":"","latitude":"19.0052","longitude":"74.5931","accuracy":"3"},{"address3":"Shinde","state":"Maharashtra","state_code":"16","district":"Ahmed Nagar","district_code":"522","address1":"Karjat","address2":"","latitude":"19.2034","longitude":"74.6769","accuracy":"4"},{"address3":"Chincholi Kaldat","state":"Maharashtra","state_code":"16","district":"Ahmed Nagar","district_code":"522","address1":"Karjat","address2":"","latitude":"19.0052","longitude":"74.5931","accuracy":"3"},{"address3":"Kuldharan","state":"Maharashtra","state_code":"16","district":"Ahmed Nagar","district_code":"522","address1":"Karjat","address2":"","latitude":"18.5478","longitude":"74.8717","accuracy":"4"},{"address3":"Benwadi","state":"Maharashtra","state_code":"16","district":"Ahmed Nagar","district_code":"522","address1":"Karjat","address2":"","latitude":"19.0052","longitude":"74.5931","accuracy":"3"},{"address3":"Alsunde","state":"Maharashtra","state_code":"16","district":"Ahmed Nagar","district_code":"522","address1":"Karjat","address2":"","latitude":"19.0052","longitude":"74.5931","accuracy":"3"},{"address3":"Ambi Jalgaon","state":"Maharashtra","state_code":"16","district":"Ahmed Nagar","district_code":"522","address1":"Karjat","address2":"","latitude":"19.0052","longitude":"74.5931","accuracy":"3"},{"address3":"Bahirobawadi","state":"Maharashtra","state_code":"16","district":"Ahmed Nagar","district_code":"522","address1":"Karjat","address2":"","latitude":"19.0052","longitude":"74.5931","accuracy":"3"},{"address3":"Bitkewadi","state":"Maharashtra","state_code":"16","district":"Ahmed Nagar","district_code":"522","address1":"Karjat","address2":"","latitude":"19.0052","longitude":"74.5931","accuracy":"3"},{"address3":"Takali Khandeshwari","state":"Maharashtra","state_code":"16","district":"Ahmed Nagar","district_code":"522","address1":"Karjat","address2":"","latitude":"19.0052","longitude":"74.5931","accuracy":"3"},{"address3":"Rehekuri","state":"Maharashtra","state_code":"16","district":"Ahmed Nagar","district_code":"522","address1":"Karjat","address2":"","latitude":"19.0052","longitude":"74.5931","accuracy":"3"},{"address3":"Koregoan","state":"Maharashtra","state_code":"16","district":"Ahmed Nagar","district_code":"522","address1":"Karjat","address2":"","latitude":"19.0052","longitude":"74.5931","accuracy":"3"},{"address3":"Loni Masadpur","state":"Maharashtra","state_code":"16","district":"Ahmed Nagar","district_code":"522","address1":"Karjat","address2":"","latitude":"19.0052","longitude":"74.5931","accuracy":"3"},{"address3":"Malangi","state":"Maharashtra","state_code":"16","district":"Ahmed Nagar","district_code":"522","address1":"Karjat","address2":"","latitude":"19.0052","longitude":"74.5931","accuracy":"3"}],"414403":[{"address3":"Bhambora","state":"Maharashtra","state_code":"16","district":"Ahmed Nagar","district_code":"522","address1":"Karjat","address2":"","latitude":"19.2034","longitude":"74.6769","accuracy":"4"},{"address3":"Rashin","state":"Maharashtra","state_code":"16","district":"Ahmed Nagar","district_code":"522","address1":"Karjat","address2":"","latitude":"19.5124","longitude":"76.5883","accuracy":"3"},{"address3":"Chilwadi","state":"Maharashtra","state_code":"16","district":"Ahmed Nagar","district_code":"522","address1":"Karjat","address2":"","latitude":"19.2034","longitude":"74.6769","accuracy":"4"},{"address3":"Jalalpur","state":"Maharashtra","state_code":"16","district":"Ahmed Nagar","district_code":"522","address1":"Karjat","address2":"","latitude":"19.2034","longitude":"74.6769","accuracy":"4"},{"address3":"Khednagar","state":"Maharashtra","state_code":"16","district":"Ahmed Nagar","district_code":"522","address1":"Karjat","address2":"","latitude":"18.3796","longitude":"74.8122","accuracy":"4"},{"address3":"Jssk","state":"Maharashtra","state_code":"16","district":"Ahmed Nagar","district_code":"522","address1":"Karjat","address2":"","latitude":"19.5124","longitude":"76.5883","accuracy":"3"},{"address3":"Baradgaon Sudrik","state":"Maharashtra","state_code":"16","district":"Ahmed Nagar","district_code":"522","address1":"Karjat","address2":"","latitude":"19.5124","longitude":"76.5883","accuracy":"3"}],"414501":[{"address3":"Vagholi","state":"Maharashtra","state_code":"16","district":"Ahmed Nagar","district_code":"522","address1":"Shevgaon","address2":"","latitude":"19.2034","longitude":"74.6769","accuracy":"4"},{"address3":"Miri","state":"Maharashtra","state_code":"16","district":"Ahmed Nagar","district_code":"522","address1":"Pathardi","address2":"","latitude":"19.2852","longitude":"74.9686","accuracy":"4"},{"address3":"Maka","state":"Maharashtra","state_code":"16","district":"Ahmed Nagar","district_code":"522","address1":"Pathardi","address2":"","latitude":"19.0469","longitude":"74.6015","accuracy":"3"},{"address3":"Khospuri","state":"Maharashtra","state_code":"16","district":"Ahmed Nagar","district_code":"522","address1":"Pathardi","address2":"","latitude":"19.2732","longitude":"74.8529","accuracy":"4"},{"address3":"Shingave Keshav","state":"Maharashtra","state_code":"16","district":"Ahmed Nagar","district_code":"522","address1":"Pathardi","address2":"","latitude":"19.0469","longitude":"74.6015","accuracy":"3"},{"address3":"Nimbe Nandur","state":"Maharashtra","state_code":"16","district":"Ahmed Nagar","district_code":"522","address1":"Pathardi","address2":"","latitude":"19.0469","longitude":"74.6015","accuracy":"3"},{"address3":"Mahalaxmi Hiware","state":"Maharashtra","state_code":"16","district":"Ahmed Nagar","district_code":"522","address1":"Pathardi","address2":"","latitude":"19.0469","longitude":"74.6015","accuracy":"3"},{"address3":"Mohoj BK","state":"Maharashtra","state_code":"16","district":"Ahmed Nagar","district_code":"522","address1":"Pathardi","address2":"","latitude":"19.0469","longitude":"74.6015","accuracy":"3"},{"address3":"Dhorjalgaon","state":"Maharashtra","state_code":"16","district":"Ahmed Nagar","district_code":"522","address1":"Pathardi","address2":"","latitude":"19.0469","longitude":"74.6015","accuracy":"3"}],"414502":[{"address3":"Shevgaon","state":"Maharashtra","state_code":"16","district":"Ahmed Nagar","district_code":"522","address1":"Shevgaon","address2":"","latitude":"19.3533","longitude":"75.22","accuracy":"4"},{"address3":"Tajnapur","state":"Maharashtra","state_code":"16","district":"Ahmed Nagar","district_code":"522","address1":"Shevgaon","address2":"","latitude":"19.2034","longitude":"74.6769","accuracy":"4"},{"address3":"Shahar Takali","state":"Maharashtra","state_code":"16","district":"Ahmed Nagar","district_code":"522","address1":"Shevgaon","address2":"","latitude":"19.7933","longitude":"75.7076","accuracy":"3"},{"address3":"Hasnapur","state":"Maharashtra","state_code":"16","district":"Ahmed Nagar","district_code":"522","address1":"Shevgaon","address2":"","latitude":"19.2034","longitude":"74.6769","accuracy":"4"},{"address3":"Samsud Erandgaon","state":"Maharashtra","state_code":"16","district":"Ahmed Nagar","district_code":"522","address1":"Shevgaon","address2":"","latitude":"19.7933","longitude":"75.7076","accuracy":"3"},{"address3":"Malegaon","state":"Maharashtra","state_code":"16","district":"Ahmed Nagar","district_code":"522","address1":"Shevgaon","address2":"","latitude":"19.2034","longitude":"74.6769","accuracy":"4"},{"address3":"Dahigaon","state":"Maharashtra","state_code":"16","district":"Ahmed Nagar","district_code":"522","address1":"Shevgaon","address2":"","latitude":"19.5033","longitude":"75.1809","accuracy":"4"},{"address3":"Kharadgaon","state":"Maharashtra","state_code":"16","district":"Ahmed Nagar","district_code":"522","address1":"Shevgaon","address2":"","latitude":"19.2034","longitude":"74.6769","accuracy":"4"},{"address3":"Golegaon","state":"Maharashtra","state_code":"16","district":"Ahmed Nagar","district_code":"522","address1":"Shevgaon","address2":"","latitude":"19.2034","longitude":"74.6769","accuracy":"4"},{"address3":"Ghotan","state":"Maharashtra","state_code":"16","district":"Ahmed Nagar","district_code":"522","address1":"Shevgaon","address2":"","latitude":"19.4003","longitude":"75.2903","accuracy":"4"},{"address3":"Varur BK","state":"Maharashtra","state_code":"16","district":"Ahmed Nagar","district_code":"522","address1":"Shevgaon","address2":"","latitude":"19.7933","longitude":"75.7076","accuracy":"3"},{"address3":"Ranegaon","state":"Maharashtra","state_code":"16","district":"Ahmed Nagar","district_code":"522","address1":"NA","address2":"","latitude":"19.7933","longitude":"75.7076","accuracy":"3"},{"address3":"Sultanpur BK","state":"Maharashtra","state_code":"16","district":"Ahmed Nagar","district_code":"522","address1":"Shevgaon","address2":"","latitude":"19.7933","longitude":"75.7076","accuracy":"3"},{"address3":"Vadule BK","state":"Maharashtra","state_code":"16","district":"Ahmed Nagar","district_code":"522","address1":"Shevgaon","address2":"","latitude":"19.7933","longitude":"75.7076","accuracy":"3"},{"address3":"Shingori","state":"Maharashtra","state_code":"16","district":"Ahmed Nagar","district_code":"522","address1":"Shevgaon","address2":"","latitude":"19.7933","longitude":"75.7076","accuracy":"3"},{"address3":"Samangaon","state":"Maharashtra","state_code":"16","district":"Ahmed Nagar","district_code":"522","address1":"Shevgaon","address2":"","latitude":"19.7933","longitude":"75.7076","accuracy":"3"},{"address3":"Rakshi","state":"Maharashtra","state_code":"16","district":"Ahmed Nagar","district_code":"522","address1":"Shevgaon","address2":"","latitude":"19.7933","longitude":"75.7076","accuracy":"3"},{"address3":"Ladjalgaon","state":"Maharashtra","state_code":"16","district":"Ahmed Nagar","district_code":"522","address1":"Shevgaon","address2":"","latitude":"19.7933","longitude":"75.7076","accuracy":"3"},{"address3":"Joharapur","state":"Maharashtra","state_code":"16","district":"Ahmed Nagar","district_code":"522","address1":"Shevgaon","address2":"","latitude":"19.7933","longitude":"75.7076","accuracy":"3"},{"address3":"Deotakli","state":"Maharashtra","state_code":"16","district":"Ahmed Nagar","district_code":"522","address1":"Shevgaon","address2":"","latitude":"19.7933","longitude":"75.7076","accuracy":"3"},{"address3":"Akhatwade","state":"Maharashtra","state_code":"16","district":"Ahmed Nagar","district_code":"522","address1":"Shevgaon","address2":"","latitude":"19.7933","longitude":"75.7076","accuracy":"3"},{"address3":"Bhavinimgaon","state":"Maharashtra","state_code":"16","district":"Ahmed Nagar","district_code":"522","address1":"Shevgaon","address2":"","latitude":"19.7933","longitude":"75.7076","accuracy":"3"},{"address3":"Bhatkudgaon","state":"Maharashtra","state_code":"16","district":"Ahmed Nagar","district_code":"522","address1":"Shevgaon","address2":"","latitude":"19.7933","longitude":"75.7076","accuracy":"3"},{"address3":"Khanapur  BO","state":"Maharashtra","state_code":"16","district":"Ahmed Nagar","district_code":"522","address1":"Shevgaon","address2":"","latitude":"19.7933","longitude":"75.7076","accuracy":"3"}],"414503":[{"address3":"Bodhegaon","state":"Maharashtra","state_code":"16","district":"Ahmed Nagar","district_code":"522","address1":"Shevgaon","address2":"","latitude":"19.307","longitude":"75.4439","accuracy":"4"},{"address3":"Kambi","state":"Maharashtra","state_code":"16","district":"Ahmed Nagar","district_code":"522","address1":"Shevgaon","address2":"","latitude":"19.3592","longitude":"75.5141","accuracy":"4"},{"address3":"Hatgaon","state":"Maharashtra","state_code":"16","district":"Ahmed Nagar","district_code":"522","address1":"Shevgaon","address2":"","latitude":"19.2034","longitude":"74.6769","accuracy":"4"},{"address3":"Mungi","state":"Maharashtra","state_code":"16","district":"Ahmed Nagar","district_code":"522","address1":"Shevgaon","address2":"","latitude":"19.4085","longitude":"75.4449","accuracy":"4"},{"address3":"Khampimpri","state":"Maharashtra","state_code":"16","district":"Ahmed Nagar","district_code":"522","address1":"Shevgaon","address2":"","latitude":"19.5653","longitude":"75.3246","accuracy":"3"},{"address3":"Chapadgaon","state":"Maharashtra","state_code":"16","district":"Ahmed Nagar","district_code":"522","address1":"Shevgaon","address2":"","latitude":"19.3547","longitude":"75.3692","accuracy":"4"},{"address3":"Thakur Pimpalgaon","state":"Maharashtra","state_code":"16","district":"Ahmed Nagar","district_code":"522","address1":"Shevgaon","address2":"","latitude":"19.5653","longitude":"75.3246","accuracy":"3"}],"414504":[{"address3":"Balamtakali","state":"Maharashtra","state_code":"16","district":"Ahmed Nagar","district_code":"522","address1":"Shevgaon","address2":"","latitude":"19.5645","longitude":"75.3689","accuracy":"1"},{"address3":"Gaikwad Jalgaon","state":"Maharashtra","state_code":"16","district":"Ahmed Nagar","district_code":"522","address1":"Shevgaon","address2":"","latitude":"19.5645","longitude":"75.3689","accuracy":"1"},{"address3":"Shekte","state":"Maharashtra","state_code":"16","district":"Ahmed Nagar","district_code":"522","address1":"Shevgaon","address2":"","latitude":"19.5645","longitude":"75.3689","accuracy":"1"}],"414505":[{"address3":"Padali","state":"Maharashtra","state_code":"16","district":"Ahmed Nagar","district_code":"522","address1":"Pathardi","address2":"","latitude":"19.2034","longitude":"74.6769","accuracy":"3"},{"address3":"Sultanpur KHD","state":"Maharashtra","state_code":"16","district":"Ahmed Nagar","district_code":"522","address1":"Pathardi","address2":"","latitude":"19.2822","longitude":"75.182","accuracy":"3"},{"address3":"Amarapur","state":"Maharashtra","state_code":"16","district":"Ahmed Nagar","district_code":"522","address1":"Pathardi","address2":"","latitude":"19.2822","longitude":"75.182","accuracy":"4"},{"address3":"Jawkhede Khalsa","state":"Maharashtra","state_code":"16","district":"Ahmed Nagar","district_code":"522","address1":"Pathardi","address2":"","latitude":"19.2822","longitude":"75.182","accuracy":"3"},{"address3":"Vridheshwar SSK","state":"Maharashtra","state_code":"16","district":"Ahmed Nagar","district_code":"522","address1":"Pathardi","address2":"","latitude":"19.2822","longitude":"75.182","accuracy":"3"},{"address3":"Avane BK","state":"Maharashtra","state_code":"16","district":"Ahmed Nagar","district_code":"522","address1":"Pathardi","address2":"","latitude":"19.2822","longitude":"75.182","accuracy":"3"},{"address3":"Susare","state":"Maharashtra","state_code":"16","district":"Ahmed Nagar","district_code":"522","address1":"Pathardi","address2":"","latitude":"19.2822","longitude":"75.182","accuracy":"3"},{"address3":"Kasar Pimpalgaon","state":"Maharashtra","state_code":"16","district":"Ahmed Nagar","district_code":"522","address1":"Pathardi","address2":"","latitude":"19.2822","longitude":"75.182","accuracy":"3"}],"414601":[{"address3":"Shendi","state":"Maharashtra","state_code":"16","district":"Ahmed Nagar","district_code":"522","address1":"Ahmednagar","address2":"","latitude":"19.1634","longitude":"74.7718","accuracy":"4"},{"address3":"Pimpalgaon Malvi","state":"Maharashtra","state_code":"16","district":"Ahmed Nagar","district_code":"522","address1":"Ahmednagar","address2":"","latitude":"19.1877","longitude":"74.7884","accuracy":"3"},{"address3":"Jeur (Ahmed Nagar)","state":"Maharashtra","state_code":"16","district":"Ahmed Nagar","district_code":"522","address1":"Ahmednagar","address2":"","latitude":"19.2119","longitude":"74.8051","accuracy":"4"},{"address3":"Pimpalgaon Ujjani","state":"Maharashtra","state_code":"16","district":"Ahmed Nagar","district_code":"522","address1":"Ahmednagar","address2":"","latitude":"19.1877","longitude":"74.7884","accuracy":"3"}],"414602":[{"address3":"Kharwandi","state":"Maharashtra","state_code":"16","district":"Ahmed Nagar","district_code":"522","address1":"Newasa","address2":"","latitude":"19.162","longitude":"75.3763","accuracy":"4"},{"address3":"Tamaswadi","state":"Maharashtra","state_code":"16","district":"Ahmed Nagar","district_code":"522","address1":"Newasa","address2":"","latitude":"19.2034","longitude":"74.6769","accuracy":"4"},{"address3":"Ranjangaondevi","state":"Maharashtra","state_code":"16","district":"Ahmed Nagar","district_code":"522","address1":"Newasa","address2":"","latitude":"19.1575","longitude":"75.9985","accuracy":"3"},{"address3":"Vadalamission","state":"Maharashtra","state_code":"16","district":"Ahmed Nagar","district_code":"522","address1":"Newasa","address2":"","latitude":"19.1575","longitude":"75.9985","accuracy":"3"},{"address3":"Mali Chinchore","state":"Maharashtra","state_code":"16","district":"Ahmed Nagar","district_code":"522","address1":"Newasa","address2":"","latitude":"19.1575","longitude":"75.9985","accuracy":"3"}],"414603":[{"address3":"Nevasa","state":"Maharashtra","state_code":"16","district":"Ahmed Nagar","district_code":"522","address1":"Nevasa","address2":"","latitude":"19.5526","longitude":"74.9258","accuracy":"4"},{"address3":"Shirasgaon","state":"Maharashtra","state_code":"16","district":"Ahmed Nagar","district_code":"522","address1":"Nevasa","address2":"","latitude":"19.2034","longitude":"74.6769","accuracy":"4"},{"address3":"Nevasa Bk","state":"Maharashtra","state_code":"16","district":"Ahmed Nagar","district_code":"522","address1":"Nevasa","address2":"","latitude":"19.6675","longitude":"75.7361","accuracy":"3"},{"address3":"Bhalgaon","state":"Maharashtra","state_code":"16","district":"Ahmed Nagar","district_code":"522","address1":"Nevasa","address2":"","latitude":"19.1017","longitude":"75.4556","accuracy":"4"},{"address3":"Toka","state":"Maharashtra","state_code":"16","district":"Ahmed Nagar","district_code":"522","address1":"Nevasa","address2":"","latitude":"19.6675","longitude":"75.7361","accuracy":"3"},{"address3":"Salabatpur","state":"Maharashtra","state_code":"16","district":"Ahmed Nagar","district_code":"522","address1":"Nevasa","address2":"","latitude":"19.5502","longitude":"75.0508","accuracy":"4"},{"address3":"Ramdoh","state":"Maharashtra","state_code":"16","district":"Ahmed Nagar","district_code":"522","address1":"Nevasa","address2":"","latitude":"19.6675","longitude":"75.7361","accuracy":"3"},{"address3":"Varkhed","state":"Maharashtra","state_code":"16","district":"Ahmed Nagar","district_code":"522","address1":"Nevasa","address2":"","latitude":"19.2034","longitude":"74.6769","accuracy":"4"},{"address3":"Mukindpur","state":"Maharashtra","state_code":"16","district":"Ahmed Nagar","district_code":"522","address1":"Nevasa","address2":"","latitude":"19.6675","longitude":"75.7361","accuracy":"3"},{"address3":"Khedle Kajali","state":"Maharashtra","state_code":"16","district":"Ahmed Nagar","district_code":"522","address1":"Nevasa","address2":"","latitude":"19.6675","longitude":"75.7361","accuracy":"3"},{"address3":"Suregaon","state":"Maharashtra","state_code":"16","district":"Ahmed Nagar","district_code":"522","address1":"Nevasa","address2":"","latitude":"19.6675","longitude":"75.7361","accuracy":"3"},{"address3":"Jalke Kd","state":"Maharashtra","state_code":"16","district":"Ahmed Nagar","district_code":"522","address1":"Nevasa","address2":"","latitude":"19.6675","longitude":"75.7361","accuracy":"3"},{"address3":"Murme (Deogad)","state":"Maharashtra","state_code":"16","district":"Ahmed Nagar","district_code":"522","address1":"Nevasa","address2":"","latitude":"19.6675","longitude":"75.7361","accuracy":"3"},{"address3":"Galnimb","state":"Maharashtra","state_code":"16","district":"Ahmed Nagar","district_code":"522","address1":"Nevasa","address2":"","latitude":"19.6675","longitude":"75.7361","accuracy":"3"}],"414604":[{"address3":"Tarwadi","state":"Maharashtra","state_code":"16","district":"Ahmed Nagar","district_code":"522","address1":"Nevasa","address2":"","latitude":"19.2034","longitude":"74.6769","accuracy":"4"},{"address3":"Kukana","state":"Maharashtra","state_code":"16","district":"Ahmed Nagar","district_code":"522","address1":"Nevasa","address2":"","latitude":"19.4355","longitude":"75.071","accuracy":"4"},{"address3":"Georai","state":"Maharashtra","state_code":"16","district":"Ahmed Nagar","district_code":"522","address1":"Nevasa","address2":"","latitude":"19.9996","longitude":"75.2919","accuracy":"3"},{"address3":"Deogaon","state":"Maharashtra","state_code":"16","district":"Ahmed Nagar","district_code":"522","address1":"Nevasa","address2":"","latitude":"19.2034","longitude":"74.6769","accuracy":"4"},{"address3":"Dedgaon","state":"Maharashtra","state_code":"16","district":"Ahmed Nagar","district_code":"522","address1":"Nevasa","address2":"","latitude":"19.9996","longitude":"75.2919","accuracy":"3"},{"address3":"Jeur","state":"Maharashtra","state_code":"16","district":"Ahmed Nagar","district_code":"522","address1":"Nevasa","address2":"","latitude":"19.2119","longitude":"74.8051","accuracy":"4"},{"address3":"Wakadi","state":"Maharashtra","state_code":"16","district":"Ahmed Nagar","district_code":"522","address1":"Nevasa","address2":"","latitude":"19.9996","longitude":"75.2919","accuracy":"3"},{"address3":"Telkudgaon","state":"Maharashtra","state_code":"16","district":"Ahmed Nagar","district_code":"522","address1":"Nevasa","address2":"","latitude":"19.9996","longitude":"75.2919","accuracy":"3"}],"414605":[{"address3":"Bhende SK","state":"Maharashtra","state_code":"16","district":"Ahmed Nagar","district_code":"522","address1":"Nevasa","address2":"","latitude":"19.6562","longitude":"75.5862","accuracy":"1"}],"414606":[{"address3":"Kauthe","state":"Maharashtra","state_code":"16","district":"Ahmed Nagar","district_code":"522","address1":"Newasa","address2":"","latitude":"19.2034","longitude":"74.6769","accuracy":"3"},{"address3":"Chanda","state":"Maharashtra","state_code":"16","district":"Ahmed Nagar","district_code":"522","address1":"Newasa","address2":"","latitude":"19.2034","longitude":"74.6769","accuracy":"3"},{"address3":"Rastapur","state":"Maharashtra","state_code":"16","district":"Ahmed Nagar","district_code":"522","address1":"Newasa","address2":"","latitude":"19.2034","longitude":"74.6769","accuracy":"4"}],"414607":[{"address3":"Kangoni","state":"Maharashtra","state_code":"16","district":"Ahmed Nagar","district_code":"522","address1":"Newasa","address2":"","latitude":"19.1464","longitude":"76.8033","accuracy":"3"},{"address3":"Ghodegaon (Ahmed Nagar)","state":"Maharashtra","state_code":"16","district":"Ahmed Nagar","district_code":"522","address1":"Newasa","address2":"","latitude":"19.1464","longitude":"76.8033","accuracy":"3"},{"address3":"Lohgaon","state":"Maharashtra","state_code":"16","district":"Ahmed Nagar","district_code":"522","address1":"Newasa","address2":"","latitude":"19.2034","longitude":"74.6769","accuracy":"4"},{"address3":"Singave Tukai","state":"Maharashtra","state_code":"16","district":"Ahmed Nagar","district_code":"522","address1":"Newasa","address2":"","latitude":"19.1464","longitude":"76.8033","accuracy":"3"}],"414609":[{"address3":"Bhanashivara","state":"Maharashtra","state_code":"16","district":"Ahmed Nagar","district_code":"522","address1":"Nevasa","address2":"","latitude":"19.4851","longitude":"74.9684","accuracy":"4"},{"address3":"Usthal Dumala","state":"Maharashtra","state_code":"16","district":"Ahmed Nagar","district_code":"522","address1":"Nevasa","address2":"","latitude":"19.4851","longitude":"74.9684","accuracy":"3"}],"414701":[{"address3":"Kauthe","state":"Maharashtra","state_code":"16","district":"Ahmed Nagar","district_code":"522","address1":"NA","address2":"","latitude":"19.2034","longitude":"74.6769","accuracy":"4"},{"address3":"Nimgaon Khalu","state":"Maharashtra","state_code":"16","district":"Ahmed Nagar","district_code":"522","address1":"Shrigonda","address2":"","latitude":"18.7165","longitude":"74.3741","accuracy":"3"},{"address3":"Kashti","state":"Maharashtra","state_code":"16","district":"Ahmed Nagar","district_code":"522","address1":"Shrigonda","address2":"","latitude":"18.5496","longitude":"74.5815","accuracy":"4"},{"address3":"Chimbhale","state":"Maharashtra","state_code":"16","district":"Ahmed Nagar","district_code":"522","address1":"Shrigonda","address2":"","latitude":"18.7165","longitude":"74.3741","accuracy":"3"},{"address3":"Yelapane","state":"Maharashtra","state_code":"16","district":"Ahmed Nagar","district_code":"522","address1":"Shrigonda","address2":"","latitude":"18.7165","longitude":"74.3741","accuracy":"3"},{"address3":"Hangewadi","state":"Maharashtra","state_code":"16","district":"Ahmed Nagar","district_code":"522","address1":"Shrigonda","address2":"","latitude":"18.7165","longitude":"74.3741","accuracy":"3"},{"address3":"Ajnuj","state":"Maharashtra","state_code":"16","district":"Ahmed Nagar","district_code":"522","address1":"Shrigonda","address2":"","latitude":"18.7165","longitude":"74.3741","accuracy":"3"}],"credits":[{"name":"geonames","url":"https://www.geonames.org"}],"last_update":"2019-03-01T09:01:31.885Z"}