{"422001":[{"address3":"Nashik Main Road","state":"Maharashtra","state_code":"16","district":"Nashik","district_code":"516","address1":"Nashik","address2":"","latitude":"20.2589","longitude":"74.5521","accuracy":"1"},{"address3":"Nashik H.O","state":"Maharashtra","state_code":"16","district":"Nashik","district_code":"516","address1":"Nashik","address2":"","latitude":"20.2589","longitude":"74.5521","accuracy":"1"},{"address3":"Nashik City","state":"Maharashtra","state_code":"16","district":"Nashik","district_code":"516","address1":"Nashik","address2":"","latitude":"20.2589","longitude":"74.5521","accuracy":"1"},{"address3":"Budhwar Peth","state":"Maharashtra","state_code":"16","district":"Nashik","district_code":"516","address1":"Nashik","address2":"","latitude":"20.2589","longitude":"74.5521","accuracy":"1"}],"422002":[{"address3":"Jeevan Prakash","state":"Maharashtra","state_code":"16","district":"Nashik","district_code":"516","address1":"Nashik","address2":"","latitude":"20.2589","longitude":"74.5521","accuracy":"1"},{"address3":"Gole Colony","state":"Maharashtra","state_code":"16","district":"Nashik","district_code":"516","address1":"Nashik","address2":"","latitude":"20.2589","longitude":"74.5521","accuracy":"1"}],"422003":[{"address3":"Puria Park","state":"Maharashtra","state_code":"16","district":"Nashik","district_code":"516","address1":"Nashik","address2":"","latitude":"20.2377","longitude":"74.4365","accuracy":"3"},{"address3":"Rasegaon","state":"Maharashtra","state_code":"16","district":"Nashik","district_code":"516","address1":"Dindori","address2":"","latitude":"20.1568","longitude":"73.7482","accuracy":"4"},{"address3":"Odha","state":"Maharashtra","state_code":"16","district":"Nashik","district_code":"516","address1":"Nashik","address2":"","latitude":"20.2377","longitude":"74.4365","accuracy":"3"},{"address3":"Ambegaon","state":"Maharashtra","state_code":"16","district":"Nashik","district_code":"516","address1":"Dindori","address2":"","latitude":"20.1451","longitude":"74.2761","accuracy":"4"},{"address3":"Chitegaon","state":"Maharashtra","state_code":"16","district":"Nashik","district_code":"516","address1":"Surgana","address2":"","latitude":"20.2592","longitude":"74.0714","accuracy":"4"},{"address3":"Adgaon","state":"Maharashtra","state_code":"16","district":"Nashik","district_code":"516","address1":"Nashik","address2":"","latitude":"20.3255","longitude":"74.1667","accuracy":"4"},{"address3":"Dari","state":"Maharashtra","state_code":"16","district":"Nashik","district_code":"516","address1":"Dindori","address2":"","latitude":"20.2592","longitude":"74.0714","accuracy":"4"},{"address3":"Chachadgaon","state":"Maharashtra","state_code":"16","district":"Nashik","district_code":"516","address1":"Dindori","address2":"","latitude":"20.2377","longitude":"74.4365","accuracy":"3"},{"address3":"Jambutke","state":"Maharashtra","state_code":"16","district":"Nashik","district_code":"516","address1":"Dindori","address2":"","latitude":"20.3159","longitude":"74.0076","accuracy":"4"},{"address3":"Umrala","state":"Maharashtra","state_code":"16","district":"Nashik","district_code":"516","address1":"Nashik","address2":"","latitude":"20.2377","longitude":"74.4365","accuracy":"3"},{"address3":"Darnasangvi","state":"Maharashtra","state_code":"16","district":"Nashik","district_code":"516","address1":"Niphad","address2":"","latitude":"20.2377","longitude":"74.4365","accuracy":"3"},{"address3":"Waghdad Dam","state":"Maharashtra","state_code":"16","district":"Nashik","district_code":"516","address1":"Nashik","address2":"","latitude":"20.2377","longitude":"74.4365","accuracy":"3"},{"address3":"Panchvati","state":"Maharashtra","state_code":"16","district":"Nashik","district_code":"516","address1":"Nashik","address2":"","latitude":"20.2377","longitude":"74.4365","accuracy":"3"},{"address3":"Matori","state":"Maharashtra","state_code":"16","district":"Nashik","district_code":"516","address1":"Dindori","address2":"","latitude":"20.2377","longitude":"74.4365","accuracy":"3"},{"address3":"Kalaram Mandir","state":"Maharashtra","state_code":"16","district":"Nashik","district_code":"516","address1":"Nashik","address2":"","latitude":"20.2377","longitude":"74.4365","accuracy":"3"},{"address3":"Lakhalgaon","state":"Maharashtra","state_code":"16","district":"Nashik","district_code":"516","address1":"Nashik","address2":"","latitude":"20.2377","longitude":"74.4365","accuracy":"3"},{"address3":"Ashewadi","state":"Maharashtra","state_code":"16","district":"Nashik","district_code":"516","address1":"Nashik","address2":"","latitude":"20.2377","longitude":"74.4365","accuracy":"3"},{"address3":"Madsangvi","state":"Maharashtra","state_code":"16","district":"Nashik","district_code":"516","address1":"Nashik","address2":"","latitude":"20.2377","longitude":"74.4365","accuracy":"3"},{"address3":"Makhmalabad","state":"Maharashtra","state_code":"16","district":"Nashik","district_code":"516","address1":"Nashik","address2":"","latitude":"20.2377","longitude":"74.4365","accuracy":"3"},{"address3":"Pimpri-sayyed","state":"Maharashtra","state_code":"16","district":"Nashik","district_code":"516","address1":"Dindori","address2":"","latitude":"20.2377","longitude":"74.4365","accuracy":"3"},{"address3":"Mungsara","state":"Maharashtra","state_code":"16","district":"Nashik","district_code":"516","address1":"Dindori","address2":"","latitude":"20.2377","longitude":"74.4365","accuracy":"3"}],"422004":[{"address3":"MUHS","state":"Maharashtra","state_code":"16","district":"Nashik","district_code":"516","address1":"Nashik","address2":"","latitude":"20.2798","longitude":"74.0201","accuracy":"3"},{"address3":"Pimpalnare","state":"Maharashtra","state_code":"16","district":"Nashik","district_code":"516","address1":"Dindori","address2":"","latitude":"20.2798","longitude":"74.0201","accuracy":"4"},{"address3":"Talegaon(Dindori)","state":"Maharashtra","state_code":"16","district":"Nashik","district_code":"516","address1":"Dindori","address2":"","latitude":"20.2798","longitude":"74.0201","accuracy":"3"},{"address3":"Meri Colony","state":"Maharashtra","state_code":"16","district":"Nashik","district_code":"516","address1":"Nashik","address2":"","latitude":"20.2798","longitude":"74.0201","accuracy":"3"},{"address3":"Khatwad","state":"Maharashtra","state_code":"16","district":"Nashik","district_code":"516","address1":"Dindori","address2":"","latitude":"20.2798","longitude":"74.0201","accuracy":"3"},{"address3":"Mhasrul","state":"Maharashtra","state_code":"16","district":"Nashik","district_code":"516","address1":"Nashik","address2":"","latitude":"20.2798","longitude":"74.0201","accuracy":"3"},{"address3":"Akrale","state":"Maharashtra","state_code":"16","district":"Nashik","district_code":"516","address1":"Dindori","address2":"","latitude":"20.2798","longitude":"74.0201","accuracy":"3"},{"address3":"Dhakambe","state":"Maharashtra","state_code":"16","district":"Nashik","district_code":"516","address1":"Dindori","address2":"","latitude":"20.2798","longitude":"74.0201","accuracy":"3"}],"422005":[{"address3":"H P T College","state":"Maharashtra","state_code":"16","district":"Nashik","district_code":"516","address1":"Nashik","address2":"","latitude":"20.2589","longitude":"74.5521","accuracy":"1"},{"address3":"Udhoji Maratha Boarding","state":"Maharashtra","state_code":"16","district":"Nashik","district_code":"516","address1":"Nashik","address2":"","latitude":"20.2589","longitude":"74.5521","accuracy":"1"},{"address3":"Bhonsala Military School","state":"Maharashtra","state_code":"16","district":"Nashik","district_code":"516","address1":"Nashik","address2":"","latitude":"20.2589","longitude":"74.5521","accuracy":"1"}],"422006":[{"address3":"Wadala","state":"Maharashtra","state_code":"16","district":"Nashik","district_code":"516","address1":"Nashik","address2":"","latitude":"20.3795","longitude":"73.9848","accuracy":"4"},{"address3":"Upnagar","state":"Maharashtra","state_code":"16","district":"Nashik","district_code":"516","address1":"Nashik","address2":"","latitude":"20.3795","longitude":"73.9848","accuracy":"3"},{"address3":"Gandhi Nagar (Nashik)","state":"Maharashtra","state_code":"16","district":"Nashik","district_code":"516","address1":"Nashik","address2":"","latitude":"20.3795","longitude":"73.9848","accuracy":"3"}],"422007":[{"address3":"Nanashi","state":"Maharashtra","state_code":"16","district":"Nashik","district_code":"516","address1":"Dindori","address2":"","latitude":"20.2542","longitude":"75.1496","accuracy":"3"},{"address3":"Thangaon","state":"Maharashtra","state_code":"16","district":"Nashik","district_code":"516","address1":"Nashik","address2":"","latitude":"20.1174","longitude":"74.3984","accuracy":"4"},{"address3":"Kaudasar","state":"Maharashtra","state_code":"16","district":"Nashik","district_code":"516","address1":"Dindori","address2":"","latitude":"20.2542","longitude":"75.1496","accuracy":"3"},{"address3":"Pahuchibari","state":"Maharashtra","state_code":"16","district":"Nashik","district_code":"516","address1":"Peint","address2":"","latitude":"20.2542","longitude":"75.1496","accuracy":"3"},{"address3":"Haste","state":"Maharashtra","state_code":"16","district":"Nashik","district_code":"516","address1":"Surgana","address2":"","latitude":"20.2592","longitude":"74.0714","accuracy":"4"},{"address3":"Palasvihir","state":"Maharashtra","state_code":"16","district":"Nashik","district_code":"516","address1":"Dindori","address2":"","latitude":"20.2542","longitude":"75.1496","accuracy":"3"},{"address3":"Mahaje","state":"Maharashtra","state_code":"16","district":"Nashik","district_code":"516","address1":"Dindori","address2":"","latitude":"20.2542","longitude":"75.1496","accuracy":"3"},{"address3":"Ambode","state":"Maharashtra","state_code":"16","district":"Nashik","district_code":"516","address1":"Surgana","address2":"","latitude":"20.2592","longitude":"74.0714","accuracy":"4"},{"address3":"Gandole","state":"Maharashtra","state_code":"16","district":"Nashik","district_code":"516","address1":"Surgana","address2":"","latitude":"20.2542","longitude":"75.1496","accuracy":"3"},{"address3":"Satpur Township","state":"Maharashtra","state_code":"16","district":"Nashik","district_code":"516","address1":"Nashik","address2":"","latitude":"20.2542","longitude":"75.1496","accuracy":"3"},{"address3":"Mankhed","state":"Maharashtra","state_code":"16","district":"Nashik","district_code":"516","address1":"Surgana","address2":"","latitude":"20.2542","longitude":"75.1496","accuracy":"3"},{"address3":"Ambupada","state":"Maharashtra","state_code":"16","district":"Nashik","district_code":"516","address1":"Surgana","address2":"","latitude":"20.2542","longitude":"75.1496","accuracy":"3"},{"address3":"Industrial Estate (Nashik)","state":"Maharashtra","state_code":"16","district":"Nashik","district_code":"516","address1":"Nashik","address2":"","latitude":"20.2542","longitude":"75.1496","accuracy":"3"},{"address3":"Barhe","state":"Maharashtra","state_code":"16","district":"Nashik","district_code":"516","address1":"Surgana","address2":"","latitude":"20.2542","longitude":"75.1496","accuracy":"3"},{"address3":"Police Training School","state":"Maharashtra","state_code":"16","district":"Nashik","district_code":"516","address1":"Nashik","address2":"","latitude":"20.2542","longitude":"75.1496","accuracy":"3"},{"address3":"Jahule","state":"Maharashtra","state_code":"16","district":"Nashik","district_code":"516","address1":"Surgana","address2":"","latitude":"20.2542","longitude":"75.1496","accuracy":"3"},{"address3":"Boy's Town","state":"Maharashtra","state_code":"16","district":"Nashik","district_code":"516","address1":"Nashik","address2":"","latitude":"20.2542","longitude":"75.1496","accuracy":"3"},{"address3":"Jalkhed","state":"Maharashtra","state_code":"16","district":"Nashik","district_code":"516","address1":"Nashik","address2":"","latitude":"20.2542","longitude":"75.1496","accuracy":"3"},{"address3":"Rakshasbhuvan","state":"Maharashtra","state_code":"16","district":"Nashik","district_code":"516","address1":"Surgana","address2":"","latitude":"20.2542","longitude":"75.1496","accuracy":"3"}],"422008":[{"address3":"Trimurti Chowk","state":"Maharashtra","state_code":"16","district":"Nashik","district_code":"516","address1":"Nashik","address2":"","latitude":"20.2589","longitude":"74.5521","accuracy":"1"}],"422009":[{"address3":"Indira Nagar (Nashik)","state":"Maharashtra","state_code":"16","district":"Nashik","district_code":"516","address1":"Nashik","address2":"","latitude":"20.2589","longitude":"74.5521","accuracy":"1"},{"address3":"Cidco Colony (Nashik)","state":"Maharashtra","state_code":"16","district":"Nashik","district_code":"516","address1":"Nashik","address2":"","latitude":"20.2589","longitude":"74.5521","accuracy":"1"}],"422010":[{"address3":"Pathardi","state":"Maharashtra","state_code":"16","district":"Nashik","district_code":"516","address1":"Nashik","address2":"","latitude":"20.2592","longitude":"74.0714","accuracy":"4"},{"address3":"Pimplad","state":"Maharashtra","state_code":"16","district":"Nashik","district_code":"516","address1":"Nashik","address2":"","latitude":"19.1728","longitude":"75.1743","accuracy":"3"},{"address3":"Ambad A.S.","state":"Maharashtra","state_code":"16","district":"Nashik","district_code":"516","address1":"Nashik","address2":"","latitude":"19.1728","longitude":"75.1743","accuracy":"3"},{"address3":"Vilholi","state":"Maharashtra","state_code":"16","district":"Nashik","district_code":"516","address1":"Nashik","address2":"","latitude":"19.1728","longitude":"75.1743","accuracy":"3"},{"address3":"Pimpalgaon Khamb","state":"Maharashtra","state_code":"16","district":"Nashik","district_code":"516","address1":"Nashik","address2":"","latitude":"19.1728","longitude":"75.1743","accuracy":"3"}],"422011":[{"address3":"Dwarka Corner","state":"Maharashtra","state_code":"16","district":"Nashik","district_code":"516","address1":"Nashik","address2":"","latitude":"19.1728","longitude":"75.1743","accuracy":"1"}],"422012":[{"address3":"Ashok Nagar (Nashik)","state":"Maharashtra","state_code":"16","district":"Nashik","district_code":"516","address1":"Nashik","address2":"","latitude":"19.1728","longitude":"75.1743","accuracy":"1"}],"422013":[{"address3":"Bhonsala","state":"Maharashtra","state_code":"16","district":"Nashik","district_code":"516","address1":"Nashik","address2":"","latitude":"19.1728","longitude":"75.1743","accuracy":"1"},{"address3":"Sawarkar Nagar","state":"Maharashtra","state_code":"16","district":"Nashik","district_code":"516","address1":"Nashik","address2":"","latitude":"19.1728","longitude":"75.1743","accuracy":"1"},{"address3":"Udoji","state":"Maharashtra","state_code":"16","district":"Nashik","district_code":"516","address1":"Nashik","address2":"","latitude":"19.1728","longitude":"75.1743","accuracy":"1"}],"422101":[{"address3":"Nehru Nagar (Nashik)","state":"Maharashtra","state_code":"16","district":"Nashik","district_code":"516","address1":"Nashik","address2":"","latitude":"20.1657","longitude":"75.053","accuracy":"1"},{"address3":"Nashik Road H.O","state":"Maharashtra","state_code":"16","district":"Nashik","district_code":"516","address1":"Nashik","address2":"","latitude":"20.1657","longitude":"75.053","accuracy":"1"},{"address3":"Idgaon Devlali","state":"Maharashtra","state_code":"16","district":"Nashik","district_code":"516","address1":"Nashik","address2":"","latitude":"20.1657","longitude":"75.053","accuracy":"1"},{"address3":"India Security Press","state":"Maharashtra","state_code":"16","district":"Nashik","district_code":"516","address1":"Nashik","address2":"","latitude":"20.1657","longitude":"75.053","accuracy":"1"}],"422102":[{"address3":"Brahmanwade","state":"Maharashtra","state_code":"16","district":"Nashik","district_code":"516","address1":"Sinnar","address2":"","latitude":"20.2592","longitude":"74.0714","accuracy":"4"},{"address3":"Palse","state":"Maharashtra","state_code":"16","district":"Nashik","district_code":"516","address1":"Nashik","address2":"","latitude":"20.4023","longitude":"75.4874","accuracy":"3"},{"address3":"Shinde","state":"Maharashtra","state_code":"16","district":"Nashik","district_code":"516","address1":"Nashik","address2":"","latitude":"20.3131","longitude":"74.0995","accuracy":"4"},{"address3":"Jaigaon","state":"Maharashtra","state_code":"16","district":"Nashik","district_code":"516","address1":"Sinnar","address2":"","latitude":"20.2592","longitude":"74.0714","accuracy":"4"},{"address3":"Vadzire","state":"Maharashtra","state_code":"16","district":"Nashik","district_code":"516","address1":"Sinnar","address2":"","latitude":"20.4023","longitude":"75.4874","accuracy":"3"},{"address3":"Chincholi","state":"Maharashtra","state_code":"16","district":"Nashik","district_code":"516","address1":"Sinnar","address2":"","latitude":"20.2922","longitude":"74.1724","accuracy":"4"},{"address3":"Pimpalgaon Nipani","state":"Maharashtra","state_code":"16","district":"Nashik","district_code":"516","address1":"Niphad","address2":"","latitude":"20.2592","longitude":"74.0714","accuracy":"4"},{"address3":"Jakhori","state":"Maharashtra","state_code":"16","district":"Nashik","district_code":"516","address1":"Nashik","address2":"","latitude":"20.4023","longitude":"75.4874","accuracy":"3"},{"address3":"Naigaon","state":"Maharashtra","state_code":"16","district":"Nashik","district_code":"516","address1":"Sinnar","address2":"","latitude":"20.2592","longitude":"74.0714","accuracy":"4"},{"address3":"Nashik Road Camp","state":"Maharashtra","state_code":"16","district":"Nashik","district_code":"516","address1":"Nashik","address2":"","latitude":"20.4023","longitude":"75.4874","accuracy":"3"},{"address3":"Jogalthembi","state":"Maharashtra","state_code":"16","district":"Nashik","district_code":"516","address1":"Sinnar","address2":"","latitude":"20.4023","longitude":"75.4874","accuracy":"3"}],"422103":[{"address3":"Devpur","state":"Maharashtra","state_code":"16","district":"Nashik","district_code":"516","address1":"Sinnar","address2":"","latitude":"19.8664","longitude":"74.1517","accuracy":"4"},{"address3":"Tamaswadi","state":"Maharashtra","state_code":"16","district":"Nashik","district_code":"516","address1":"Niphad","address2":"","latitude":"20.2592","longitude":"74.0714","accuracy":"4"},{"address3":"Thangaon","state":"Maharashtra","state_code":"16","district":"Nashik","district_code":"516","address1":"Sinnar","address2":"","latitude":"20.1174","longitude":"74.3984","accuracy":"4"},{"address3":"Manegaon","state":"Maharashtra","state_code":"16","district":"Nashik","district_code":"516","address1":"Sinnar","address2":"","latitude":"20.2592","longitude":"74.0714","accuracy":"4"},{"address3":"Vadangli","state":"Maharashtra","state_code":"16","district":"Nashik","district_code":"516","address1":"Sinnar","address2":"","latitude":"19.9209","longitude":"74.1644","accuracy":"4"},{"address3":"Pimpale","state":"Maharashtra","state_code":"16","district":"Nashik","district_code":"516","address1":"Sinnar","address2":"","latitude":"20.0079","longitude":"74.7633","accuracy":"3"},{"address3":"Patole","state":"Maharashtra","state_code":"16","district":"Nashik","district_code":"516","address1":"Sinnar","address2":"","latitude":"19.7832","longitude":"74.0005","accuracy":"4"},{"address3":"Somthane","state":"Maharashtra","state_code":"16","district":"Nashik","district_code":"516","address1":"Sinnar","address2":"","latitude":"20.0079","longitude":"74.7633","accuracy":"3"},{"address3":"Dubera","state":"Maharashtra","state_code":"16","district":"Nashik","district_code":"516","address1":"Sinnar","address2":"","latitude":"19.78","longitude":"73.9743","accuracy":"4"},{"address3":"Nimgaon (Sinnar)","state":"Maharashtra","state_code":"16","district":"Nashik","district_code":"516","address1":"Sinnar","address2":"","latitude":"20.0079","longitude":"74.7633","accuracy":"3"},{"address3":"Sinnar","state":"Maharashtra","state_code":"16","district":"Nashik","district_code":"516","address1":"Sinnar","address2":"","latitude":"19.845","longitude":"73.9987","accuracy":"4"},{"address3":"Lonarwadi","state":"Maharashtra","state_code":"16","district":"Nashik","district_code":"516","address1":"Sinnar","address2":"","latitude":"20.2592","longitude":"74.0714","accuracy":"4"},{"address3":"Dhondbhar","state":"Maharashtra","state_code":"16","district":"Nashik","district_code":"516","address1":"Sinnar","address2":"","latitude":"20.0079","longitude":"74.7633","accuracy":"3"},{"address3":"Baragaonpimpri","state":"Maharashtra","state_code":"16","district":"Nashik","district_code":"516","address1":"Sinnar","address2":"","latitude":"20.0079","longitude":"74.7633","accuracy":"3"},{"address3":"Konambe","state":"Maharashtra","state_code":"16","district":"Nashik","district_code":"516","address1":"Sinnar","address2":"","latitude":"20.0079","longitude":"74.7633","accuracy":"3"},{"address3":"Panchale","state":"Maharashtra","state_code":"16","district":"Nashik","district_code":"516","address1":"Sinnar","address2":"","latitude":"20.0079","longitude":"74.7633","accuracy":"3"},{"address3":"Sonambe","state":"Maharashtra","state_code":"16","district":"Nashik","district_code":"516","address1":"Sinnar","address2":"","latitude":"20.0079","longitude":"74.7633","accuracy":"3"},{"address3":"Madhmeshwar","state":"Maharashtra","state_code":"16","district":"Nashik","district_code":"516","address1":"Niphad","address2":"","latitude":"20.0079","longitude":"74.7633","accuracy":"3"},{"address3":"Mhalsakore","state":"Maharashtra","state_code":"16","district":"Nashik","district_code":"516","address1":"Niphad","address2":"","latitude":"20.0079","longitude":"74.7633","accuracy":"3"}],"422104":[{"address3":"Wavi","state":"Maharashtra","state_code":"16","district":"Nashik","district_code":"516","address1":"Sinnar","address2":"","latitude":"20.1657","longitude":"75.053","accuracy":"1"},{"address3":"Shaha","state":"Maharashtra","state_code":"16","district":"Nashik","district_code":"516","address1":"Sinnar","address2":"","latitude":"20.2592","longitude":"74.0714","accuracy":"1"},{"address3":"Pangari ","state":"Maharashtra","state_code":"16","district":"Nashik","district_code":"516","address1":"Nashik","address2":"","latitude":"20.2592","longitude":"74.0714","accuracy":"1"},{"address3":"Sayale","state":"Maharashtra","state_code":"16","district":"Nashik","district_code":"516","address1":"Sinnar","address2":"","latitude":"20.1657","longitude":"75.053","accuracy":"1"},{"address3":"Dahiwadi","state":"Maharashtra","state_code":"16","district":"Nashik","district_code":"516","address1":"Sinnar","address2":"","latitude":"20.1657","longitude":"75.053","accuracy":"1"},{"address3":"Mithsagare","state":"Maharashtra","state_code":"16","district":"Nashik","district_code":"516","address1":"Sinnar","address2":"","latitude":"20.1657","longitude":"75.053","accuracy":"1"},{"address3":"Pathare","state":"Maharashtra","state_code":"16","district":"Nashik","district_code":"516","address1":"Sinnar","address2":"","latitude":"20.1657","longitude":"75.053","accuracy":"1"}],"422105":[{"address3":"TP Station Eklahre","state":"Maharashtra","state_code":"16","district":"Nashik","district_code":"516","address1":"Nashik","address2":"","latitude":"20.1657","longitude":"75.053","accuracy":"1"},{"address3":"Kotamgaon","state":"Maharashtra","state_code":"16","district":"Nashik","district_code":"516","address1":"Nashik","address2":"","latitude":"20.1657","longitude":"75.053","accuracy":"1"}],"422112":[{"address3":"I.A. Musalgaon Sinnar","state":"Maharashtra","state_code":"16","district":"Nashik","district_code":"516","address1":"Sinnar","address2":"","latitude":"20.9671","longitude":"79.3816","accuracy":"3"},{"address3":"Musalgaon","state":"Maharashtra","state_code":"16","district":"Nashik","district_code":"516","address1":"Sinnar","address2":"","latitude":"20.2592","longitude":"74.0714","accuracy":"4"},{"address3":"Datali","state":"Maharashtra","state_code":"16","district":"Nashik","district_code":"516","address1":"Nashik","address2":"","latitude":"20.9671","longitude":"79.3816","accuracy":"3"},{"address3":"Gulvanch","state":"Maharashtra","state_code":"16","district":"Nashik","district_code":"516","address1":"Sinnar","address2":"","latitude":"20.9671","longitude":"79.3816","accuracy":"3"},{"address3":"Khopadi ","state":"Maharashtra","state_code":"16","district":"Nashik","district_code":"516","address1":"Nashik","address2":"","latitude":"20.9671","longitude":"79.3816","accuracy":"3"}],"422113":[{"address3":"Ind. Est. Malegaon Sinnar","state":"Maharashtra","state_code":"16","district":"Nashik","district_code":"516","address1":"Sinnar","address2":"","latitude":"20.9671","longitude":"79.3816","accuracy":"1"},{"address3":"Paste","state":"Maharashtra","state_code":"16","district":"Nashik","district_code":"516","address1":"Sinnar","address2":"","latitude":"20.9671","longitude":"79.3816","accuracy":"1"}],"422201":[{"address3":"Chandori","state":"Maharashtra","state_code":"16","district":"Nashik","district_code":"516","address1":"Niphad","address2":"","latitude":"20.0225","longitude":"74.0014","accuracy":"4"},{"address3":"Kherwadi R.S","state":"Maharashtra","state_code":"16","district":"Nashik","district_code":"516","address1":"Niphad","address2":"","latitude":"20.0225","longitude":"74.0014","accuracy":"3"}],"422202":[{"address3":"Bhanwad","state":"Maharashtra","state_code":"16","district":"Nashik","district_code":"516","address1":"Dindori","address2":"","latitude":"20.411","longitude":"73.6768","accuracy":"4"},{"address3":"Walkhed","state":"Maharashtra","state_code":"16","district":"Nashik","district_code":"516","address1":"Dindori","address2":"","latitude":"20.2592","longitude":"74.0714","accuracy":"4"},{"address3":"Ojharkhed","state":"Maharashtra","state_code":"16","district":"Nashik","district_code":"516","address1":"Dindori","address2":"","latitude":"20.2592","longitude":"74.0714","accuracy":"3"},{"address3":"Indore","state":"Maharashtra","state_code":"16","district":"Nashik","district_code":"516","address1":"Dindori","address2":"","latitude":"20.2567","longitude":"74.8934","accuracy":"3"},{"address3":"Devthan","state":"Maharashtra","state_code":"16","district":"Nashik","district_code":"516","address1":"Dindori","address2":"","latitude":"20.2592","longitude":"74.0714","accuracy":"3"},{"address3":"Devsane","state":"Maharashtra","state_code":"16","district":"Nashik","district_code":"516","address1":"Dindori","address2":"","latitude":"20.2567","longitude":"74.8934","accuracy":"3"},{"address3":"Palkhed Bandhara","state":"Maharashtra","state_code":"16","district":"Nashik","district_code":"516","address1":"Dindori","address2":"","latitude":"20.2567","longitude":"74.8934","accuracy":"3"},{"address3":"Nilwandi","state":"Maharashtra","state_code":"16","district":"Nashik","district_code":"516","address1":"Dindori","address2":"","latitude":"20.2567","longitude":"74.8934","accuracy":"3"},{"address3":"Nalwadi","state":"Maharashtra","state_code":"16","district":"Nashik","district_code":"516","address1":"Dindori","address2":"","latitude":"20.2567","longitude":"74.8934","accuracy":"3"},{"address3":"Vani Khurd","state":"Maharashtra","state_code":"16","district":"Nashik","district_code":"516","address1":"Dindori","address2":"","latitude":"20.2592","longitude":"74.0714","accuracy":"4"},{"address3":"Lakhmapur","state":"Maharashtra","state_code":"16","district":"Nashik","district_code":"516","address1":"Dindoir","address2":"","latitude":"20.2567","longitude":"74.8934","accuracy":"3"},{"address3":"Kazimale","state":"Maharashtra","state_code":"16","district":"Nashik","district_code":"516","address1":"Dindori","address2":"","latitude":"20.2567","longitude":"74.8934","accuracy":"3"},{"address3":"Nigdol","state":"Maharashtra","state_code":"16","district":"Nashik","district_code":"516","address1":"Dindori","address2":"","latitude":"20.2567","longitude":"74.8934","accuracy":"3"},{"address3":"Nalwadpada","state":"Maharashtra","state_code":"16","district":"Nashik","district_code":"516","address1":"Dindori","address2":"","latitude":"20.2567","longitude":"74.8934","accuracy":"3"},{"address3":"Karanjwan","state":"Maharashtra","state_code":"16","district":"Nashik","district_code":"516","address1":"Dindori","address2":"","latitude":"20.2567","longitude":"74.8934","accuracy":"3"},{"address3":"Ware","state":"Maharashtra","state_code":"16","district":"Nashik","district_code":"516","address1":"Dindori","address2":"","latitude":"20.2567","longitude":"74.8934","accuracy":"3"},{"address3":"Pimparkhed","state":"Maharashtra","state_code":"16","district":"Nashik","district_code":"516","address1":"Dindori","address2":"","latitude":"20.3082","longitude":"74.7838","accuracy":"4"},{"address3":"Khedle","state":"Maharashtra","state_code":"16","district":"Nashik","district_code":"516","address1":"Dindori","address2":"","latitude":"20.2567","longitude":"74.8934","accuracy":"3"},{"address3":"Pade","state":"Maharashtra","state_code":"16","district":"Nashik","district_code":"516","address1":"Dindori","address2":"","latitude":"20.2567","longitude":"74.8934","accuracy":"3"},{"address3":"Awankhed","state":"Maharashtra","state_code":"16","district":"Nashik","district_code":"516","address1":"Dindori","address2":"","latitude":"20.2567","longitude":"74.8934","accuracy":"3"},{"address3":"Kadwanagar","state":"Maharashtra","state_code":"16","district":"Nashik","district_code":"516","address1":"Dindori","address2":"","latitude":"20.2567","longitude":"74.8934","accuracy":"3"},{"address3":"Titwe","state":"Maharashtra","state_code":"16","district":"Nashik","district_code":"516","address1":"Dindori","address2":"","latitude":"20.2567","longitude":"74.8934","accuracy":"3"},{"address3":"Dindori (Nashik)","state":"Maharashtra","state_code":"16","district":"Nashik","district_code":"516","address1":"Dindori","address2":"","latitude":"20.2567","longitude":"74.8934","accuracy":"3"},{"address3":"Koshimbe","state":"Maharashtra","state_code":"16","district":"Nashik","district_code":"516","address1":"Dindori","address2":"","latitude":"20.2567","longitude":"74.8934","accuracy":"3"},{"address3":"Madkijamb","state":"Maharashtra","state_code":"16","district":"Nashik","district_code":"516","address1":"Dindori","address2":"","latitude":"20.2567","longitude":"74.8934","accuracy":"3"}],"422203":[{"address3":"Dugaon","state":"Maharashtra","state_code":"16","district":"Nashik","district_code":"516","address1":"Nashik","address2":"","latitude":"20.2592","longitude":"74.0714","accuracy":"3"},{"address3":"Waghera","state":"Maharashtra","state_code":"16","district":"Nashik","district_code":"516","address1":"Trimbakeshwar","address2":"","latitude":"20.2592","longitude":"74.0714","accuracy":"4"},{"address3":"Girnara","state":"Maharashtra","state_code":"16","district":"Nashik","district_code":"516","address1":"Nashik","address2":"","latitude":"20.396","longitude":"75.5251","accuracy":"3"},{"address3":"Kochargaon","state":"Maharashtra","state_code":"16","district":"Nashik","district_code":"516","address1":"Nashik","address2":"","latitude":"20.396","longitude":"75.5251","accuracy":"3"},{"address3":"Malegaon","state":"Maharashtra","state_code":"16","district":"Nashik","district_code":"516","address1":"Trimbakeshwar","address2":"","latitude":"20.5497","longitude":"74.5346","accuracy":"4"},{"address3":"Rohile","state":"Maharashtra","state_code":"16","district":"Nashik","district_code":"516","address1":"Trimbakeshwar","address2":"","latitude":"20.396","longitude":"75.5251","accuracy":"3"},{"address3":"Wadgaon","state":"Maharashtra","state_code":"16","district":"Nashik","district_code":"516","address1":"Nashik","address2":"","latitude":"20.2257","longitude":"74.3867","accuracy":"4"},{"address3":"Gangamhalungi","state":"Maharashtra","state_code":"16","district":"Nashik","district_code":"516","address1":"Nashik","address2":"","latitude":"20.396","longitude":"75.5251","accuracy":"3"},{"address3":"Devargaon","state":"Maharashtra","state_code":"16","district":"Nashik","district_code":"516","address1":"Nashik","address2":"","latitude":"20.2132","longitude":"74.1718","accuracy":"4"},{"address3":"Dondegaon","state":"Maharashtra","state_code":"16","district":"Nashik","district_code":"516","address1":"Nashik","address2":"","latitude":"20.396","longitude":"75.5251","accuracy":"3"},{"address3":"Sapte","state":"Maharashtra","state_code":"16","district":"Nashik","district_code":"516","address1":"Trimbakeshwar","address2":"","latitude":"20.396","longitude":"75.5251","accuracy":"3"},{"address3":"Vilwandi","state":"Maharashtra","state_code":"16","district":"Nashik","district_code":"516","address1":"Dindori","address2":"","latitude":"20.396","longitude":"75.5251","accuracy":"3"}],"422204":[{"address3":"Ojharkhed","state":"Maharashtra","state_code":"16","district":"Nashik","district_code":"516","address1":"Trimbakeshwar","address2":"","latitude":"20.2592","longitude":"74.0714","accuracy":"3"},{"address3":"Kharwal","state":"Maharashtra","state_code":"16","district":"Nashik","district_code":"516","address1":"Trimbakeshwar","address2":"","latitude":"20.4939","longitude":"74.9598","accuracy":"3"},{"address3":"Nachlondi","state":"Maharashtra","state_code":"16","district":"Nashik","district_code":"516","address1":"Peth","address2":"","latitude":"20.4939","longitude":"74.9598","accuracy":"3"},{"address3":"Deodongra","state":"Maharashtra","state_code":"16","district":"Nashik","district_code":"516","address1":"Trimbakeshwar","address2":"","latitude":"20.1737","longitude":"73.3275","accuracy":"4"},{"address3":"Chinchohol","state":"Maharashtra","state_code":"16","district":"Nashik","district_code":"516","address1":"Trimabakeshwar","address2":"","latitude":"20.4939","longitude":"74.9598","accuracy":"3"},{"address3":"Harsul","state":"Maharashtra","state_code":"16","district":"Nashik","district_code":"516","address1":"Trimbak","address2":"","latitude":"20.1147","longitude":"73.452","accuracy":"4"},{"address3":"Berwal","state":"Maharashtra","state_code":"16","district":"Nashik","district_code":"516","address1":"Trimabakeshwar","address2":"","latitude":"20.4939","longitude":"74.9598","accuracy":"3"},{"address3":"Kalmuste","state":"Maharashtra","state_code":"16","district":"Nashik","district_code":"516","address1":"Trimbakeshwar","address2":"","latitude":"20.4939","longitude":"74.9598","accuracy":"3"},{"address3":"Kulwandi","state":"Maharashtra","state_code":"16","district":"Nashik","district_code":"516","address1":"Nashik","address2":"","latitude":"20.4939","longitude":"74.9598","accuracy":"3"},{"address3":"Dalpatpur","state":"Maharashtra","state_code":"16","district":"Nashik","district_code":"516","address1":"Trimbakeshwar","address2":"","latitude":"20.2592","longitude":"74.0714","accuracy":"4"},{"address3":"Jategaon BK","state":"Maharashtra","state_code":"16","district":"Nashik","district_code":"516","address1":"Nashik","address2":"","latitude":"20.4939","longitude":"74.9598","accuracy":"3"},{"address3":"Shirasgaon (Peint)","state":"Maharashtra","state_code":"16","district":"Nashik","district_code":"516","address1":"Trimbakeshwar","address2":"","latitude":"20.4939","longitude":"74.9598","accuracy":"3"},{"address3":"Thana (Peint)","state":"Maharashtra","state_code":"16","district":"Nashik","district_code":"516","address1":"Peint","address2":"","latitude":"20.4939","longitude":"74.9598","accuracy":"3"},{"address3":"Chinchwade","state":"Maharashtra","state_code":"16","district":"Nashik","district_code":"516","address1":"Trimbakeshwar","address2":"","latitude":"20.4939","longitude":"74.9598","accuracy":"3"},{"address3":"Amlon","state":"Maharashtra","state_code":"16","district":"Nashik","district_code":"516","address1":"Nashik","address2":"","latitude":"20.4939","longitude":"74.9598","accuracy":"3"},{"address3":"Kharshet","state":"Maharashtra","state_code":"16","district":"Nashik","district_code":"516","address1":"Trimbakeshwar","address2":"","latitude":"20.4939","longitude":"74.9598","accuracy":"3"}],"422205":[{"address3":"Varkheda","state":"Maharashtra","state_code":"16","district":"Nashik","district_code":"516","address1":"Dindori","address2":"","latitude":"20.2422","longitude":"73.8935","accuracy":"4"},{"address3":"Sonjamb","state":"Maharashtra","state_code":"16","district":"Nashik","district_code":"516","address1":"Dindori","address2":"","latitude":"20.3075","longitude":"74.1929","accuracy":"3"},{"address3":"Khedgaon (Nashik)","state":"Maharashtra","state_code":"16","district":"Nashik","district_code":"516","address1":"Dindori","address2":"","latitude":"20.5449","longitude":"74.0305","accuracy":"4"},{"address3":"Bopegaon","state":"Maharashtra","state_code":"16","district":"Nashik","district_code":"516","address1":"Dindori","address2":"","latitude":"20.3075","longitude":"74.1929","accuracy":"3"},{"address3":"Rajapur","state":"Maharashtra","state_code":"16","district":"Nashik","district_code":"516","address1":"Dindori","address2":"","latitude":"20.1716","longitude":"74.6261","accuracy":"4"},{"address3":"Bahaduri","state":"Maharashtra","state_code":"16","district":"Nashik","district_code":"516","address1":"Chandvad","address2":"","latitude":"20.3075","longitude":"74.1929","accuracy":"3"},{"address3":"Tisgaon","state":"Maharashtra","state_code":"16","district":"Nashik","district_code":"516","address1":"Dindori","address2":"","latitude":"20.2712","longitude":"74.2215","accuracy":"4"},{"address3":"Shindwad","state":"Maharashtra","state_code":"16","district":"Nashik","district_code":"516","address1":"Dindori","address2":"","latitude":"20.3075","longitude":"74.1929","accuracy":"3"}],"422206":[{"address3":"Ojhar","state":"Maharashtra","state_code":"16","district":"Nashik","district_code":"516","address1":"Niphad","address2":"","latitude":"20.0947","longitude":"73.9282","accuracy":"4"}],"422207":[{"address3":"Kokangaon","state":"Maharashtra","state_code":"16","district":"Nashik","district_code":"516","address1":"Dindori","address2":"","latitude":"20.3389","longitude":"76.2302","accuracy":"3"},{"address3":"Shirasgaon","state":"Maharashtra","state_code":"16","district":"Nashik","district_code":"516","address1":"Dindori","address2":"","latitude":"20.2592","longitude":"74.0714","accuracy":"4"},{"address3":"Amba","state":"Maharashtra","state_code":"16","district":"Nashik","district_code":"516","address1":"NA","address2":"","latitude":"20.2592","longitude":"74.0714","accuracy":"4"},{"address3":"Korahte","state":"Maharashtra","state_code":"16","district":"Nashik","district_code":"516","address1":"Dindori","address2":"","latitude":"20.3389","longitude":"76.2302","accuracy":"3"},{"address3":"Janori","state":"Maharashtra","state_code":"16","district":"Nashik","district_code":"516","address1":"Dindori","address2":"","latitude":"20.2592","longitude":"74.0714","accuracy":"4"},{"address3":"Wadali Nazik","state":"Maharashtra","state_code":"16","district":"Nashik","district_code":"516","address1":"Niphad","address2":"","latitude":"20.3389","longitude":"76.2302","accuracy":"3"},{"address3":"Mohadi","state":"Maharashtra","state_code":"16","district":"Nashik","district_code":"516","address1":"Dindori","address2":"","latitude":"20.2592","longitude":"74.0714","accuracy":"3"},{"address3":"Ojhar T.S.","state":"Maharashtra","state_code":"16","district":"Nashik","district_code":"516","address1":"Niphad","address2":"","latitude":"20.3389","longitude":"76.2302","accuracy":"3"},{"address3":"Jaulke","state":"Maharashtra","state_code":"16","district":"Nashik","district_code":"516","address1":"Nashik","address2":"","latitude":"20.3389","longitude":"76.2302","accuracy":"3"},{"address3":"Khadak Sukena","state":"Maharashtra","state_code":"16","district":"Nashik","district_code":"516","address1":"Dindori","address2":"","latitude":"20.3389","longitude":"76.2302","accuracy":"3"}],"422208":[{"address3":"Gonde","state":"Maharashtra","state_code":"16","district":"Nashik","district_code":"516","address1":"Peint","address2":"","latitude":"19.7819","longitude":"74.0545","accuracy":"4"},{"address3":"Peint","state":"Maharashtra","state_code":"16","district":"Nashik","district_code":"516","address1":"Peint","address2":"","latitude":"20.2588","longitude":"73.5036","accuracy":"4"},{"address3":"Dhondmal","state":"Maharashtra","state_code":"16","district":"Nashik","district_code":"516","address1":"Peint","address2":"","latitude":"20.1445","longitude":"73.7644","accuracy":"3"},{"address3":"Karanjali","state":"Maharashtra","state_code":"16","district":"Nashik","district_code":"516","address1":"Peint","address2":"","latitude":"20.3927","longitude":"73.7349","accuracy":"4"},{"address3":"Kumbhale","state":"Maharashtra","state_code":"16","district":"Nashik","district_code":"516","address1":"Peint","address2":"","latitude":"20.1445","longitude":"73.7644","accuracy":"3"},{"address3":"Borwat","state":"Maharashtra","state_code":"16","district":"Nashik","district_code":"516","address1":"Peint","address2":"","latitude":"20.1445","longitude":"73.7644","accuracy":"3"},{"address3":"Malegaon (Peint)","state":"Maharashtra","state_code":"16","district":"Nashik","district_code":"516","address1":"Peint","address2":"","latitude":"20.1445","longitude":"73.7644","accuracy":"3"},{"address3":"Amba (Peint)","state":"Maharashtra","state_code":"16","district":"Nashik","district_code":"516","address1":"Peint","address2":"","latitude":"20.1445","longitude":"73.7644","accuracy":"3"},{"address3":"Kopurli","state":"Maharashtra","state_code":"16","district":"Nashik","district_code":"516","address1":"Peint","address2":"","latitude":"20.1445","longitude":"73.7644","accuracy":"3"},{"address3":"Asarbari","state":"Maharashtra","state_code":"16","district":"Nashik","district_code":"516","address1":"Peint","address2":"","latitude":"20.1445","longitude":"73.7644","accuracy":"3"},{"address3":"Usthale","state":"Maharashtra","state_code":"16","district":"Nashik","district_code":"516","address1":"Peint","address2":"","latitude":"20.1445","longitude":"73.7644","accuracy":"3"},{"address3":"Bhuvan","state":"Maharashtra","state_code":"16","district":"Nashik","district_code":"516","address1":"Peint","address2":"","latitude":"20.1445","longitude":"73.7644","accuracy":"3"},{"address3":"Kohor","state":"Maharashtra","state_code":"16","district":"Nashik","district_code":"516","address1":"Peint","address2":"","latitude":"20.1445","longitude":"73.7644","accuracy":"3"},{"address3":"Nirgude","state":"Maharashtra","state_code":"16","district":"Nashik","district_code":"516","address1":"Peint","address2":"","latitude":"20.1445","longitude":"73.7644","accuracy":"3"},{"address3":"Hatrundi (Peint)","state":"Maharashtra","state_code":"16","district":"Nashik","district_code":"516","address1":"Peint","address2":"","latitude":"20.1445","longitude":"73.7644","accuracy":"3"},{"address3":"Surgana (Peint)","state":"Maharashtra","state_code":"16","district":"Nashik","district_code":"516","address1":"Peint","address2":"","latitude":"20.1445","longitude":"73.7644","accuracy":"3"},{"address3":"Mangone","state":"Maharashtra","state_code":"16","district":"Nashik","district_code":"516","address1":"Peint","address2":"","latitude":"20.1445","longitude":"73.7644","accuracy":"3"},{"address3":"Mhasgan","state":"Maharashtra","state_code":"16","district":"Nashik","district_code":"516","address1":"Peint","address2":"","latitude":"20.1445","longitude":"73.7644","accuracy":"3"}],"422209":[{"address3":"Palkhed","state":"Maharashtra","state_code":"16","district":"Nashik","district_code":"516","address1":"Niphad","address2":"","latitude":"20.1773","longitude":"74.0641","accuracy":"4"},{"address3":"Lonwadi","state":"Maharashtra","state_code":"16","district":"Nashik","district_code":"516","address1":"Niphad","address2":"","latitude":"20.2592","longitude":"74.0714","accuracy":"4"},{"address3":"Chinchkhed","state":"Maharashtra","state_code":"16","district":"Nashik","district_code":"516","address1":"Dindori","address2":"","latitude":"20.2592","longitude":"74.0714","accuracy":"3"},{"address3":"Ahergaon","state":"Maharashtra","state_code":"16","district":"Nashik","district_code":"516","address1":"Niphad","address2":"","latitude":"20.1801","longitude":"74.0224","accuracy":"4"},{"address3":"Umbarkhed","state":"Maharashtra","state_code":"16","district":"Nashik","district_code":"516","address1":"Niphad","address2":"","latitude":"20.2592","longitude":"74.0714","accuracy":"4"},{"address3":"Sakorewani","state":"Maharashtra","state_code":"16","district":"Nashik","district_code":"516","address1":"Niphad","address2":"","latitude":"20.3129","longitude":"74.7226","accuracy":"3"},{"address3":"Karsul","state":"Maharashtra","state_code":"16","district":"Nashik","district_code":"516","address1":"Niphad","address2":"","latitude":"20.141","longitude":"74.0303","accuracy":"4"},{"address3":"Dhondgavan","state":"Maharashtra","state_code":"16","district":"Nashik","district_code":"516","address1":"Niphad","address2":"","latitude":"20.3129","longitude":"74.7226","accuracy":"3"},{"address3":"Pimpalgaon Baswant","state":"Maharashtra","state_code":"16","district":"Nashik","district_code":"516","address1":"Niphad","address2":"","latitude":"20.1704","longitude":"73.9923","accuracy":"4"},{"address3":"Jawalkewani","state":"Maharashtra","state_code":"16","district":"Nashik","district_code":"516","address1":"Dindori","address2":"","latitude":"20.3129","longitude":"74.7226","accuracy":"3"},{"address3":"Mukhed","state":"Maharashtra","state_code":"16","district":"Nashik","district_code":"516","address1":"Niphad","address2":"","latitude":"20.0157","longitude":"74.322","accuracy":"4"},{"address3":"Dawachwadi","state":"Maharashtra","state_code":"16","district":"Nashik","district_code":"516","address1":"Niphad","address2":"","latitude":"20.3129","longitude":"74.7226","accuracy":"3"},{"address3":"Pachorewani","state":"Maharashtra","state_code":"16","district":"Nashik","district_code":"516","address1":"Niphad","address2":"","latitude":"20.3129","longitude":"74.7226","accuracy":"3"},{"address3":"Materewadi","state":"Maharashtra","state_code":"16","district":"Nashik","district_code":"516","address1":"Niphad","address2":"","latitude":"20.3129","longitude":"74.7226","accuracy":"3"},{"address3":"Jopul","state":"Maharashtra","state_code":"16","district":"Nashik","district_code":"516","address1":"Dindori","address2":"","latitude":"20.2414","longitude":"74.1641","accuracy":"4"}],"422210":[{"address3":"Saykheda","state":"Maharashtra","state_code":"16","district":"Nashik","district_code":"516","address1":"Niphad","address2":"","latitude":"20.2592","longitude":"74.0714","accuracy":"4"},{"address3":"Karanjaon","state":"Maharashtra","state_code":"16","district":"Nashik","district_code":"516","address1":"Niphad","address2":"","latitude":"19.3268","longitude":"75.8357","accuracy":"3"},{"address3":"Chatori","state":"Maharashtra","state_code":"16","district":"Nashik","district_code":"516","address1":"Niphad","address2":"","latitude":"20.2592","longitude":"74.0714","accuracy":"4"},{"address3":"Shingwe","state":"Maharashtra","state_code":"16","district":"Nashik","district_code":"516","address1":"Niphad","address2":"","latitude":"20.0334","longitude":"74.0406","accuracy":"4"},{"address3":"Bhendali","state":"Maharashtra","state_code":"16","district":"Nashik","district_code":"516","address1":"Niphad","address2":"","latitude":"19.3268","longitude":"75.8357","accuracy":"3"}],"422211":[{"address3":"Mani","state":"Maharashtra","state_code":"16","district":"Nashik","district_code":"516","address1":"Surgana","address2":"","latitude":"20.2592","longitude":"74.0714","accuracy":"4"},{"address3":"Hatti","state":"Maharashtra","state_code":"16","district":"Nashik","district_code":"516","address1":"Surgana","address2":"","latitude":"20.3727","longitude":"74.9723","accuracy":"3"},{"address3":"Khirad","state":"Maharashtra","state_code":"16","district":"Nashik","district_code":"516","address1":"Kalwan","address2":"","latitude":"20.2592","longitude":"74.0714","accuracy":"4"},{"address3":"Salbhoye","state":"Maharashtra","state_code":"16","district":"Nashik","district_code":"516","address1":"Surgana","address2":"","latitude":"20.3727","longitude":"74.9723","accuracy":"3"},{"address3":"Borgaon","state":"Maharashtra","state_code":"16","district":"Nashik","district_code":"516","address1":"Surgana","address2":"","latitude":"20.0701","longitude":"74.445","accuracy":"4"},{"address3":"Alangun","state":"Maharashtra","state_code":"16","district":"Nashik","district_code":"516","address1":"Surgana","address2":"","latitude":"20.3727","longitude":"74.9723","accuracy":"3"},{"address3":"Sarad","state":"Maharashtra","state_code":"16","district":"Nashik","district_code":"516","address1":"Surgana","address2":"","latitude":"20.4695","longitude":"73.7513","accuracy":"4"},{"address3":"Palsan","state":"Maharashtra","state_code":"16","district":"Nashik","district_code":"516","address1":"Surgana","address2":"","latitude":"20.3727","longitude":"74.9723","accuracy":"3"},{"address3":"Satkhamb","state":"Maharashtra","state_code":"16","district":"Nashik","district_code":"516","address1":"Surgana","address2":"","latitude":"20.3727","longitude":"74.9723","accuracy":"3"},{"address3":"Surgana","state":"Maharashtra","state_code":"16","district":"Nashik","district_code":"516","address1":"Surgana","address2":"","latitude":"20.5596","longitude":"73.6375","accuracy":"4"},{"address3":"Bubli","state":"Maharashtra","state_code":"16","district":"Nashik","district_code":"516","address1":"Surgana","address2":"","latitude":"20.3727","longitude":"74.9723","accuracy":"3"},{"address3":"Umbarpada","state":"Maharashtra","state_code":"16","district":"Nashik","district_code":"516","address1":"Surgana","address2":"","latitude":"20.2592","longitude":"74.0714","accuracy":"4"},{"address3":"Shribhuvan","state":"Maharashtra","state_code":"16","district":"Nashik","district_code":"516","address1":"Surgana","address2":"","latitude":"20.3727","longitude":"74.9723","accuracy":"3"},{"address3":"Umbarthan","state":"Maharashtra","state_code":"16","district":"Nashik","district_code":"516","address1":"Surgana","address2":"","latitude":"20.3727","longitude":"74.9723","accuracy":"3"},{"address3":"Hatgad","state":"Maharashtra","state_code":"16","district":"Nashik","district_code":"516","address1":"Surgana","address2":"","latitude":"20.3727","longitude":"74.9723","accuracy":"3"},{"address3":"Mohpada","state":"Maharashtra","state_code":"16","district":"Nashik","district_code":"516","address1":"Surgana","address2":"","latitude":"20.3727","longitude":"74.9723","accuracy":"3"},{"address3":"Hatrundi (Surgana)","state":"Maharashtra","state_code":"16","district":"Nashik","district_code":"516","address1":"Surgana","address2":"","latitude":"20.3727","longitude":"74.9723","accuracy":"3"},{"address3":"Pangarne","state":"Maharashtra","state_code":"16","district":"Nashik","district_code":"516","address1":"Surgana","address2":"","latitude":"20.3727","longitude":"74.9723","accuracy":"3"},{"address3":"Bhormal","state":"Maharashtra","state_code":"16","district":"Nashik","district_code":"516","address1":"Surgana","address2":"","latitude":"20.3727","longitude":"74.9723","accuracy":"3"},{"address3":"Kukudane","state":"Maharashtra","state_code":"16","district":"Nashik","district_code":"516","address1":"Surgana","address2":"","latitude":"20.3727","longitude":"74.9723","accuracy":"3"}],"422212":[{"address3":"Trimbak","state":"Maharashtra","state_code":"16","district":"Nashik","district_code":"516","address1":"Trimbak","address2":"","latitude":"19.9327","longitude":"73.5291","accuracy":"4"},{"address3":"Brahmanwade","state":"Maharashtra","state_code":"16","district":"Nashik","district_code":"516","address1":"Trimbakeshwar","address2":"","latitude":"20.2592","longitude":"74.0714","accuracy":"4"},{"address3":"Amboli","state":"Maharashtra","state_code":"16","district":"Nashik","district_code":"516","address1":"Trimbakeshwar","address2":"","latitude":"20.2592","longitude":"74.0714","accuracy":"3"},{"address3":"Zarwad","state":"Maharashtra","state_code":"16","district":"Nashik","district_code":"516","address1":"Trimbakeshwar","address2":"","latitude":"19.6377","longitude":"73.782","accuracy":"3"},{"address3":"Alwand","state":"Maharashtra","state_code":"16","district":"Nashik","district_code":"516","address1":"Trimbakeshwar","address2":"","latitude":"19.6377","longitude":"73.782","accuracy":"3"},{"address3":"Talegaon (Trimbak)","state":"Maharashtra","state_code":"16","district":"Nashik","district_code":"516","address1":"Trimbakeshwar","address2":"","latitude":"19.6377","longitude":"73.782","accuracy":"3"},{"address3":"Torangan","state":"Maharashtra","state_code":"16","district":"Nashik","district_code":"516","address1":"Trimbakeshwar","address2":"","latitude":"19.6377","longitude":"73.782","accuracy":"3"},{"address3":"Velunje","state":"Maharashtra","state_code":"16","district":"Nashik","district_code":"516","address1":"Trimbakeshwar","address2":"","latitude":"19.6377","longitude":"73.782","accuracy":"3"},{"address3":"Aswali Harsh","state":"Maharashtra","state_code":"16","district":"Nashik","district_code":"516","address1":"Trimbakeshwar","address2":"","latitude":"19.6377","longitude":"73.782","accuracy":"3"},{"address3":"Samundi","state":"Maharashtra","state_code":"16","district":"Nashik","district_code":"516","address1":"Trimbakeshwar","address2":"","latitude":"19.6377","longitude":"73.782","accuracy":"3"}],"422213":[{"address3":"Pimpalgaon Garudeshwar","state":"Maharashtra","state_code":"16","district":"Nashik","district_code":"516","address1":"Nashik","address2":"","latitude":"19.9678","longitude":"73.6631","accuracy":"3"},{"address3":"Trimbak Vidya Mandir","state":"Maharashtra","state_code":"16","district":"Nashik","district_code":"516","address1":"Trimbakeshwar","address2":"","latitude":"19.9678","longitude":"73.6631","accuracy":"3"},{"address3":"Anjneri","state":"Maharashtra","state_code":"16","district":"Nashik","district_code":"516","address1":"Nashik","address2":"","latitude":"19.9678","longitude":"73.6631","accuracy":"3"},{"address3":"Mahiravani","state":"Maharashtra","state_code":"16","district":"Nashik","district_code":"516","address1":"Nashik","address2":"","latitude":"19.9678","longitude":"73.6631","accuracy":"4"},{"address3":"Pimpalgaon Bahula","state":"Maharashtra","state_code":"16","district":"Nashik","district_code":"516","address1":"Nashik","address2":"","latitude":"19.9678","longitude":"73.6631","accuracy":"3"},{"address3":"Talegaon Anjneri","state":"Maharashtra","state_code":"16","district":"Nashik","district_code":"516","address1":"Nashik","address2":"","latitude":"19.9678","longitude":"73.6631","accuracy":"3"},{"address3":"Khambala Anjeri","state":"Maharashtra","state_code":"16","district":"Nashik","district_code":"516","address1":"Trimbakeshwar","address2":"","latitude":"19.9678","longitude":"73.6631","accuracy":"3"}],"422214":[{"address3":"Vaitarna Nagar","state":"Maharashtra","state_code":"16","district":"Nashik","district_code":"516","address1":"Igatpuri","address2":"","latitude":"20.6043","longitude":"74.9467","accuracy":"3"},{"address3":"Deogaon","state":"Maharashtra","state_code":"16","district":"Nashik","district_code":"516","address1":"Nashik","address2":"","latitude":"20.2592","longitude":"74.0714","accuracy":"4"},{"address3":"Wavi Harsh","state":"Maharashtra","state_code":"16","district":"Nashik","district_code":"516","address1":"Trimbakeshwar","address2":"","latitude":"20.6043","longitude":"74.9467","accuracy":"3"}],"422215":[{"address3":"Shivre","state":"Maharashtra","state_code":"16","district":"Nashik","district_code":"516","address1":"Chanwad","address2":"","latitude":"20.0532","longitude":"74.1305","accuracy":"4"},{"address3":"Haste","state":"Maharashtra","state_code":"16","district":"Nashik","district_code":"516","address1":"Dindori","address2":"","latitude":"20.2592","longitude":"74.0714","accuracy":"4"},{"address3":"Paregaon","state":"Maharashtra","state_code":"16","district":"Nashik","district_code":"516","address1":"Chandwad","address2":"","latitude":"20.0274","longitude":"74.4708","accuracy":"4"},{"address3":"Ahiwantwadi","state":"Maharashtra","state_code":"16","district":"Nashik","district_code":"516","address1":"Dindori","address2":"","latitude":"20.0366","longitude":"74.6618","accuracy":"3"},{"address3":"Vani","state":"Maharashtra","state_code":"16","district":"Nashik","district_code":"516","address1":"Dindori","address2":"","latitude":"20.3316","longitude":"73.8943","accuracy":"4"},{"address3":"Bhatode","state":"Maharashtra","state_code":"16","district":"Nashik","district_code":"516","address1":"Dindori","address2":"","latitude":"20.0366","longitude":"74.6618","accuracy":"3"},{"address3":"Chausale","state":"Maharashtra","state_code":"16","district":"Nashik","district_code":"516","address1":"Dindori","address2":"","latitude":"20.0366","longitude":"74.6618","accuracy":"3"},{"address3":"Pimpri -achala","state":"Maharashtra","state_code":"16","district":"Nashik","district_code":"516","address1":"Dindori","address2":"","latitude":"20.0366","longitude":"74.6618","accuracy":"3"},{"address3":"Pandane","state":"Maharashtra","state_code":"16","district":"Nashik","district_code":"516","address1":"Dindori","address2":"","latitude":"20.0366","longitude":"74.6618","accuracy":"3"},{"address3":"Mavdi","state":"Maharashtra","state_code":"16","district":"Nashik","district_code":"516","address1":"Dindori","address2":"","latitude":"20.0366","longitude":"74.6618","accuracy":"3"},{"address3":"Maledumala","state":"Maharashtra","state_code":"16","district":"Nashik","district_code":"516","address1":"Dindori","address2":"","latitude":"20.0366","longitude":"74.6618","accuracy":"3"}],"422221":[{"address3":"Ojhar A.F. Stn.","state":"Maharashtra","state_code":"16","district":"Nashik","district_code":"516","address1":"Niphad","address2":"","latitude":"20.0296","longitude":"73.7156","accuracy":"1"}],"422222":[{"address3":"Ycm Open Univesity","state":"Maharashtra","state_code":"16","district":"Nashik","district_code":"516","address1":"Nashik","address2":"","latitude":"20.0296","longitude":"73.7156","accuracy":"3"},{"address3":"Gangapur","state":"Maharashtra","state_code":"16","district":"Nashik","district_code":"516","address1":"Nashik","address2":"","latitude":"20.0296","longitude":"73.7156","accuracy":"4"}],"422301":[{"address3":"B.S. Nagar","state":"Maharashtra","state_code":"16","district":"Nashik","district_code":"516","address1":"Niphad","address2":"","latitude":"20.104","longitude":"74.4027","accuracy":"3"},{"address3":"Pimplus","state":"Maharashtra","state_code":"16","district":"Nashik","district_code":"516","address1":"Niphad","address2":"","latitude":"20.104","longitude":"74.4027","accuracy":"3"},{"address3":"Pimpri","state":"Maharashtra","state_code":"16","district":"Nashik","district_code":"516","address1":"Niphad","address2":"","latitude":"20.104","longitude":"74.4027","accuracy":"4"}],"422302":[{"address3":"Dixi","state":"Maharashtra","state_code":"16","district":"Nashik","district_code":"516","address1":"Niphad","address2":"","latitude":"20.152","longitude":"74.2956","accuracy":"1"},{"address3":"Sukena","state":"Maharashtra","state_code":"16","district":"Nashik","district_code":"516","address1":"Niphad","address2":"","latitude":"20.152","longitude":"74.2956","accuracy":"1"},{"address3":"Oney","state":"Maharashtra","state_code":"16","district":"Nashik","district_code":"516","address1":"Niphad","address2":"","latitude":"20.152","longitude":"74.2956","accuracy":"1"}],"422303":[{"address3":"Niphad","state":"Maharashtra","state_code":"16","district":"Nashik","district_code":"516","address1":"NA","address2":"","latitude":"20.0794","longitude":"74.1093","accuracy":"4"},{"address3":"Dhrangaon Veer","state":"Maharashtra","state_code":"16","district":"Nashik","district_code":"516","address1":"Niphad","address2":"","latitude":"20.0581","longitude":"74.1171","accuracy":"3"},{"address3":"Kothure","state":"Maharashtra","state_code":"16","district":"Nashik","district_code":"516","address1":"Niphad","address2":"","latitude":"20.0456","longitude":"74.0756","accuracy":"4"},{"address3":"Sarolethadi","state":"Maharashtra","state_code":"16","district":"Nashik","district_code":"516","address1":"Niphad","address2":"","latitude":"20.0581","longitude":"74.1171","accuracy":"3"},{"address3":"Kathargaon","state":"Maharashtra","state_code":"16","district":"Nashik","district_code":"516","address1":"Niphad","address2":"","latitude":"20.0386","longitude":"74.1157","accuracy":"4"},{"address3":"Shivare","state":"Maharashtra","state_code":"16","district":"Nashik","district_code":"516","address1":"Niphad","address2":"","latitude":"20.0581","longitude":"74.1171","accuracy":"3"},{"address3":"Naitale","state":"Maharashtra","state_code":"16","district":"Nashik","district_code":"516","address1":"Niphad","address2":"","latitude":"20.0687","longitude":"74.1679","accuracy":"4"},{"address3":"Kundegaon","state":"Maharashtra","state_code":"16","district":"Nashik","district_code":"516","address1":"Niphad","address2":"","latitude":"20.0581","longitude":"74.1171","accuracy":"3"},{"address3":"Nandur Madhmeshwar","state":"Maharashtra","state_code":"16","district":"Nashik","district_code":"516","address1":"Niphad","address2":"","latitude":"20.0581","longitude":"74.1171","accuracy":"3"},{"address3":"Gajarwadi","state":"Maharashtra","state_code":"16","district":"Nashik","district_code":"516","address1":"Niphad","address2":"","latitude":"20.0581","longitude":"74.1171","accuracy":"3"}],"422304":[{"address3":"Khadak Malegaon","state":"Maharashtra","state_code":"16","district":"Nashik","district_code":"516","address1":"Niphad","address2":"","latitude":"20.1756","longitude":"74.1683","accuracy":"4"},{"address3":"Vanasgaon","state":"Maharashtra","state_code":"16","district":"Nashik","district_code":"516","address1":"Niphad","address2":"","latitude":"20.1529","longitude":"74.1487","accuracy":"3"},{"address3":"Ugaon","state":"Maharashtra","state_code":"16","district":"Nashik","district_code":"516","address1":"NA","address2":"","latitude":"20.1303","longitude":"74.1291","accuracy":"4"}],"422305":[{"address3":"Wakad","state":"Maharashtra","state_code":"16","district":"Nashik","district_code":"516","address1":"Niphad","address2":"","latitude":"20.2592","longitude":"74.0714","accuracy":"3"},{"address3":"Deogaon","state":"Maharashtra","state_code":"16","district":"Nashik","district_code":"516","address1":"Niphad","address2":"","latitude":"20.2592","longitude":"74.0714","accuracy":"4"},{"address3":"Gondegaon","state":"Maharashtra","state_code":"16","district":"Nashik","district_code":"516","address1":"Niphad","address2":"","latitude":"20.1933","longitude":"74.8707","accuracy":"4"},{"address3":"Khedlezung","state":"Maharashtra","state_code":"16","district":"Nashik","district_code":"516","address1":"Niphad","address2":"","latitude":"20.2458","longitude":"74.5867","accuracy":"3"},{"address3":"Nandgaon","state":"Maharashtra","state_code":"16","district":"Nashik","district_code":"516","address1":"Niphad","address2":"","latitude":"20.3068","longitude":"74.655","accuracy":"4"},{"address3":"Dongargaon","state":"Maharashtra","state_code":"16","district":"Nashik","district_code":"516","address1":"Niphad","address2":"","latitude":"20.2592","longitude":"74.0714","accuracy":"3"},{"address3":"Rui","state":"Maharashtra","state_code":"16","district":"Nashik","district_code":"516","address1":"Niphad","address2":"","latitude":"20.0205","longitude":"74.235","accuracy":"4"},{"address3":"Vinchur","state":"Maharashtra","state_code":"16","district":"Nashik","district_code":"516","address1":"NA","address2":"","latitude":"20.1041","longitude":"74.2261","accuracy":"4"}],"422306":[{"address3":"Pimplad","state":"Maharashtra","state_code":"16","district":"Nashik","district_code":"516","address1":"Niphad","address2":"","latitude":"20.1453","longitude":"74.2225","accuracy":"3"},{"address3":"Lasalgaon","state":"Maharashtra","state_code":"16","district":"Nashik","district_code":"516","address1":"NA","address2":"","latitude":"20.1427","longitude":"74.2395","accuracy":"4"},{"address3":"Vahegaon Sal","state":"Maharashtra","state_code":"16","district":"Nashik","district_code":"516","address1":"Niphad","address2":"","latitude":"20.1453","longitude":"74.2225","accuracy":"3"},{"address3":"Kotamgaon","state":"Maharashtra","state_code":"16","district":"Nashik","district_code":"516","address1":"Niphad","address2":"","latitude":"20.1479","longitude":"74.2055","accuracy":"4"},{"address3":"Redgaon KH","state":"Maharashtra","state_code":"16","district":"Nashik","district_code":"516","address1":"Niphad","address2":"","latitude":"20.1453","longitude":"74.2225","accuracy":"3"},{"address3":"Takali KH","state":"Maharashtra","state_code":"16","district":"Nashik","district_code":"516","address1":"Niphad","address2":"","latitude":"20.1453","longitude":"74.2225","accuracy":"3"},{"address3":"Pachore BK","state":"Maharashtra","state_code":"16","district":"Nashik","district_code":"516","address1":"Niphad","address2":"","latitude":"20.1453","longitude":"74.2225","accuracy":"3"}],"422308":[{"address3":"K.K.Nagar (Nashik)","state":"Maharashtra","state_code":"16","district":"Nashik","district_code":"516","address1":"Niphad","address2":"","latitude":"20.1348","longitude":"74.0916","accuracy":"3"},{"address3":"Deopur","state":"Maharashtra","state_code":"16","district":"Nashik","district_code":"516","address1":"Niphad","address2":"","latitude":"20.1338","longitude":"74.0803","accuracy":"4"},{"address3":"Kumbhardi","state":"Maharashtra","state_code":"16","district":"Nashik","district_code":"516","address1":"Niphad","address2":"","latitude":"20.1348","longitude":"74.0916","accuracy":"3"},{"address3":"Nandurdi","state":"Maharashtra","state_code":"16","district":"Nashik","district_code":"516","address1":"Niphad","address2":"","latitude":"20.1358","longitude":"74.103","accuracy":"4"},{"address3":"Ranwad","state":"Maharashtra","state_code":"16","district":"Nashik","district_code":"516","address1":"Niphad","address2":"","latitude":"20.1348","longitude":"74.0916","accuracy":"3"}],"422401":[{"address3":"Devlali Bazar","state":"Maharashtra","state_code":"16","district":"Nashik","district_code":"516","address1":"Nashik","address2":"","latitude":"19.4739","longitude":"74.6206","accuracy":"3"},{"address3":"Belatgavhan","state":"Maharashtra","state_code":"16","district":"Nashik","district_code":"516","address1":"Nashik","address2":"","latitude":"19.4739","longitude":"74.6206","accuracy":"3"},{"address3":"Vadner Dumala","state":"Maharashtra","state_code":"16","district":"Nashik","district_code":"516","address1":"Nashik","address2":"","latitude":"19.4739","longitude":"74.6206","accuracy":"3"},{"address3":"Devlali","state":"Maharashtra","state_code":"16","district":"Nashik","district_code":"516","address1":"Nashik","address2":"","latitude":"20.2592","longitude":"74.0714","accuracy":"4"},{"address3":"Barnes High School","state":"Maharashtra","state_code":"16","district":"Nashik","district_code":"516","address1":"Nashik","address2":"","latitude":"19.4739","longitude":"74.6206","accuracy":"3"}],"422402":[{"address3":"Ghoti","state":"Maharashtra","state_code":"16","district":"Nashik","district_code":"516","address1":"Nashik","address2":"","latitude":"19.7164","longitude":"73.6282","accuracy":"4"},{"address3":"Khed","state":"Maharashtra","state_code":"16","district":"Nashik","district_code":"516","address1":"Igatpuri","address2":"","latitude":"20.2592","longitude":"74.0714","accuracy":"4"},{"address3":"Kavnai","state":"Maharashtra","state_code":"16","district":"Nashik","district_code":"516","address1":"Igatpuri","address2":"","latitude":"19.9447","longitude":"74.3565","accuracy":"3"},{"address3":"Khairgaon","state":"Maharashtra","state_code":"16","district":"Nashik","district_code":"516","address1":"Igatpuri","address2":"","latitude":"20.2592","longitude":"74.0714","accuracy":"3"},{"address3":"Wasali","state":"Maharashtra","state_code":"16","district":"Nashik","district_code":"516","address1":"Igatpuri","address2":"","latitude":"19.9447","longitude":"74.3565","accuracy":"3"},{"address3":"Shevgedang","state":"Maharashtra","state_code":"16","district":"Nashik","district_code":"516","address1":"Igatpuri","address2":"","latitude":"19.9447","longitude":"74.3565","accuracy":"3"},{"address3":"Tringalwadi","state":"Maharashtra","state_code":"16","district":"Nashik","district_code":"516","address1":"Igatpuri","address2":"","latitude":"19.9447","longitude":"74.3565","accuracy":"3"},{"address3":"Waki","state":"Maharashtra","state_code":"16","district":"Nashik","district_code":"516","address1":"Igatpuri","address2":"","latitude":"19.9447","longitude":"74.3565","accuracy":"3"},{"address3":"Khadked","state":"Maharashtra","state_code":"16","district":"Nashik","district_code":"516","address1":"Igatpuri","address2":"","latitude":"19.9447","longitude":"74.3565","accuracy":"3"},{"address3":"Sanjegaon","state":"Maharashtra","state_code":"16","district":"Nashik","district_code":"516","address1":"Igatpuri","address2":"","latitude":"19.9447","longitude":"74.3565","accuracy":"3"},{"address3":"Korapgaon","state":"Maharashtra","state_code":"16","district":"Nashik","district_code":"516","address1":"Igatpuri","address2":"","latitude":"19.9447","longitude":"74.3565","accuracy":"3"},{"address3":"Kaluste","state":"Maharashtra","state_code":"16","district":"Nashik","district_code":"516","address1":"Igatpuri","address2":"","latitude":"19.9447","longitude":"74.3565","accuracy":"3"}],"422403":[{"address3":"Nandgaon","state":"Maharashtra","state_code":"16","district":"Nashik","district_code":"516","address1":"Igatpuri","address2":"","latitude":"20.3068","longitude":"74.655","accuracy":"4"},{"address3":"Dhamangaon","state":"Maharashtra","state_code":"16","district":"Nashik","district_code":"516","address1":"Igatpuri","address2":"","latitude":"20.2592","longitude":"74.0714","accuracy":"4"},{"address3":"Belgaon Tarhale","state":"Maharashtra","state_code":"16","district":"Nashik","district_code":"516","address1":"Igatpuri","address2":"","latitude":"20.0428","longitude":"74.4886","accuracy":"3"},{"address3":"Igatpuri","state":"Maharashtra","state_code":"16","district":"Nashik","district_code":"516","address1":"Igatpuri","address2":"","latitude":"19.6952","longitude":"73.5626","accuracy":"4"},{"address3":"Murambi","state":"Maharashtra","state_code":"16","district":"Nashik","district_code":"516","address1":"Igatpuri","address2":"","latitude":"20.2592","longitude":"74.0714","accuracy":"3"},{"address3":"Bhavali Khurd","state":"Maharashtra","state_code":"16","district":"Nashik","district_code":"516","address1":"Igatpuri","address2":"","latitude":"20.0428","longitude":"74.4886","accuracy":"3"},{"address3":"Bharvir BK","state":"Maharashtra","state_code":"16","district":"Nashik","district_code":"516","address1":"Igatpuri","address2":"","latitude":"20.0428","longitude":"74.4886","accuracy":"3"},{"address3":"Wadivarhe","state":"Maharashtra","state_code":"16","district":"Nashik","district_code":"516","address1":"Igatpuri","address2":"","latitude":"20.0428","longitude":"74.4886","accuracy":"3"},{"address3":"Mundhegaon","state":"Maharashtra","state_code":"16","district":"Nashik","district_code":"516","address1":"Igatpuri","address2":"","latitude":"20.0428","longitude":"74.4886","accuracy":"3"},{"address3":"Gondedumala","state":"Maharashtra","state_code":"16","district":"Nashik","district_code":"516","address1":"Igatpuri","address2":"","latitude":"20.0428","longitude":"74.4886","accuracy":"3"},{"address3":"Aswali R.S","state":"Maharashtra","state_code":"16","district":"Nashik","district_code":"516","address1":"Igatpuri","address2":"","latitude":"20.0428","longitude":"74.4886","accuracy":"3"},{"address3":"Taked BK","state":"Maharashtra","state_code":"16","district":"Nashik","district_code":"516","address1":"Igatpuri","address2":"","latitude":"20.0428","longitude":"74.4886","accuracy":"3"},{"address3":"Talegaon (Igatpuri)","state":"Maharashtra","state_code":"16","district":"Nashik","district_code":"516","address1":"Nashik","address2":"","latitude":"20.0428","longitude":"74.4886","accuracy":"3"},{"address3":"Mukane","state":"Maharashtra","state_code":"16","district":"Nashik","district_code":"516","address1":"Igatpuri","address2":"","latitude":"20.0428","longitude":"74.4886","accuracy":"3"},{"address3":"Waghare","state":"Maharashtra","state_code":"16","district":"Nashik","district_code":"516","address1":"Igatpuri","address2":"","latitude":"20.0428","longitude":"74.4886","accuracy":"3"}],"422501":[{"address3":"Devlali Air Force","state":"Maharashtra","state_code":"16","district":"Nashik","district_code":"516","address1":"Nashik","address2":"","latitude":"20.4035","longitude":"75.473","accuracy":"1"}],"422502":[{"address3":"Bhagur","state":"Maharashtra","state_code":"16","district":"Nashik","district_code":"516","address1":"Nashik","address2":"","latitude":"20.2592","longitude":"74.0714","accuracy":"4"},{"address3":"Nanegaon","state":"Maharashtra","state_code":"16","district":"Nashik","district_code":"516","address1":"Nashik","address2":"","latitude":"20.2592","longitude":"74.0714","accuracy":"4"},{"address3":"Pandurli","state":"Maharashtra","state_code":"16","district":"Nashik","district_code":"516","address1":"Sinnar","address2":"","latitude":"20.4035","longitude":"75.473","accuracy":"3"},{"address3":"Shenit","state":"Maharashtra","state_code":"16","district":"Nashik","district_code":"516","address1":"Igatpuri","address2":"","latitude":"19.8107","longitude":"73.8067","accuracy":"4"},{"address3":"Agaskhind","state":"Maharashtra","state_code":"16","district":"Nashik","district_code":"516","address1":"Sinnar","address2":"","latitude":"20.4035","longitude":"75.473","accuracy":"3"},{"address3":"Sakur","state":"Maharashtra","state_code":"16","district":"Nashik","district_code":"516","address1":"Igatpuri","address2":"","latitude":"20.5542","longitude":"74.7897","accuracy":"4"},{"address3":"Pimpalgaon Dukra","state":"Maharashtra","state_code":"16","district":"Nashik","district_code":"516","address1":"Igatpuri","address2":"","latitude":"20.4035","longitude":"75.473","accuracy":"3"},{"address3":"Lahavit","state":"Maharashtra","state_code":"16","district":"Nashik","district_code":"516","address1":"Nashik","address2":"","latitude":"20.4035","longitude":"75.473","accuracy":"3"},{"address3":"Vinchuri-dalvi","state":"Maharashtra","state_code":"16","district":"Nashik","district_code":"516","address1":"Sinnar","address2":"","latitude":"20.4035","longitude":"75.473","accuracy":"3"},{"address3":"Vadgaon Pingala","state":"Maharashtra","state_code":"16","district":"Nashik","district_code":"516","address1":"Sinnar","address2":"","latitude":"20.4035","longitude":"75.473","accuracy":"3"},{"address3":"Shivde","state":"Maharashtra","state_code":"16","district":"Nashik","district_code":"516","address1":"Sinnar","address2":"","latitude":"20.4035","longitude":"75.473","accuracy":"3"}],"422601":[{"address3":"Ekdara","state":"Maharashtra","state_code":"16","district":"Ahmed Nagar","district_code":"522","address1":"Akole","address2":"","latitude":"19.2034","longitude":"74.6769","accuracy":"4"},{"address3":"Khirvire","state":"Maharashtra","state_code":"16","district":"Ahmed Nagar","district_code":"522","address1":"Akole","address2":"","latitude":"19.6468","longitude":"75.5847","accuracy":"3"},{"address3":"Dhamangaon Awari","state":"Maharashtra","state_code":"16","district":"Ahmed Nagar","district_code":"522","address1":"Akole","address2":"","latitude":"19.6468","longitude":"75.5847","accuracy":"3"},{"address3":"Deothan","state":"Maharashtra","state_code":"16","district":"Ahmed Nagar","district_code":"522","address1":"Akole","address2":"","latitude":"19.2034","longitude":"74.6769","accuracy":"4"},{"address3":"Akole","state":"Maharashtra","state_code":"16","district":"Ahmed Nagar","district_code":"522","address1":"Akole","address2":"","latitude":"19.6468","longitude":"75.5847","accuracy":"3"},{"address3":"Savargaon Pat","state":"Maharashtra","state_code":"16","district":"Ahmed Nagar","district_code":"522","address1":"Akole","address2":"","latitude":"19.6468","longitude":"75.5847","accuracy":"3"},{"address3":"Agasti SSK","state":"Maharashtra","state_code":"16","district":"Ahmed Nagar","district_code":"522","address1":"Akole","address2":"","latitude":"19.6468","longitude":"75.5847","accuracy":"3"},{"address3":"Kumbephal","state":"Maharashtra","state_code":"16","district":"Ahmed Nagar","district_code":"522","address1":"Akole","address2":"","latitude":"19.2034","longitude":"74.6769","accuracy":"4"},{"address3":"Gardani","state":"Maharashtra","state_code":"16","district":"Ahmed Nagar","district_code":"522","address1":"Akole","address2":"","latitude":"19.6468","longitude":"75.5847","accuracy":"3"},{"address3":"Tambhol","state":"Maharashtra","state_code":"16","district":"Ahmed Nagar","district_code":"522","address1":"Akole","address2":"","latitude":"19.6468","longitude":"75.5847","accuracy":"3"},{"address3":"Dhokari","state":"Maharashtra","state_code":"16","district":"Ahmed Nagar","district_code":"522","address1":"Akole","address2":"","latitude":"19.6468","longitude":"75.5847","accuracy":"3"},{"address3":"Sangvi","state":"Maharashtra","state_code":"16","district":"Ahmed Nagar","district_code":"522","address1":"Akole","address2":"","latitude":"19.2034","longitude":"74.6769","accuracy":"4"},{"address3":"Tahakari","state":"Maharashtra","state_code":"16","district":"Ahmed Nagar","district_code":"522","address1":"Akole","address2":"","latitude":"19.6468","longitude":"75.5847","accuracy":"3"},{"address3":"Samsherpur","state":"Maharashtra","state_code":"16","district":"Ahmed Nagar","district_code":"522","address1":"Akole","address2":"","latitude":"19.6379","longitude":"73.9673","accuracy":"4"},{"address3":"Keli Rumhanwadi","state":"Maharashtra","state_code":"16","district":"Ahmed Nagar","district_code":"522","address1":"Akole","address2":"","latitude":"19.6468","longitude":"75.5847","accuracy":"3"},{"address3":"Thugaon BK","state":"Maharashtra","state_code":"16","district":"Ahmed Nagar","district_code":"522","address1":"Akole","address2":"","latitude":"19.6468","longitude":"75.5847","accuracy":"3"},{"address3":"Rumbhodi","state":"Maharashtra","state_code":"16","district":"Ahmed Nagar","district_code":"522","address1":"Akole","address2":"","latitude":"19.6468","longitude":"75.5847","accuracy":"3"},{"address3":"Tirdhe","state":"Maharashtra","state_code":"16","district":"Ahmed Nagar","district_code":"522","address1":"Akole","address2":"","latitude":"19.6468","longitude":"75.5847","accuracy":"3"},{"address3":"Padoshi","state":"Maharashtra","state_code":"16","district":"Ahmed Nagar","district_code":"522","address1":"Akole","address2":"","latitude":"19.6468","longitude":"75.5847","accuracy":"3"},{"address3":"Muthalane","state":"Maharashtra","state_code":"16","district":"Ahmed Nagar","district_code":"522","address1":"Akole","address2":"","latitude":"19.6468","longitude":"75.5847","accuracy":"3"},{"address3":"Kombhalane","state":"Maharashtra","state_code":"16","district":"Ahmed Nagar","district_code":"522","address1":"Akole","address2":"","latitude":"19.6468","longitude":"75.5847","accuracy":"3"}],"422602":[{"address3":"Bhojdari","state":"Maharashtra","state_code":"16","district":"Ahmed Nagar","district_code":"522","address1":"Sangamner","address2":"","latitude":"19.7568","longitude":"74.7289","accuracy":"1"},{"address3":"Bota","state":"Maharashtra","state_code":"16","district":"Ahmed Nagar","district_code":"522","address1":"Sangamner","address2":"","latitude":"19.7568","longitude":"74.7289","accuracy":"1"},{"address3":"Badgi","state":"Maharashtra","state_code":"16","district":"Ahmed Nagar","district_code":"522","address1":"Sangamner","address2":"","latitude":"19.7568","longitude":"74.7289","accuracy":"1"},{"address3":"Belapur Badgi","state":"Maharashtra","state_code":"16","district":"Ahmed Nagar","district_code":"522","address1":"Sangamner","address2":"","latitude":"19.7568","longitude":"74.7289","accuracy":"1"}],"422603":[{"address3":"Pemgiri","state":"Maharashtra","state_code":"16","district":"Ahmed Nagar","district_code":"522","address1":"Sangamner","address2":"","latitude":"19.4636","longitude":"74.088","accuracy":"4"},{"address3":"Nimgaon Bk","state":"Maharashtra","state_code":"16","district":"Ahmed Nagar","district_code":"522","address1":"Sangamner","address2":"","latitude":"19.4981","longitude":"74.1035","accuracy":"3"},{"address3":"Nanduri Dumala","state":"Maharashtra","state_code":"16","district":"Ahmed Nagar","district_code":"522","address1":"Sangamner","address2":"","latitude":"19.4981","longitude":"74.1035","accuracy":"3"},{"address3":"Kalas Bk","state":"Maharashtra","state_code":"16","district":"Ahmed Nagar","district_code":"522","address1":"Sangamner","address2":"","latitude":"19.4981","longitude":"74.1035","accuracy":"3"},{"address3":"Vadgaon Landaga","state":"Maharashtra","state_code":"16","district":"Ahmed Nagar","district_code":"522","address1":"Sangamner","address2":"","latitude":"19.4981","longitude":"74.1035","accuracy":"3"},{"address3":"Dhandharphal","state":"Maharashtra","state_code":"16","district":"Ahmed Nagar","district_code":"522","address1":"Sangamner","address2":"","latitude":"19.5325","longitude":"74.119","accuracy":"4"}],"422604":[{"address3":"Bhandardara","state":"Maharashtra","state_code":"16","district":"Ahmed Nagar","district_code":"522","address1":"Akole","address2":"","latitude":"19.5295","longitude":"73.7476","accuracy":"4"},{"address3":"Ghatghar","state":"Maharashtra","state_code":"16","district":"Ahmed Nagar","district_code":"522","address1":"Akole","address2":"","latitude":"19.2034","longitude":"74.6769","accuracy":"4"},{"address3":"Deogaon","state":"Maharashtra","state_code":"16","district":"Ahmed Nagar","district_code":"522","address1":"Akole","address2":"","latitude":"19.2034","longitude":"74.6769","accuracy":"4"},{"address3":"Malegaon","state":"Maharashtra","state_code":"16","district":"Ahmed Nagar","district_code":"522","address1":"Akole","address2":"","latitude":"19.2034","longitude":"74.6769","accuracy":"4"},{"address3":"Maveshi","state":"Maharashtra","state_code":"16","district":"Ahmed Nagar","district_code":"522","address1":"Akole","address2":"","latitude":"19.7583","longitude":"74.5022","accuracy":"3"},{"address3":"Bari","state":"Maharashtra","state_code":"16","district":"Ahmed Nagar","district_code":"522","address1":"Akole","address2":"","latitude":"19.2034","longitude":"74.6769","accuracy":"3"},{"address3":"Katalapur","state":"Maharashtra","state_code":"16","district":"Ahmed Nagar","district_code":"522","address1":"Akole","address2":"","latitude":"19.7583","longitude":"74.5022","accuracy":"3"},{"address3":"Shenit","state":"Maharashtra","state_code":"16","district":"Ahmed Nagar","district_code":"522","address1":"Akole","address2":"","latitude":"19.2034","longitude":"74.6769","accuracy":"4"},{"address3":"Waki","state":"Maharashtra","state_code":"16","district":"Ahmed Nagar","district_code":"522","address1":"Akole","address2":"","latitude":"19.2034","longitude":"74.6769","accuracy":"4"},{"address3":"Chinchavane","state":"Maharashtra","state_code":"16","district":"Ahmed Nagar","district_code":"522","address1":"Akole","address2":"","latitude":"19.7583","longitude":"74.5022","accuracy":"3"},{"address3":"Udadawane","state":"Maharashtra","state_code":"16","district":"Ahmed Nagar","district_code":"522","address1":"Akole","address2":"","latitude":"19.7583","longitude":"74.5022","accuracy":"3"},{"address3":"Rajur","state":"Maharashtra","state_code":"16","district":"Ahmed Nagar","district_code":"522","address1":"Akole","address2":"","latitude":"19.523","longitude":"73.8687","accuracy":"4"},{"address3":"Vithe","state":"Maharashtra","state_code":"16","district":"Ahmed Nagar","district_code":"522","address1":"Akole","address2":"","latitude":"19.7583","longitude":"74.5022","accuracy":"3"},{"address3":"Waranghushi","state":"Maharashtra","state_code":"16","district":"Ahmed Nagar","district_code":"522","address1":"Akole","address2":"","latitude":"19.7583","longitude":"74.5022","accuracy":"3"},{"address3":"Chitalvedhe","state":"Maharashtra","state_code":"16","district":"Ahmed Nagar","district_code":"522","address1":"Akole","address2":"","latitude":"19.7583","longitude":"74.5022","accuracy":"3"},{"address3":"Sakirwadi","state":"Maharashtra","state_code":"16","district":"Ahmed Nagar","district_code":"522","address1":"Akole","address2":"","latitude":"19.7583","longitude":"74.5022","accuracy":"3"},{"address3":"Ranad Bk","state":"Maharashtra","state_code":"16","district":"Ahmed Nagar","district_code":"522","address1":"Akole","address2":"","latitude":"19.7583","longitude":"74.5022","accuracy":"3"},{"address3":"Padalane","state":"Maharashtra","state_code":"16","district":"Ahmed Nagar","district_code":"522","address1":"Akole","address2":"","latitude":"19.7583","longitude":"74.5022","accuracy":"3"},{"address3":"Pimpalgaon Nakvinda","state":"Maharashtra","state_code":"16","district":"Ahmed Nagar","district_code":"522","address1":"Akole","address2":"","latitude":"19.7583","longitude":"74.5022","accuracy":"3"},{"address3":"Pimparkane","state":"Maharashtra","state_code":"16","district":"Ahmed Nagar","district_code":"522","address1":"Akole","address2":"","latitude":"19.7583","longitude":"74.5022","accuracy":"3"},{"address3":"Manhere","state":"Maharashtra","state_code":"16","district":"Ahmed Nagar","district_code":"522","address1":"Akole","address2":"","latitude":"19.7583","longitude":"74.5022","accuracy":"3"},{"address3":"Lavhali Otur","state":"Maharashtra","state_code":"16","district":"Ahmed Nagar","district_code":"522","address1":"Akole","address2":"","latitude":"19.7583","longitude":"74.5022","accuracy":"3"},{"address3":"Muthkhel","state":"Maharashtra","state_code":"16","district":"Ahmed Nagar","district_code":"522","address1":"Akole","address2":"","latitude":"19.7583","longitude":"74.5022","accuracy":"3"},{"address3":"Dhamanvan","state":"Maharashtra","state_code":"16","district":"Ahmed Nagar","district_code":"522","address1":"Akole","address2":"","latitude":"19.7583","longitude":"74.5022","accuracy":"3"}],"422605":[{"address3":"Rajapur","state":"Maharashtra","state_code":"16","district":"Ahmed Nagar","district_code":"522","address1":"Sangamner","address2":"","latitude":"19.2034","longitude":"74.6769","accuracy":"4"},{"address3":"Pimpalgaon Nipani","state":"Maharashtra","state_code":"16","district":"Ahmed Nagar","district_code":"522","address1":"Sangamner","address2":"","latitude":"19.2034","longitude":"74.6769","accuracy":"3"},{"address3":"Sangamner","state":"Maharashtra","state_code":"16","district":"Ahmed Nagar","district_code":"522","address1":"Sangamner","address2":"","latitude":"19.5678","longitude":"74.2115","accuracy":"4"},{"address3":"Chikhali","state":"Maharashtra","state_code":"16","district":"Ahmed Nagar","district_code":"522","address1":"Sangamner","address2":"","latitude":"18.8806","longitude":"74.6948","accuracy":"4"},{"address3":"Pimpalgaon Matha","state":"Maharashtra","state_code":"16","district":"Ahmed Nagar","district_code":"522","address1":"Sangamner","address2":"","latitude":"19.6062","longitude":"74.5167","accuracy":"3"},{"address3":"Virgaon","state":"Maharashtra","state_code":"16","district":"Ahmed Nagar","district_code":"522","address1":"Sangamner","address2":"","latitude":"19.2034","longitude":"74.6769","accuracy":"4"},{"address3":"Savargaon Tal","state":"Maharashtra","state_code":"16","district":"Ahmed Nagar","district_code":"522","address1":"Sangamner","address2":"","latitude":"19.6062","longitude":"74.5167","accuracy":"3"},{"address3":"Vadgaon Pan","state":"Maharashtra","state_code":"16","district":"Ahmed Nagar","district_code":"522","address1":"Sangamner","address2":"","latitude":"19.5892","longitude":"74.2742","accuracy":"4"},{"address3":"Ganeshnagar  (Sangamner)","state":"Maharashtra","state_code":"16","district":"Ahmed Nagar","district_code":"522","address1":"Sangamner","address2":"","latitude":"19.6062","longitude":"74.5167","accuracy":"3"},{"address3":"Khandgaon","state":"Maharashtra","state_code":"16","district":"Ahmed Nagar","district_code":"522","address1":"Sangamner","address2":"","latitude":"19.2034","longitude":"74.6769","accuracy":"3"},{"address3":"Malunja","state":"Maharashtra","state_code":"16","district":"Ahmed Nagar","district_code":"522","address1":"Sangamner","address2":"","latitude":"19.6062","longitude":"74.5167","accuracy":"3"},{"address3":"Jorve","state":"Maharashtra","state_code":"16","district":"Ahmed Nagar","district_code":"522","address1":"Sangamner","address2":"","latitude":"19.6062","longitude":"74.5167","accuracy":"3"},{"address3":"Nilwande","state":"Maharashtra","state_code":"16","district":"Ahmed Nagar","district_code":"522","address1":"Sangamner","address2":"","latitude":"19.6062","longitude":"74.5167","accuracy":"3"},{"address3":"Dongargaon","state":"Maharashtra","state_code":"16","district":"Ahmed Nagar","district_code":"522","address1":"Sangamner","address2":"","latitude":"19.2034","longitude":"74.6769","accuracy":"3"},{"address3":"Kolhewadi","state":"Maharashtra","state_code":"16","district":"Ahmed Nagar","district_code":"522","address1":"Sangamner","address2":"","latitude":"19.6062","longitude":"74.5167","accuracy":"3"},{"address3":"Hiwargaon Pawasa","state":"Maharashtra","state_code":"16","district":"Ahmed Nagar","district_code":"522","address1":"Sangamner","address2":"","latitude":"19.6062","longitude":"74.5167","accuracy":"3"},{"address3":"Pimparane","state":"Maharashtra","state_code":"16","district":"Ahmed Nagar","district_code":"522","address1":"Sangamner","address2":"","latitude":"19.6062","longitude":"74.5167","accuracy":"3"},{"address3":"Kanoli","state":"Maharashtra","state_code":"16","district":"Ahmed Nagar","district_code":"522","address1":"Sangamner","address2":"","latitude":"19.2034","longitude":"74.6769","accuracy":"3"},{"address3":"Nimaj","state":"Maharashtra","state_code":"16","district":"Ahmed Nagar","district_code":"522","address1":"Sangamner","address2":"","latitude":"19.6062","longitude":"74.5167","accuracy":"3"},{"address3":"Ganore","state":"Maharashtra","state_code":"16","district":"Ahmed Nagar","district_code":"522","address1":"Sangamner","address2":"","latitude":"19.6062","longitude":"74.5167","accuracy":"3"},{"address3":"Nimgaon Bhojapur","state":"Maharashtra","state_code":"16","district":"Ahmed Nagar","district_code":"522","address1":"Sangamner","address2":"","latitude":"19.6062","longitude":"74.5167","accuracy":"3"},{"address3":"Chikani","state":"Maharashtra","state_code":"16","district":"Ahmed Nagar","district_code":"522","address1":"Sangamner","address2":"","latitude":"19.6062","longitude":"74.5167","accuracy":"3"},{"address3":"Nimgaon Tembhi","state":"Maharashtra","state_code":"16","district":"Ahmed Nagar","district_code":"522","address1":"Sangamner","address2":"","latitude":"19.6062","longitude":"74.5167","accuracy":"3"},{"address3":"Chandanapuri","state":"Maharashtra","state_code":"16","district":"Ahmed Nagar","district_code":"522","address1":"Sangamner","address2":"","latitude":"19.6062","longitude":"74.5167","accuracy":"3"},{"address3":"Samnapur","state":"Maharashtra","state_code":"16","district":"Ahmed Nagar","district_code":"522","address1":"Sangamner","address2":"","latitude":"19.6062","longitude":"74.5167","accuracy":"3"},{"address3":"Ambhore","state":"Maharashtra","state_code":"16","district":"Ahmed Nagar","district_code":"522","address1":"Sangamner","address2":"","latitude":"19.6062","longitude":"74.5167","accuracy":"3"},{"address3":"Sukewadi","state":"Maharashtra","state_code":"16","district":"Ahmed Nagar","district_code":"522","address1":"Sangamner","address2":"","latitude":"19.6062","longitude":"74.5167","accuracy":"3"},{"address3":"Kuran","state":"Maharashtra","state_code":"16","district":"Ahmed Nagar","district_code":"522","address1":"Sangamner","address2":"","latitude":"19.6062","longitude":"74.5167","accuracy":"3"},{"address3":"Waghapur","state":"Maharashtra","state_code":"16","district":"Ahmed Nagar","district_code":"522","address1":"Sangamner","address2":"","latitude":"19.6062","longitude":"74.5167","accuracy":"3"},{"address3":"Jawale Kadlag","state":"Maharashtra","state_code":"16","district":"Ahmed Nagar","district_code":"522","address1":"Sangamner","address2":"","latitude":"19.6062","longitude":"74.5167","accuracy":"3"}],"422606":[{"address3":"Dapur","state":"Maharashtra","state_code":"16","district":"Nashik","district_code":"516","address1":"Sinnar","address2":"","latitude":"20.5744","longitude":"74.7598","accuracy":"4"},{"address3":"Marhal BK","state":"Maharashtra","state_code":"16","district":"Nashik","district_code":"516","address1":"Sinnar","address2":"","latitude":"20.2091","longitude":"74.6339","accuracy":"3"},{"address3":"Nandurshingote","state":"Maharashtra","state_code":"16","district":"Nashik","district_code":"516","address1":"Sinnar","address2":"","latitude":"20.2091","longitude":"74.6339","accuracy":"3"},{"address3":"Kankuri","state":"Maharashtra","state_code":"16","district":"Nashik","district_code":"516","address1":"Sinnar","address2":"","latitude":"20.2091","longitude":"74.6339","accuracy":"3"},{"address3":"Gonde","state":"Maharashtra","state_code":"16","district":"Nashik","district_code":"516","address1":"Sinnar","address2":"","latitude":"19.7819","longitude":"74.0545","accuracy":"4"},{"address3":"Nirhale","state":"Maharashtra","state_code":"16","district":"Nashik","district_code":"516","address1":"Sinnar","address2":"","latitude":"20.2091","longitude":"74.6339","accuracy":"3"},{"address3":"Chas","state":"Maharashtra","state_code":"16","district":"Nashik","district_code":"516","address1":"Sinnar","address2":"","latitude":"20.2592","longitude":"74.0714","accuracy":"4"},{"address3":"Khambale","state":"Maharashtra","state_code":"16","district":"Nashik","district_code":"516","address1":"Sinnar","address2":"","latitude":"20.2592","longitude":"74.0714","accuracy":"4"},{"address3":"Dodi","state":"Maharashtra","state_code":"16","district":"Nashik","district_code":"516","address1":"Sinnar","address2":"","latitude":"20.2592","longitude":"74.0714","accuracy":"3"},{"address3":"Bhojapur","state":"Maharashtra","state_code":"16","district":"Nashik","district_code":"516","address1":"Sinnar","address2":"","latitude":"20.2592","longitude":"74.0714","accuracy":"3"}],"422608":[{"address3":"Sangamner SK","state":"Maharashtra","state_code":"16","district":"Ahmed Nagar","district_code":"522","address1":"Sangamner","address2":"","latitude":"19.7568","longitude":"74.7289","accuracy":"1"},{"address3":"Maldad","state":"Maharashtra","state_code":"16","district":"Ahmed Nagar","district_code":"522","address1":"Sangamner","address2":"","latitude":"19.7568","longitude":"74.7289","accuracy":"1"}],"422610":[{"address3":"Pangari","state":"Maharashtra","state_code":"16","district":"Ahmed Nagar","district_code":"522","address1":"Akole","address2":"","latitude":"19.2034","longitude":"74.6769","accuracy":"4"},{"address3":"Kotul","state":"Maharashtra","state_code":"16","district":"Ahmed Nagar","district_code":"522","address1":"Akole","address2":"","latitude":"19.4355","longitude":"73.9677","accuracy":"4"},{"address3":"Chas","state":"Maharashtra","state_code":"16","district":"Ahmed Nagar","district_code":"522","address1":"Akole","address2":"","latitude":"19.0346","longitude":"74.6496","accuracy":"4"},{"address3":"Palsunde","state":"Maharashtra","state_code":"16","district":"Ahmed Nagar","district_code":"522","address1":"Akole","address2":"","latitude":"18.7375","longitude":"73.9681","accuracy":"3"},{"address3":"Bramhanwada","state":"Maharashtra","state_code":"16","district":"Ahmed Nagar","district_code":"522","address1":"Akole","address2":"","latitude":"19.2034","longitude":"74.6769","accuracy":"3"},{"address3":"Waghapur","state":"Maharashtra","state_code":"16","district":"Ahmed Nagar","district_code":"522","address1":"Akole","address2":"","latitude":"18.7375","longitude":"73.9681","accuracy":"3"},{"address3":"Satewadi","state":"Maharashtra","state_code":"16","district":"Ahmed Nagar","district_code":"522","address1":"Akole","address2":"","latitude":"18.7375","longitude":"73.9681","accuracy":"3"},{"address3":"Pimpalgaon Khad","state":"Maharashtra","state_code":"16","district":"Ahmed Nagar","district_code":"522","address1":"Akole","address2":"","latitude":"18.7375","longitude":"73.9681","accuracy":"3"},{"address3":"Lingdeo","state":"Maharashtra","state_code":"16","district":"Ahmed Nagar","district_code":"522","address1":"Akole","address2":"","latitude":"18.7375","longitude":"73.9681","accuracy":"3"},{"address3":"Kohane","state":"Maharashtra","state_code":"16","district":"Ahmed Nagar","district_code":"522","address1":"Akole","address2":"","latitude":"18.7375","longitude":"73.9681","accuracy":"3"},{"address3":"Keli Kotul","state":"Maharashtra","state_code":"16","district":"Ahmed Nagar","district_code":"522","address1":"Akole","address2":"","latitude":"18.7375","longitude":"73.9681","accuracy":"3"},{"address3":"Dhamngaon Pat","state":"Maharashtra","state_code":"16","district":"Ahmed Nagar","district_code":"522","address1":"Akole","address2":"","latitude":"18.7375","longitude":"73.9681","accuracy":"3"},{"address3":"Karandi","state":"Maharashtra","state_code":"16","district":"Ahmed Nagar","district_code":"522","address1":"Akole","address2":"","latitude":"18.7375","longitude":"73.9681","accuracy":"3"},{"address3":"Ambhol","state":"Maharashtra","state_code":"16","district":"Ahmed Nagar","district_code":"522","address1":"Akole","address2":"","latitude":"18.7375","longitude":"73.9681","accuracy":"3"}],"422611":[{"address3":"Chincholi Gurav","state":"Maharashtra","state_code":"16","district":"Ahmed Nagar","district_code":"522","address1":"Sangamner","address2":"","latitude":"19.7109","longitude":"74.1933","accuracy":"3"},{"address3":"Talegaon Dighe","state":"Maharashtra","state_code":"16","district":"Ahmed Nagar","district_code":"522","address1":"Sangamner","address2":"","latitude":"19.7109","longitude":"74.1933","accuracy":"3"},{"address3":"Nanaj Dumala","state":"Maharashtra","state_code":"16","district":"Ahmed Nagar","district_code":"522","address1":"Sangamner","address2":"","latitude":"19.7109","longitude":"74.1933","accuracy":"3"},{"address3":"Kawathe Kamaleshwar","state":"Maharashtra","state_code":"16","district":"Ahmed Nagar","district_code":"522","address1":"Sangamner","address2":"","latitude":"19.7109","longitude":"74.1933","accuracy":"3"},{"address3":"Nimon","state":"Maharashtra","state_code":"16","district":"Ahmed Nagar","district_code":"522","address1":"Sangamner","address2":"","latitude":"19.7109","longitude":"74.1933","accuracy":"4"},{"address3":"Paregaon BK","state":"Maharashtra","state_code":"16","district":"Ahmed Nagar","district_code":"522","address1":"Sangamner","address2":"","latitude":"19.7109","longitude":"74.1933","accuracy":"3"}],"422620":[{"address3":"Ghargaon","state":"Maharashtra","state_code":"16","district":"Ahmed Nagar","district_code":"522","address1":"Sangamner","address2":"","latitude":"18.7471","longitude":"74.638","accuracy":"4"},{"address3":"Aklapur","state":"Maharashtra","state_code":"16","district":"Ahmed Nagar","district_code":"522","address1":"Sangamner","address2":"","latitude":"18.7471","longitude":"74.638","accuracy":"3"},{"address3":"Nandur Khandarmal","state":"Maharashtra","state_code":"16","district":"Ahmed Nagar","district_code":"522","address1":"Sangamner","address2":"","latitude":"18.7471","longitude":"74.638","accuracy":"3"},{"address3":"Kothe BK","state":"Maharashtra","state_code":"16","district":"Ahmed Nagar","district_code":"522","address1":"Sangamner","address2":"","latitude":"18.7471","longitude":"74.638","accuracy":"3"},