{"443001":[{"address3":"Buldana H.O","state":"Maharashtra","state_code":"16","district":"Buldhana","district_code":"500","address1":"Buldana","address2":"","latitude":"20.3394","longitude":"75.9568","accuracy":"1"}],"443002":[{"address3":"Kinhola","state":"Maharashtra","state_code":"16","district":"Buldhana","district_code":"500","address1":"Chikhli","address2":"","latitude":"20.5111","longitude":"76.4083","accuracy":"4"},{"address3":"Warwand","state":"Maharashtra","state_code":"16","district":"Buldhana","district_code":"500","address1":"Buldana","address2":"","latitude":"20.5132","longitude":"76.2786","accuracy":"4"},{"address3":"Kesapur","state":"Maharashtra","state_code":"16","district":"Buldhana","district_code":"500","address1":"Buldana","address2":"","latitude":"20.5111","longitude":"76.4083","accuracy":"4"},{"address3":"Deulghat","state":"Maharashtra","state_code":"16","district":"Buldhana","district_code":"500","address1":"Buldana","address2":"","latitude":"20.515","longitude":"76.1129","accuracy":"4"},{"address3":"Dahid","state":"Maharashtra","state_code":"16","district":"Buldhana","district_code":"500","address1":"Budlana","address2":"","latitude":"20.3394","longitude":"75.9568","accuracy":"3"},{"address3":"Shirpur","state":"Maharashtra","state_code":"16","district":"Buldhana","district_code":"500","address1":"Buldana","address2":"","latitude":"20.5111","longitude":"76.4083","accuracy":"4"},{"address3":"Dhotra Bhangoji","state":"Maharashtra","state_code":"16","district":"Buldhana","district_code":"500","address1":"Budlana","address2":"","latitude":"20.3394","longitude":"75.9568","accuracy":"3"},{"address3":"Pimpalgaon Sarai","state":"Maharashtra","state_code":"16","district":"Buldhana","district_code":"500","address1":"Buldana","address2":"","latitude":"20.3394","longitude":"75.9568","accuracy":"3"},{"address3":"Gummi","state":"Maharashtra","state_code":"16","district":"Buldhana","district_code":"500","address1":"Buldana","address2":"","latitude":"20.3394","longitude":"75.9568","accuracy":"3"},{"address3":"Pangri","state":"Maharashtra","state_code":"16","district":"Buldhana","district_code":"500","address1":"Buldana","address2":"","latitude":"19.9617","longitude":"76.2578","accuracy":"4"},{"address3":"Dongarshewali","state":"Maharashtra","state_code":"16","district":"Buldhana","district_code":"500","address1":"Buldana","address2":"","latitude":"20.3394","longitude":"75.9568","accuracy":"3"},{"address3":"Yelgaon","state":"Maharashtra","state_code":"16","district":"Buldhana","district_code":"500","address1":"Buldana","address2":"","latitude":"20.5111","longitude":"76.4083","accuracy":"3"},{"address3":"Sundarkhed","state":"Maharashtra","state_code":"16","district":"Buldhana","district_code":"500","address1":"Buldana","address2":"","latitude":"20.3394","longitude":"75.9568","accuracy":"3"},{"address3":"Bhadola","state":"Maharashtra","state_code":"16","district":"Buldhana","district_code":"500","address1":"Buldana","address2":"","latitude":"20.5306","longitude":"76.2589","accuracy":"4"},{"address3":"Chaitanya Wadi","state":"Maharashtra","state_code":"16","district":"Buldhana","district_code":"500","address1":"Buldana","address2":"","latitude":"20.3394","longitude":"75.9568","accuracy":"3"},{"address3":"Raipur","state":"Maharashtra","state_code":"16","district":"Buldhana","district_code":"500","address1":"Buldana","address2":"","latitude":"20.3891","longitude":"76.1504","accuracy":"4"},{"address3":"Madh","state":"Maharashtra","state_code":"16","district":"Buldhana","district_code":"500","address1":"Buldana","address2":"","latitude":"20.5111","longitude":"76.4083","accuracy":"3"},{"address3":"Padali","state":"Maharashtra","state_code":"16","district":"Buldhana","district_code":"500","address1":"Buldana","address2":"","latitude":"20.5111","longitude":"76.4083","accuracy":"3"},{"address3":"Sakhali","state":"Maharashtra","state_code":"16","district":"Buldhana","district_code":"500","address1":"Buldana","address2":"","latitude":"20.3394","longitude":"75.9568","accuracy":"3"},{"address3":"Shelsur","state":"Maharashtra","state_code":"16","district":"Buldhana","district_code":"500","address1":"Chikhli","address2":"","latitude":"20.3394","longitude":"75.9568","accuracy":"3"},{"address3":"Sao","state":"Maharashtra","state_code":"16","district":"Buldhana","district_code":"500","address1":"Buldana","address2":"","latitude":"20.3394","longitude":"75.9568","accuracy":"3"},{"address3":"Dongar Khandala","state":"Maharashtra","state_code":"16","district":"Buldhana","district_code":"500","address1":"Buldana","address2":"","latitude":"20.3394","longitude":"75.9568","accuracy":"3"},{"address3":"Kelwad","state":"Maharashtra","state_code":"16","district":"Buldhana","district_code":"500","address1":"Chikhli","address2":"","latitude":"20.3394","longitude":"75.9568","accuracy":"3"},{"address3":"Kolwad","state":"Maharashtra","state_code":"16","district":"Buldhana","district_code":"500","address1":"Buldana","address2":"","latitude":"20.3394","longitude":"75.9568","accuracy":"3"},{"address3":"Nandra Koli","state":"Maharashtra","state_code":"16","district":"Buldhana","district_code":"500","address1":"NA","address2":"","latitude":"20.3394","longitude":"75.9568","accuracy":"3"},{"address3":"Sagwan","state":"Maharashtra","state_code":"16","district":"Buldhana","district_code":"500","address1":"Buldana","address2":"","latitude":"20.3394","longitude":"75.9568","accuracy":"3"}],"443101":[{"address3":"Malkapur (Buldhana)","state":"Maharashtra","state_code":"16","district":"Buldhana","district_code":"500","address1":"Malkapur","address2":"","latitude":"20.8855","longitude":"76.1993","accuracy":"4"},{"address3":"Bhalegaon","state":"Maharashtra","state_code":"16","district":"Buldhana","district_code":"500","address1":"Malkapur","address2":"","latitude":"20.6853","longitude":"76.4211","accuracy":"4"},{"address3":"Khamkhed","state":"Maharashtra","state_code":"16","district":"Buldhana","district_code":"500","address1":"Malkapur","address2":"","latitude":"20.9011","longitude":"76.1304","accuracy":"4"},{"address3":"Deodhaba","state":"Maharashtra","state_code":"16","district":"Buldhana","district_code":"500","address1":"Malkapur","address2":"","latitude":"20.9224","longitude":"76.1068","accuracy":"4"},{"address3":"Malkapur City","state":"Maharashtra","state_code":"16","district":"Buldhana","district_code":"500","address1":"Malkapur","address2":"","latitude":"20.8329","longitude":"76.2956","accuracy":"3"},{"address3":"Nipana","state":"Maharashtra","state_code":"16","district":"Buldhana","district_code":"500","address1":"Motala","address2":"","latitude":"20.5111","longitude":"76.4083","accuracy":"4"},{"address3":"Harankhed","state":"Maharashtra","state_code":"16","district":"Buldhana","district_code":"500","address1":"Malkapur","address2":"","latitude":"20.8545","longitude":"76.0819","accuracy":"4"},{"address3":"Pimpalgaon Devi","state":"Maharashtra","state_code":"16","district":"Buldhana","district_code":"500","address1":"Motala","address2":"","latitude":"20.7668","longitude":"76.0243","accuracy":"4"},{"address3":"Wadaji","state":"Maharashtra","state_code":"16","district":"Buldhana","district_code":"500","address1":"Malkapur","address2":"","latitude":"20.8329","longitude":"76.2956","accuracy":"3"},{"address3":"Wadner Bholaji","state":"Maharashtra","state_code":"16","district":"Buldhana","district_code":"500","address1":"Jalgaon","address2":"","latitude":"20.8329","longitude":"76.2956","accuracy":"3"},{"address3":"Sindkhed Lapali","state":"Maharashtra","state_code":"16","district":"Buldhana","district_code":"500","address1":"Motala","address2":"","latitude":"20.8329","longitude":"76.2956","accuracy":"3"},{"address3":"Talkhed","state":"Maharashtra","state_code":"16","district":"Buldhana","district_code":"500","address1":"Motala","address2":"","latitude":"20.9554","longitude":"76.22","accuracy":"4"},{"address3":"Shelapur","state":"Maharashtra","state_code":"16","district":"Buldhana","district_code":"500","address1":"Motala","address2":"","latitude":"20.8329","longitude":"76.2956","accuracy":"3"},{"address3":"Panhera Wadoda","state":"Maharashtra","state_code":"16","district":"Buldhana","district_code":"500","address1":"Malkapur","address2":"","latitude":"20.8329","longitude":"76.2956","accuracy":"3"},{"address3":"Nalgangapur","state":"Maharashtra","state_code":"16","district":"Buldhana","district_code":"500","address1":"Sangrampur","address2":"","latitude":"20.8329","longitude":"76.2956","accuracy":"3"},{"address3":"Liha BK","state":"Maharashtra","state_code":"16","district":"Buldhana","district_code":"500","address1":"Motala","address2":"","latitude":"20.8329","longitude":"76.2956","accuracy":"3"},{"address3":"Jambhuldhaba","state":"Maharashtra","state_code":"16","district":"Buldhana","district_code":"500","address1":"Malkapur","address2":"","latitude":"20.8329","longitude":"76.2956","accuracy":"3"},{"address3":"Dudhalgaon BK","state":"Maharashtra","state_code":"16","district":"Buldhana","district_code":"500","address1":"Malkapur","address2":"","latitude":"20.8329","longitude":"76.2956","accuracy":"3"},{"address3":"Awha Yunuspur","state":"Maharashtra","state_code":"16","district":"Buldhana","district_code":"500","address1":"Motala","address2":"","latitude":"20.8329","longitude":"76.2956","accuracy":"3"}],"443102":[{"address3":"Bhadgani","state":"Maharashtra","state_code":"16","district":"Buldhana","district_code":"500","address1":"Malkapur","address2":"","latitude":"20.7796","longitude":"76.2455","accuracy":"4"},{"address3":"Talni","state":"Maharashtra","state_code":"16","district":"Buldhana","district_code":"500","address1":"Motala","address2":"","latitude":"20.7699","longitude":"76.1769","accuracy":"4"},{"address3":"Shiradhon","state":"Maharashtra","state_code":"16","district":"Buldhana","district_code":"500","address1":"Malkapur","address2":"","latitude":"20.5111","longitude":"76.4083","accuracy":"4"},{"address3":"Belad","state":"Maharashtra","state_code":"16","district":"Buldhana","district_code":"500","address1":"Malkapur","address2":"","latitude":"20.8631","longitude":"76.2369","accuracy":"4"},{"address3":"Warkhed","state":"Maharashtra","state_code":"16","district":"Buldhana","district_code":"500","address1":"Malkapur","address2":"","latitude":"20.8004","longitude":"76.2941","accuracy":"4"},{"address3":"Sarola Maroti","state":"Maharashtra","state_code":"16","district":"Buldhana","district_code":"500","address1":"Motala","address2":"","latitude":"20.5356","longitude":"76.4423","accuracy":"3"},{"address3":"Dabhadi","state":"Maharashtra","state_code":"16","district":"Buldhana","district_code":"500","address1":"Malkapur","address2":"","latitude":"20.7887","longitude":"76.1739","accuracy":"4"},{"address3":"Makodi","state":"Maharashtra","state_code":"16","district":"Buldhana","district_code":"500","address1":"Motala","address2":"","latitude":"20.771","longitude":"76.1299","accuracy":"4"},{"address3":"Pophali","state":"Maharashtra","state_code":"16","district":"Buldhana","district_code":"500","address1":"Motala","address2":"","latitude":"20.5111","longitude":"76.4083","accuracy":"4"},{"address3":"Ghirni","state":"Maharashtra","state_code":"16","district":"Buldhana","district_code":"500","address1":"Malkapur","address2":"","latitude":"20.8464","longitude":"76.2377","accuracy":"4"},{"address3":"Shelgaon Bazar","state":"Maharashtra","state_code":"16","district":"Buldhana","district_code":"500","address1":"Motala","address2":"","latitude":"20.5356","longitude":"76.4423","accuracy":"3"},{"address3":"Umali","state":"Maharashtra","state_code":"16","district":"Buldhana","district_code":"500","address1":"Malkapur","address2":"","latitude":"20.8122","longitude":"76.2376","accuracy":"4"},{"address3":"Mendhali","state":"Maharashtra","state_code":"16","district":"Buldhana","district_code":"500","address1":"Nandura","address2":"","latitude":"20.5356","longitude":"76.4423","accuracy":"3"},{"address3":"Datala","state":"Maharashtra","state_code":"16","district":"Buldhana","district_code":"500","address1":"Malkapur","address2":"","latitude":"20.8162","longitude":"76.2009","accuracy":"4"},{"address3":"Pimpri Gawali","state":"Maharashtra","state_code":"16","district":"Buldhana","district_code":"500","address1":"Motala","address2":"","latitude":"20.5356","longitude":"76.4423","accuracy":"3"}],"443103":[{"address3":"Rohinkhed","state":"Maharashtra","state_code":"16","district":"Buldhana","district_code":"500","address1":"NA","address2":"","latitude":"20.606","longitude":"76.7816","accuracy":"3"},{"address3":"Rajur","state":"Maharashtra","state_code":"16","district":"Buldhana","district_code":"500","address1":"Motala","address2":"","latitude":"20.5111","longitude":"76.4083","accuracy":"4"},{"address3":"Motala","state":"Maharashtra","state_code":"16","district":"Buldhana","district_code":"500","address1":"Motala","address2":"","latitude":"20.6779","longitude":"76.21","accuracy":"4"},{"address3":"Kharbadi","state":"Maharashtra","state_code":"16","district":"Buldhana","district_code":"500","address1":"Motala","address2":"","latitude":"20.5111","longitude":"76.4083","accuracy":"4"},{"address3":"Advihir","state":"Maharashtra","state_code":"16","district":"Buldhana","district_code":"500","address1":"Motala","address2":"","latitude":"20.606","longitude":"76.7816","accuracy":"3"},{"address3":"Pimpalgaon Nath","state":"Maharashtra","state_code":"16","district":"Buldhana","district_code":"500","address1":"Motala","address2":"","latitude":"20.6577","longitude":"76.3276","accuracy":"4"},{"address3":"Kothali","state":"Maharashtra","state_code":"16","district":"Buldhana","district_code":"500","address1":"Motala","address2":"","latitude":"20.5111","longitude":"76.4083","accuracy":"4"},{"address3":"Nimkhed","state":"Maharashtra","state_code":"16","district":"Buldhana","district_code":"500","address1":"Motala","address2":"","latitude":"20.6373","longitude":"76.2981","accuracy":"4"},{"address3":"Shemba","state":"Maharashtra","state_code":"16","district":"Buldhana","district_code":"500","address1":"Motala","address2":"","latitude":"20.606","longitude":"76.7816","accuracy":"3"},{"address3":"Borakhedi","state":"Maharashtra","state_code":"16","district":"Buldhana","district_code":"500","address1":"Motala","address2":"","latitude":"20.5111","longitude":"76.4083","accuracy":"4"},{"address3":"Khaira","state":"Maharashtra","state_code":"16","district":"Buldhana","district_code":"500","address1":"Motala","address2":"","latitude":"20.7366","longitude":"76.322","accuracy":"4"},{"address3":"Jaipur","state":"Maharashtra","state_code":"16","district":"Buldhana","district_code":"500","address1":"Motala","address2":"","latitude":"20.6829","longitude":"76.281","accuracy":"4"},{"address3":"Takarkhed","state":"Maharashtra","state_code":"16","district":"Buldhana","district_code":"500","address1":"Motala","address2":"","latitude":"20.7321","longitude":"76.2812","accuracy":"4"}],"443104":[{"address3":"Panhera","state":"Maharashtra","state_code":"16","district":"Buldhana","district_code":"500","address1":"Motala","address2":"","latitude":"20.8975","longitude":"76.2591","accuracy":"4"},{"address3":"Dhamangaon Badhe","state":"Maharashtra","state_code":"16","district":"Buldhana","district_code":"500","address1":"Motala","address2":"","latitude":"20.9255","longitude":"76.2918","accuracy":"3"},{"address3":"Korhala","state":"Maharashtra","state_code":"16","district":"Buldhana","district_code":"500","address1":"Motala","address2":"","latitude":"20.9534","longitude":"76.3246","accuracy":"4"}],"443106":[{"address3":"Jamb","state":"Maharashtra","state_code":"16","district":"Buldhana","district_code":"500","address1":"Buldana","address2":"","latitude":"20.3161","longitude":"75.9484","accuracy":"4"},{"address3":"Warud","state":"Maharashtra","state_code":"16","district":"Buldhana","district_code":"500","address1":"Buldana","address2":"","latitude":"20.6794","longitude":"76.2605","accuracy":"4"},{"address3":"Dudha","state":"Maharashtra","state_code":"16","district":"Buldhana","district_code":"500","address1":"Buldana","address2":"","latitude":"20.5111","longitude":"76.4083","accuracy":"3"},{"address3":"Masrul","state":"Maharashtra","state_code":"16","district":"Buldhana","district_code":"500","address1":"Buldana","address2":"","latitude":"20.438","longitude":"75.955","accuracy":"4"},{"address3":"Hatedi","state":"Maharashtra","state_code":"16","district":"Buldhana","district_code":"500","address1":"NA","address2":"","latitude":"20.3854","longitude":"75.9872","accuracy":"3"},{"address3":"Dhad","state":"Maharashtra","state_code":"16","district":"Buldhana","district_code":"500","address1":"Buldana","address2":"","latitude":"19.8459","longitude":"76.5537","accuracy":"4"},{"address3":"Satgaon Mhasla","state":"Maharashtra","state_code":"16","district":"Buldhana","district_code":"500","address1":"Buldana","address2":"","latitude":"20.3854","longitude":"75.9872","accuracy":"3"},{"address3":"Bhadgaon","state":"Maharashtra","state_code":"16","district":"Buldhana","district_code":"500","address1":"Buldana","address2":"","latitude":"20.5111","longitude":"76.4083","accuracy":"4"},{"address3":"Dhamangaon","state":"Maharashtra","state_code":"16","district":"Buldhana","district_code":"500","address1":"Buldana","address2":"","latitude":"20.421","longitude":"75.9478","accuracy":"4"},{"address3":"Dhalsawangi","state":"Maharashtra","state_code":"16","district":"Buldhana","district_code":"500","address1":"Buldana","address2":"","latitude":"20.3854","longitude":"75.9872","accuracy":"3"},{"address3":"Chandol","state":"Maharashtra","state_code":"16","district":"Buldhana","district_code":"500","address1":"Buldana","address2":"","latitude":"20.3285","longitude":"76.0157","accuracy":"4"},{"address3":"Mhasla BK","state":"Maharashtra","state_code":"16","district":"Buldhana","district_code":"500","address1":"Buldana","address2":"","latitude":"20.3854","longitude":"75.9872","accuracy":"3"}],"443112":[{"address3":"Mhaiswadi","state":"Maharashtra","state_code":"16","district":"Buldhana","district_code":"500","address1":"Malkapur","address2":"","latitude":"20.9682","longitude":"76.2246","accuracy":"4"},{"address3":"Narvel","state":"Maharashtra","state_code":"16","district":"Buldhana","district_code":"500","address1":"Malkapur","address2":"","latitude":"20.5111","longitude":"76.4083","accuracy":"4"},{"address3":"Chikhali","state":"Maharashtra","state_code":"16","district":"Buldhana","district_code":"500","address1":"Malkapur","address2":"","latitude":"20.5111","longitude":"76.4083","accuracy":"3"},{"address3":"Dharangaon (Buldhana)","state":"Maharashtra","state_code":"16","district":"Buldhana","district_code":"500","address1":"Malkapur","address2":"","latitude":"21.0828","longitude":"76.1743","accuracy":"3"},{"address3":"Tadulwadi","state":"Maharashtra","state_code":"16","district":"Buldhana","district_code":"500","address1":"Malkapur","address2":"","latitude":"21.0828","longitude":"76.1743","accuracy":"3"},{"address3":"Harsoda","state":"Maharashtra","state_code":"16","district":"Buldhana","district_code":"500","address1":"Malkapur","address2":"","latitude":"21.0828","longitude":"76.1743","accuracy":"3"},{"address3":"Dasarkhed","state":"Maharashtra","state_code":"16","district":"Buldhana","district_code":"500","address1":"Malkapur","address2":"","latitude":"21.0828","longitude":"76.1743","accuracy":"3"},{"address3":"Zodga","state":"Maharashtra","state_code":"16","district":"Buldhana","district_code":"500","address1":"Malkapur","address2":"","latitude":"21.0828","longitude":"76.1743","accuracy":"3"},{"address3":"Vivara","state":"Maharashtra","state_code":"16","district":"Buldhana","district_code":"500","address1":"Malkapur","address2":"","latitude":"21.0828","longitude":"76.1743","accuracy":"3"}],"443201":[{"address3":"Kawhala","state":"Maharashtra","state_code":"16","district":"Buldhana","district_code":"500","address1":"Chikhli","address2":"","latitude":"20.6162","longitude":"76.9581","accuracy":"3"},{"address3":"Chikhli (Buldhana)","state":"Maharashtra","state_code":"16","district":"Buldhana","district_code":"500","address1":"Chikhli","address2":"","latitude":"20.3505","longitude":"76.2577","accuracy":"4"},{"address3":"Kolara","state":"Maharashtra","state_code":"16","district":"Buldhana","district_code":"500","address1":"Deulgaon Raja","address2":"","latitude":"20.5111","longitude":"76.4083","accuracy":"4"},{"address3":"Eklara","state":"Maharashtra","state_code":"16","district":"Buldhana","district_code":"500","address1":"Chikhli","address2":"","latitude":"20.5111","longitude":"76.4083","accuracy":"4"},{"address3":"Sakegaon","state":"Maharashtra","state_code":"16","district":"Buldhana","district_code":"500","address1":"Chikhli","address2":"","latitude":"20.5111","longitude":"76.4083","accuracy":"4"},{"address3":"Godri","state":"Maharashtra","state_code":"16","district":"Buldhana","district_code":"500","address1":"Chikhli","address2":"","latitude":"20.5111","longitude":"76.4083","accuracy":"4"},{"address3":"Deulgaon Dhangar","state":"Maharashtra","state_code":"16","district":"Buldhana","district_code":"500","address1":"Deulgaon Raja","address2":"","latitude":"20.6162","longitude":"76.9581","accuracy":"3"},{"address3":"Dahigaon","state":"Maharashtra","state_code":"16","district":"Buldhana","district_code":"500","address1":"Chikhli","address2":"","latitude":"20.8589","longitude":"76.4002","accuracy":"4"},{"address3":"Hatni","state":"Maharashtra","state_code":"16","district":"Buldhana","district_code":"500","address1":"Chikhli","address2":"","latitude":"20.5111","longitude":"76.4083","accuracy":"4"},{"address3":"Borgaon Kakde","state":"Maharashtra","state_code":"16","district":"Buldhana","district_code":"500","address1":"Chikhli","address2":"","latitude":"20.6162","longitude":"76.9581","accuracy":"3"},{"address3":"Peth","state":"Maharashtra","state_code":"16","district":"Buldhana","district_code":"500","address1":"Chikhli","address2":"","latitude":"20.5111","longitude":"76.4083","accuracy":"3"},{"address3":"Gangalgaon","state":"Maharashtra","state_code":"16","district":"Buldhana","district_code":"500","address1":"Dulgaon Raja","address2":"","latitude":"20.6162","longitude":"76.9581","accuracy":"3"},{"address3":"Ancharwadi","state":"Maharashtra","state_code":"16","district":"Buldhana","district_code":"500","address1":"Deulgaon Raja","address2":"","latitude":"20.6162","longitude":"76.9581","accuracy":"3"},{"address3":"Savkhed Nagare","state":"Maharashtra","state_code":"16","district":"Buldhana","district_code":"500","address1":"Chikhli","address2":"","latitude":"20.6162","longitude":"76.9581","accuracy":"3"},{"address3":"Antri Khedekar","state":"Maharashtra","state_code":"16","district":"Buldhana","district_code":"500","address1":"Deulgaon Raja","address2":"","latitude":"20.6162","longitude":"76.9581","accuracy":"3"},{"address3":"Mera Khurd","state":"Maharashtra","state_code":"16","district":"Buldhana","district_code":"500","address1":"Chikhli","address2":"","latitude":"20.6162","longitude":"76.9581","accuracy":"3"},{"address3":"Bharosa","state":"Maharashtra","state_code":"16","district":"Buldhana","district_code":"500","address1":"Deulgaon Raja","address2":"","latitude":"20.6162","longitude":"76.9581","accuracy":"3"},{"address3":"Sawargaon Dukare","state":"Maharashtra","state_code":"16","district":"Buldhana","district_code":"500","address1":"Chikhli","address2":"","latitude":"20.6162","longitude":"76.9581","accuracy":"3"},{"address3":"Cotton Market Chikhli","state":"Maharashtra","state_code":"16","district":"Buldhana","district_code":"500","address1":"Chikhli","address2":"","latitude":"20.6162","longitude":"76.9581","accuracy":"3"},{"address3":"Isrul","state":"Maharashtra","state_code":"16","district":"Buldhana","district_code":"500","address1":"Deulgaon Raja","address2":"","latitude":"20.6162","longitude":"76.9581","accuracy":"3"},{"address3":"Shelgaon Atol","state":"Maharashtra","state_code":"16","district":"Buldhana","district_code":"500","address1":"Deulgaon Raja","address2":"","latitude":"20.6162","longitude":"76.9581","accuracy":"3"},{"address3":"Satgaon Bhusari","state":"Maharashtra","state_code":"16","district":"Buldhana","district_code":"500","address1":"Chikhli","address2":"","latitude":"20.6162","longitude":"76.9581","accuracy":"3"},{"address3":"Mendgaon","state":"Maharashtra","state_code":"16","district":"Buldhana","district_code":"500","address1":"Deulgaon Raja","address2":"","latitude":"20.6162","longitude":"76.9581","accuracy":"3"},{"address3":"Mera BK","state":"Maharashtra","state_code":"16","district":"Buldhana","district_code":"500","address1":"Chikhli","address2":"","latitude":"20.6162","longitude":"76.9581","accuracy":"3"},{"address3":"Sawana","state":"Maharashtra","state_code":"16","district":"Buldhana","district_code":"500","address1":"Chikhli","address2":"","latitude":"20.6162","longitude":"76.9581","accuracy":"3"},{"address3":"Khandala Makardhwaj","state":"Maharashtra","state_code":"16","district":"Buldhana","district_code":"500","address1":"Chikhli","address2":"","latitude":"20.6162","longitude":"76.9581","accuracy":"3"},{"address3":"Palaskhed Daulat","state":"Maharashtra","state_code":"16","district":"Buldhana","district_code":"500","address1":"Chikhli","address2":"","latitude":"20.6162","longitude":"76.9581","accuracy":"3"},{"address3":"Ambashi","state":"Maharashtra","state_code":"16","district":"Buldhana","district_code":"500","address1":"Deulgaon Raja","address2":"","latitude":"20.6162","longitude":"76.9581","accuracy":"3"},{"address3":"Andhera","state":"Maharashtra","state_code":"16","district":"Buldhana","district_code":"500","address1":"Deulgaon Raja","address2":"","latitude":"20.6162","longitude":"76.9581","accuracy":"3"}],"443202":[{"address3":"Zotinga","state":"Maharashtra","state_code":"16","district":"Buldhana","district_code":"500","address1":"Sindkhed Raja","address2":"","latitude":"19.9221","longitude":"76.5549","accuracy":"3"},{"address3":"Gunj","state":"Maharashtra","state_code":"16","district":"Buldhana","district_code":"500","address1":"Sindkhed Raja","address2":"","latitude":"20.5111","longitude":"76.4083","accuracy":"4"},{"address3":"Sindi","state":"Maharashtra","state_code":"16","district":"Buldhana","district_code":"500","address1":"Sindkhed Raja","address2":"","latitude":"20.5111","longitude":"76.4083","accuracy":"4"},{"address3":"Daregaon","state":"Maharashtra","state_code":"16","district":"Buldhana","district_code":"500","address1":"Sindkhed Raja","address2":"","latitude":"20.5111","longitude":"76.4083","accuracy":"4"},{"address3":"Wadgaon Mali","state":"Maharashtra","state_code":"16","district":"Buldhana","district_code":"500","address1":"Mehkar","address2":"","latitude":"19.9221","longitude":"76.5549","accuracy":"3"},{"address3":"Waghala","state":"Maharashtra","state_code":"16","district":"Buldhana","district_code":"500","address1":"Sindkhed Raja","address2":"","latitude":"20.5111","longitude":"76.4083","accuracy":"4"},{"address3":"Bhumrala","state":"Maharashtra","state_code":"16","district":"Buldhana","district_code":"500","address1":"Lonar","address2":"","latitude":"19.9398","longitude":"76.3869","accuracy":"4"},{"address3":"Sakhar Kherda","state":"Maharashtra","state_code":"16","district":"Buldhana","district_code":"500","address1":"Sindkhed Raja","address2":"","latitude":"19.9221","longitude":"76.5549","accuracy":"3"},{"address3":"Bibi","state":"Maharashtra","state_code":"16","district":"Buldhana","district_code":"500","address1":"Sindkhed Raja","address2":"","latitude":"20.0212","longitude":"76.3755","accuracy":"4"},{"address3":"Sawadad","state":"Maharashtra","state_code":"16","district":"Buldhana","district_code":"500","address1":"Sindkhed Raja","address2":"","latitude":"19.9221","longitude":"76.5549","accuracy":"3"},{"address3":"Shendurjan","state":"Maharashtra","state_code":"16","district":"Buldhana","district_code":"500","address1":"Sindkhed Raja","address2":"","latitude":"19.9221","longitude":"76.5549","accuracy":"3"},{"address3":"Malkapur Pangra","state":"Maharashtra","state_code":"16","district":"Buldhana","district_code":"500","address1":"Sindkhed Raja","address2":"","latitude":"19.9221","longitude":"76.5549","accuracy":"3"},{"address3":"Kingaon Jattu","state":"Maharashtra","state_code":"16","district":"Buldhana","district_code":"500","address1":"Lonar","address2":"","latitude":"19.9221","longitude":"76.5549","accuracy":"3"}],"443203":[{"address3":"Sindkhed Raja","state":"Maharashtra","state_code":"16","district":"Buldhana","district_code":"500","address1":"Sindkhed Raja","address2":"","latitude":"19.9536","longitude":"76.1264","accuracy":"4"},{"address3":"Dawargaon","state":"Maharashtra","state_code":"16","district":"Buldhana","district_code":"500","address1":"Sindkhed Raja","address2":"","latitude":"20.5111","longitude":"76.4083","accuracy":"4"},{"address3":"Hiwarkhed","state":"Maharashtra","state_code":"16","district":"Buldhana","district_code":"500","address1":"Sindkhed Raja","address2":"","latitude":"20.5111","longitude":"76.4083","accuracy":"4"},{"address3":"Saokhed Tejan","state":"Maharashtra","state_code":"16","district":"Buldhana","district_code":"500","address1":"Sindkhed Raja","address2":"","latitude":"20.3432","longitude":"76.5906","accuracy":"3"},{"address3":"Umrad","state":"Maharashtra","state_code":"16","district":"Buldhana","district_code":"500","address1":"Sindkhed Raja","address2":"","latitude":"19.9618","longitude":"76.2133","accuracy":"4"},{"address3":"Adgaon Raja","state":"Maharashtra","state_code":"16","district":"Buldhana","district_code":"500","address1":"Sindkhed Raja","address2":"","latitude":"19.9212","longitude":"76.2152","accuracy":"4"},{"address3":"Kingaon Raja","state":"Maharashtra","state_code":"16","district":"Buldhana","district_code":"500","address1":"Sindkhed Raja","address2":"","latitude":"19.9892","longitude":"76.2445","accuracy":"4"},{"address3":"Shioni Taka","state":"Maharashtra","state_code":"16","district":"Buldhana","district_code":"500","address1":"Sindkhed Raja","address2":"","latitude":"20.3432","longitude":"76.5906","accuracy":"3"}],"443204":[{"address3":"Deulgaon Raja","state":"Maharashtra","state_code":"16","district":"Buldhana","district_code":"500","address1":"Deulgaon Raja","address2":"","latitude":"20.0176","longitude":"76.0376","accuracy":"4"},{"address3":"Singaon Jahagir","state":"Maharashtra","state_code":"16","district":"Buldhana","district_code":"500","address1":"Deulgaon Raja","address2":"","latitude":"20.2315","longitude":"76.3799","accuracy":"3"},{"address3":"Umbarkhed","state":"Maharashtra","state_code":"16","district":"Buldhana","district_code":"500","address1":"Deulgaon Raja","address2":"","latitude":"20.5111","longitude":"76.4083","accuracy":"4"},{"address3":"Khallad Gavhan","state":"Maharashtra","state_code":"16","district":"Buldhana","district_code":"500","address1":"Deulgaon Raja","address2":"","latitude":"20.2315","longitude":"76.3799","accuracy":"3"},{"address3":"Saokhed Bhoi","state":"Maharashtra","state_code":"16","district":"Buldhana","district_code":"500","address1":"Deulgaon Raja","address2":"","latitude":"20.2315","longitude":"76.3799","accuracy":"3"},{"address3":"Borakhedi Bawra","state":"Maharashtra","state_code":"16","district":"Buldhana","district_code":"500","address1":"Deulgaon Raja","address2":"","latitude":"20.2315","longitude":"76.3799","accuracy":"3"},{"address3":"Tuljapur","state":"Maharashtra","state_code":"16","district":"Buldhana","district_code":"500","address1":"Deulgaon Raja","address2":"","latitude":"19.9616","longitude":"76.0795","accuracy":"4"}],"443206":[{"address3":"Mehuna","state":"Maharashtra","state_code":"16","district":"Buldhana","district_code":"500","address1":"Deulgaon Mahi","address2":"","latitude":"20.5111","longitude":"76.4083","accuracy":"4"},{"address3":"Saramba","state":"Maharashtra","state_code":"16","district":"Buldhana","district_code":"500","address1":"Deulgaon Mahi","address2":"","latitude":"20.3232","longitude":"75.9996","accuracy":"3"},{"address3":"Digras BK","state":"Maharashtra","state_code":"16","district":"Buldhana","district_code":"500","address1":"Deulgaon Mahi","address2":"","latitude":"20.3232","longitude":"75.9996","accuracy":"3"},{"address3":"Sawangi Tekale","state":"Maharashtra","state_code":"16","district":"Buldhana","district_code":"500","address1":"Deulgaon Mahi","address2":"","latitude":"20.3232","longitude":"75.9996","accuracy":"3"},{"address3":"Deulgaon Mahi","state":"Maharashtra","state_code":"16","district":"Buldhana","district_code":"500","address1":"Deulgaon Raja","address2":"","latitude":"20.0879","longitude":"76.1764","accuracy":"4"},{"address3":"Pimpalgaon BK","state":"Maharashtra","state_code":"16","district":"Buldhana","district_code":"500","address1":"Deulgaon Mahi","address2":"","latitude":"20.3232","longitude":"75.9996","accuracy":"3"},{"address3":"Aland","state":"Maharashtra","state_code":"16","district":"Buldhana","district_code":"500","address1":"Deulgaon Raja","address2":"","latitude":"20.8462","longitude":"76.1117","accuracy":"4"}],"443301":[{"address3":"Rajegaon","state":"Maharashtra","state_code":"16","district":"Buldhana","district_code":"500","address1":"Sindkhed Raja","address2":"","latitude":"20.5111","longitude":"76.4083","accuracy":"4"},{"address3":"Mehkar","state":"Maharashtra","state_code":"16","district":"Buldhana","district_code":"500","address1":"Mehkar","address2":"","latitude":"20.1505","longitude":"76.5684","accuracy":"4"},{"address3":"Loni Gaoli","state":"Maharashtra","state_code":"16","district":"Buldhana","district_code":"500","address1":"Mehkar","address2":"","latitude":"20.3254","longitude":"76.817","accuracy":"3"},{"address3":"Bhosa","state":"Maharashtra","state_code":"16","district":"Buldhana","district_code":"500","address1":"Mehkar","address2":"","latitude":"19.8663","longitude":"76.1615","accuracy":"4"},{"address3":"Somthana","state":"Maharashtra","state_code":"16","district":"Buldhana","district_code":"500","address1":"Lonar","address2":"","latitude":"20.5111","longitude":"76.4083","accuracy":"4"},{"address3":"Bramhapuri","state":"Maharashtra","state_code":"16","district":"Buldhana","district_code":"500","address1":"Mehkar","address2":"","latitude":"20.5111","longitude":"76.4083","accuracy":"4"},{"address3":"Mola","state":"Maharashtra","state_code":"16","district":"Buldhana","district_code":"500","address1":"Mehkar","address2":"","latitude":"20.3254","longitude":"76.817","accuracy":"3"},{"address3":"Anjani","state":"Maharashtra","state_code":"16","district":"Buldhana","district_code":"500","address1":"Mehkar","address2":"","latitude":"20.5111","longitude":"76.4083","accuracy":"4"},{"address3":"Ukali","state":"Maharashtra","state_code":"16","district":"Buldhana","district_code":"500","address1":"Mehkar","address2":"","latitude":"20.5111","longitude":"76.4083","accuracy":"4"},{"address3":"Antri Deshmukh","state":"Maharashtra","state_code":"16","district":"Buldhana","district_code":"500","address1":"Mehkar","address2":"","latitude":"20.3254","longitude":"76.817","accuracy":"3"},{"address3":"Ghatbori","state":"Maharashtra","state_code":"16","district":"Buldhana","district_code":"500","address1":"Mehkar","address2":"","latitude":"20.3254","longitude":"76.817","accuracy":"3"},{"address3":"Chaigaon","state":"Maharashtra","state_code":"16","district":"Buldhana","district_code":"500","address1":"Mehkar","address2":"","latitude":"20.3254","longitude":"76.817","accuracy":"3"},{"address3":"Anjani Khurd","state":"Maharashtra","state_code":"16","district":"Buldhana","district_code":"500","address1":"Lonar","address2":"","latitude":"20.5111","longitude":"76.4083","accuracy":"4"},{"address3":"Chincholi Bore","state":"Maharashtra","state_code":"16","district":"Buldhana","district_code":"500","address1":"Mehkar","address2":"","latitude":"20.3254","longitude":"76.817","accuracy":"3"},{"address3":"Deulgaon Mali","state":"Maharashtra","state_code":"16","district":"Buldhana","district_code":"500","address1":"Mehkar","address2":"","latitude":"20.3254","longitude":"76.817","accuracy":"3"},{"address3":"Deulgaon Kol","state":"Maharashtra","state_code":"16","district":"Buldhana","district_code":"500","address1":"Sindkhed Raja","address2":"","latitude":"20.3254","longitude":"76.817","accuracy":"3"},{"address3":"Sonati","state":"Maharashtra","state_code":"16","district":"Buldhana","district_code":"500","address1":"Mehkar","address2":"","latitude":"20.5111","longitude":"76.4083","accuracy":"4"},{"address3":"Hiwara BK","state":"Maharashtra","state_code":"16","district":"Buldhana","district_code":"500","address1":"Mehkar","address2":"","latitude":"20.3254","longitude":"76.817","accuracy":"3"},{"address3":"Shendla","state":"Maharashtra","state_code":"16","district":"Buldhana","district_code":"500","address1":"Mehkar","address2":"","latitude":"20.3254","longitude":"76.817","accuracy":"3"},{"address3":"Kalyana","state":"Maharashtra","state_code":"16","district":"Buldhana","district_code":"500","address1":"Mehkar","address2":"","latitude":"20.3254","longitude":"76.817","accuracy":"3"},{"address3":"Shioni Pisa","state":"Maharashtra","state_code":"16","district":"Buldhana","district_code":"500","address1":"Lonar","address2":"","latitude":"20.3254","longitude":"76.817","accuracy":"3"},{"address3":"Khalegaon","state":"Maharashtra","state_code":"16","district":"Buldhana","district_code":"500","address1":"Lonar","address2":"","latitude":"20.3254","longitude":"76.817","accuracy":"3"},{"address3":"Lawhala","state":"Maharashtra","state_code":"16","district":"Buldhana","district_code":"500","address1":"Mehkar","address2":"","latitude":"20.3254","longitude":"76.817","accuracy":"3"},{"address3":"Naigaon Duttapur","state":"Maharashtra","state_code":"16","district":"Buldhana","district_code":"500","address1":"Mehkar","address2":"","latitude":"20.3254","longitude":"76.817","accuracy":"3"},{"address3":"Pimpalgaon Unda","state":"Maharashtra","state_code":"16","district":"Buldhana","district_code":"500","address1":"Mehkar","address2":"","latitude":"20.3254","longitude":"76.817","accuracy":"3"},{"address3":"Pimpri Mali","state":"Maharashtra","state_code":"16","district":"Buldhana","district_code":"500","address1":"Mehkar","address2":"","latitude":"20.3254","longitude":"76.817","accuracy":"3"},{"address3":"Pimpri Khandare","state":"Maharashtra","state_code":"16","district":"Buldhana","district_code":"500","address1":"Lonar","address2":"","latitude":"20.3254","longitude":"76.817","accuracy":"3"}],"443302":[{"address3":"Sultanpur","state":"Maharashtra","state_code":"16","district":"Buldhana","district_code":"500","address1":"Lonar","address2":"","latitude":"20.0861","longitude":"76.5196","accuracy":"4"},{"address3":"Veni","state":"Maharashtra","state_code":"16","district":"Buldhana","district_code":"500","address1":"Loanr","address2":"","latitude":"20.5111","longitude":"76.4083","accuracy":"4"},{"address3":"Tambola","state":"Maharashtra","state_code":"16","district":"Buldhana","district_code":"500","address1":"Lonar","address2":"","latitude":"20.5111","longitude":"76.4083","accuracy":"4"},{"address3":"Pangra Dole","state":"Maharashtra","state_code":"16","district":"Buldhana","district_code":"500","address1":"Lonar","address2":"","latitude":"20.2697","longitude":"76.5175","accuracy":"3"},{"address3":"Lonar","state":"Maharashtra","state_code":"16","district":"Buldhana","district_code":"500","address1":"Lonar","address2":"","latitude":"19.9853","longitude":"76.5205","accuracy":"4"},{"address3":"Gandhari","state":"Maharashtra","state_code":"16","district":"Buldhana","district_code":"500","address1":"Lonar","address2":"","latitude":"19.8793","longitude":"76.6071","accuracy":"4"},{"address3":"Tivtivi","state":"Maharashtra","state_code":"16","district":"Buldhana","district_code":"500","address1":"Lonar","address2":"","latitude":"20.2697","longitude":"76.5175","accuracy":"3"},{"address3":"Jambhul","state":"Maharashtra","state_code":"16","district":"Buldhana","district_code":"500","address1":"Lonar","address2":"","latitude":"19.9522","longitude":"76.5833","accuracy":"4"},{"address3":"Wadgaon Tejan","state":"Maharashtra","state_code":"16","district":"Buldhana","district_code":"500","address1":"Lonar","address2":"","latitude":"20.2697","longitude":"76.5175","accuracy":"3"},{"address3":"Naigaon","state":"Maharashtra","state_code":"16","district":"Buldhana","district_code":"500","address1":"Mehkar","address2":"","latitude":"20.8256","longitude":"76.3684","accuracy":"4"},{"address3":"Nandra","state":"Maharashtra","state_code":"16","district":"Buldhana","district_code":"500","address1":"Lonar","address2":"","latitude":"19.8799","longitude":"76.5769","accuracy":"4"},{"address3":"Wadhao","state":"Maharashtra","state_code":"16","district":"Buldhana","district_code":"500","address1":"Lonar","address2":"","latitude":"20.2697","longitude":"76.5175","accuracy":"3"},{"address3":"Shara","state":"Maharashtra","state_code":"16","district":"Buldhana","district_code":"500","address1":"Lonar","address2":"","latitude":"20.2697","longitude":"76.5175","accuracy":"3"},{"address3":"Hirdao","state":"Maharashtra","state_code":"16","district":"Buldhana","district_code":"500","address1":"Lonar","address2":"","latitude":"20.2697","longitude":"76.5175","accuracy":"3"}],"443303":[{"address3":"Belgaon","state":"Maharashtra","state_code":"16","district":"Buldhana","district_code":"500","address1":"Mehkar","address2":"","latitude":"20.5111","longitude":"76.4083","accuracy":"4"},{"address3":"Aregaon","state":"Maharashtra","state_code":"16","district":"Buldhana","district_code":"500","address1":"Mehkar","address2":"","latitude":"20.5111","longitude":"76.4083","accuracy":"4"},{"address3":"Pangarkhed","state":"Maharashtra","state_code":"16","district":"Buldhana","district_code":"500","address1":"Mehkar","address2":"","latitude":"19.9119","longitude":"76.1518","accuracy":"4"},{"address3":"Gohogaon","state":"Maharashtra","state_code":"16","district":"Buldhana","district_code":"500","address1":"Mehkar","address2":"","latitude":"19.8855","longitude":"76.6538","accuracy":"3"},{"address3":"Dongaon","state":"Maharashtra","state_code":"16","district":"Buldhana","district_code":"500","address1":"Mehkar","address2":"","latitude":"20.1851","longitude":"76.7223","accuracy":"4"},{"address3":"Vishvi","state":"Maharashtra","state_code":"16","district":"Buldhana","district_code":"500","address1":"Mehkar","address2":"","latitude":"19.8855","longitude":"76.6538","accuracy":"3"},{"address3":"Shelgaon Deshmukh","state":"Maharashtra","state_code":"16","district":"Buldhana","district_code":"500","address1":"Mehkar","address2":"","latitude":"19.8855","longitude":"76.6538","accuracy":"3"}],"443304":[{"address3":"Kalambeshwar","state":"Maharashtra","state_code":"16","district":"Buldhana","district_code":"500","address1":"Mehkar","address2":"","latitude":"20.2092","longitude":"76.5445","accuracy":"3"},{"address3":"Uti","state":"Maharashtra","state_code":"16","district":"Buldhana","district_code":"500","address1":"Mehkar","address2":"","latitude":"20.5111","longitude":"76.4083","accuracy":"4"},{"address3":"Janephal","state":"Maharashtra","state_code":"16","district":"Buldhana","district_code":"500","address1":"Mehkar","address2":"","latitude":"20.2965","longitude":"76.5757","accuracy":"4"},{"address3":"Warwand","state":"Maharashtra","state_code":"16","district":"Buldhana","district_code":"500","address1":"Mehkar","address2":"","latitude":"20.5132","longitude":"76.2786","accuracy":"4"},{"address3":"Sarshiv","state":"Maharashtra","state_code":"16","district":"Buldhana","district_code":"500","address1":"Mehkar","address2":"","latitude":"20.2092","longitude":"76.5445","accuracy":"3"},{"address3":"Hiwara Khurd","state":"Maharashtra","state_code":"16","district":"Buldhana","district_code":"500","address1":"Mehkar","address2":"","latitude":"20.2092","longitude":"76.5445","accuracy":"3"},{"address3":"Deulgaon Sakharsha","state":"Maharashtra","state_code":"16","district":"Buldhana","district_code":"500","address1":"Mehkar","address2":"","latitude":"20.2092","longitude":"76.5445","accuracy":"3"}],"443308":[{"address3":"Dusarbid","state":"Maharashtra","state_code":"16","district":"Buldhana","district_code":"500","address1":"Sinkhed Raja","address2":"","latitude":"20.0077","longitude":"76.3086","accuracy":"4"},{"address3":"Sonoshi","state":"Maharashtra","state_code":"16","district":"Buldhana","district_code":"500","address1":"Sindkhed Raja","address2":"","latitude":"20.3054","longitude":"75.9612","accuracy":"3"},{"address3":"Jambhora","state":"Maharashtra","state_code":"16","district":"Buldhana","district_code":"500","address1":"Sindkhed Raja","address2":"","latitude":"20.5111","longitude":"76.4083","accuracy":"4"},{"address3":"Changephal","state":"Maharashtra","state_code":"16","district":"Buldhana","district_code":"500","address1":"Sindkhed Raja","address2":"","latitude":"19.9162","longitude":"76.3442","accuracy":"4"},{"address3":"Raheri BK","state":"Maharashtra","state_code":"16","district":"Buldhana","district_code":"500","address1":"Sindkhed Raja","address2":"","latitude":"20.3054","longitude":"75.9612","accuracy":"3"},{"address3":"Wardadi BK","state":"Maharashtra","state_code":"16","district":"Buldhana","district_code":"500","address1":"Sindkhed Raja","address2":"","latitude":"20.3054","longitude":"75.9612","accuracy":"3"},{"address3":"Tadshioni","state":"Maharashtra","state_code":"16","district":"Buldhana","district_code":"500","address1":"Sindkhed Raja","address2":"","latitude":"20.3054","longitude":"75.9612","accuracy":"3"}],"443401":[{"address3":"Dighi","state":"Maharashtra","state_code":"16","district":"Buldhana","district_code":"500","address1":"Malkapur","address2":"","latitude":"20.8638","longitude":"76.3342","accuracy":"4"},{"address3":"Mominabad","state":"Maharashtra","state_code":"16","district":"Buldhana","district_code":"500","address1":"Nandura","address2":"","latitude":"20.9181","longitude":"76.3192","accuracy":"4"},{"address3":"Chandur Biswa","state":"Maharashtra","state_code":"16","district":"Buldhana","district_code":"500","address1":"Nandura","address2":"","latitude":"20.9061","longitude":"76.3465","accuracy":"3"},{"address3":"Jigaon","state":"Maharashtra","state_code":"16","district":"Buldhana","district_code":"500","address1":"Nandura","address2":"","latitude":"20.9365","longitude":"76.3863","accuracy":"4"},{"address3":"Mamulwadi","state":"Maharashtra","state_code":"16","district":"Buldhana","district_code":"500","address1":"Nandura","address2":"","latitude":"20.9061","longitude":"76.3465","accuracy":"3"},{"address3":"Dhanora Vitali","state":"Maharashtra","state_code":"16","district":"Buldhana","district_code":"500","address1":"Nandura","address2":"","latitude":"20.9061","longitude":"76.3465","accuracy":"3"}],"443402":[{"address3":"Sungaon","state":"Maharashtra","state_code":"16","district":"Buldhana","district_code":"500","address1":"NA","address2":"","latitude":"20.9669","longitude":"76.4388","accuracy":"3"},{"address3":"Chaora","state":"Maharashtra","state_code":"16","district":"Buldhana","district_code":"500","address1":"Jalgaon","address2":"","latitude":"20.9669","longitude":"76.4388","accuracy":"3"},{"address3":"Rudhana","state":"Maharashtra","state_code":"16","district":"Buldhana","district_code":"500","address1":"Sangrampur","address2":"","latitude":"20.9669","longitude":"76.4388","accuracy":"3"},{"address3":"Bhenwad","state":"Maharashtra","state_code":"16","district":"Buldhana","district_code":"500","address1":"Jalgaon","address2":"","latitude":"20.9669","longitude":"76.4388","accuracy":"3"},{"address3":"Madakhed","state":"Maharashtra","state_code":"16","district":"Buldhana","district_code":"500","address1":"Jalgaon","address2":"","latitude":"20.9766","longitude":"76.5877","accuracy":"4"},{"address3":"Asalgaon","state":"Maharashtra","state_code":"16","district":"Buldhana","district_code":"500","address1":"Jalgaon","address2":"","latitude":"20.9669","longitude":"76.4388","accuracy":"3"},{"address3":"Sawargaon","state":"Maharashtra","state_code":"16","district":"Buldhana","district_code":"500","address1":"Jalgaon","address2":"","latitude":"20.7966","longitude":"76.1342","accuracy":"4"},{"address3":"Jamod","state":"Maharashtra","state_code":"16","district":"Buldhana","district_code":"500","address1":"Jalgaon (Jamod)","address2":"","latitude":"21.1078","longitude":"76.6072","accuracy":"4"},{"address3":"Niwana","state":"Maharashtra","state_code":"16","district":"Buldhana","district_code":"500","address1":"NA","address2":"","latitude":"20.9669","longitude":"76.4388","accuracy":"3"},{"address3":"Wadshingi","state":"Maharashtra","state_code":"16","district":"Buldhana","district_code":"500","address1":"NA","address2":"","latitude":"20.9669","longitude":"76.4388","accuracy":"3"},{"address3":"Kherda","state":"Maharashtra","state_code":"16","district":"Buldhana","district_code":"500","address1":"Jalgaon","address2":"","latitude":"20.9017","longitude":"76.3301","accuracy":"4"},{"address3":"Jalgaon","state":"Maharashtra","state_code":"16","district":"Buldhana","district_code":"500","address1":"Jalgaon","address2":"","latitude":"21.0519","longitude":"76.5346","accuracy":"4"}],"443403":[{"address3":"Pimpalgaon Kale","state":"Maharashtra","state_code":"16","district":"Buldhana","district_code":"500","address1":"Jalgaon","address2":"","latitude":"20.9449","longitude":"76.4253","accuracy":"3"},{"address3":"Palsi Supo","state":"Maharashtra","state_code":"16","district":"Buldhana","district_code":"500","address1":"Khamgaon","address2":"","latitude":"20.9449","longitude":"76.4253","accuracy":"3"},{"address3":"Khandvi","state":"Maharashtra","state_code":"16","district":"Buldhana","district_code":"500","address1":"Khamgaon","address2":"","latitude":"20.9449","longitude":"76.4253","accuracy":"3"},{"address3":"Dadulgaon","state":"Maharashtra","state_code":"16","district":"Buldhana","district_code":"500","address1":"Khamgoan","address2":"","latitude":"20.9449","longitude":"76.4253","accuracy":"4"},{"address3":"Adol BK","state":"Maharashtra","state_code":"16","district":"Buldhana","district_code":"500","address1":"Khamgaon","address2":"","latitude":"20.9449","longitude":"76.4253","accuracy":"3"},{"address3":"Dhanora Mahasidha","state":"Maharashtra","state_code":"16","district":"Buldhana","district_code":"500","address1":"Khamgaon","address2":"","latitude":"20.9449","longitude":"76.4253","accuracy":"3"},{"address3":"Gadegaon Khurd","state":"Maharashtra","state_code":"16","district":"Buldhana","district_code":"500","address1":"Khamgaon","address2":"","latitude":"20.9449","longitude":"76.4253","accuracy":"3"}],"443404":[{"address3":"Narkhed","state":"Maharashtra","state_code":"16","district":"Buldhana","district_code":"500","address1":"Nandura","address2":"","latitude":"20.5111","longitude":"76.4083","accuracy":"3"},{"address3":"Nandura","state":"Maharashtra","state_code":"16","district":"Buldhana","district_code":"500","address1":"Nandura","address2":"","latitude":"20.8342","longitude":"76.4592","accuracy":"4"},{"address3":"Bhota","state":"Maharashtra","state_code":"16","district":"Buldhana","district_code":"500","address1":"Shegaon","address2":"","latitude":"20.5111","longitude":"76.4083","accuracy":"4"},{"address3":"Malegaon","state":"Maharashtra","state_code":"16","district":"Buldhana","district_code":"500","address1":"Nandura","address2":"","latitude":"20.7871","longitude":"76.4284","accuracy":"4"},{"address3":"Bhajisath Nandura","state":"Maharashtra","state_code":"16","district":"Buldhana","district_code":"500","address1":"Nandura","address2":"","latitude":"20.8129","longitude":"76.3725","accuracy":"3"},{"address3":"Nandura Town","state":"Maharashtra","state_code":"16","district":"Buldhana","district_code":"500","address1":"Nandura","address2":"","latitude":"20.8129","longitude":"76.3725","accuracy":"3"},{"address3":"Naigaon","state":"Maharashtra","state_code":"16","district":"Buldhana","district_code":"500","address1":"Nandura","address2":"","latitude":"20.8256","longitude":"76.3684","accuracy":"4"},{"address3":"Wasadi BK","state":"Maharashtra","state_code":"16","district":"Buldhana","district_code":"500","address1":"Nandura","address2":"","latitude":"20.8129","longitude":"76.3725","accuracy":"3"},{"address3":"Khumgaon","state":"Maharashtra","state_code":"16","district":"Buldhana","district_code":"500","address1":"Nandura","address2":"","latitude":"20.8647","longitude":"76.395","accuracy":"4"},{"address3":"Wadi","state":"Maharashtra","state_code":"16","district":"Buldhana","district_code":"500","address1":"Nandura","address2":"","latitude":"20.3307","longitude":"75.9858","accuracy":"4"},{"address3":"Shelgaon Mukund","state":"Maharashtra","state_code":"16","district":"Buldhana","district_code":"500","address1":"Nandura","address2":"","latitude":"20.8129","longitude":"76.3725","accuracy":"3"},{"address3":"Alampur","state":"Maharashtra","state_code":"16","district":"Buldhana","district_code":"500","address1":"Nandura","address2":"","latitude":"20.8989","longitude":"76.4349","accuracy":"4"},{"address3":"Dahigaon M","state":"Maharashtra","state_code":"16","district":"Buldhana","district_code":"500","address1":"Nandura","address2":"","latitude":"20.8129","longitude":"76.3725","accuracy":"3"},{"address3":"Nimgaon","state":"Maharashtra","state_code":"16","district":"Buldhana","district_code":"500","address1":"Nandura","address2":"","latitude":"20.865","longitude":"76.48","accuracy":"4"},{"address3":"Yerli","state":"Maharashtra","state_code":"16","district":"Buldhana","district_code":"500","address1":"Nanadura","address2":"","latitude":"20.9279","longitude":"76.4767","accuracy":"4"}],"credits":[{"name":"geonames","url":"https://www.geonames.org"}],"last_update":"2019-03-01T09:01:31.344Z"}