{"444001":[{"address3":"Ranpisenagar Akola","state":"Maharashtra","state_code":"16","district":"Akola","district_code":"501","address1":"Akola","address2":"","latitude":"20.4534","longitude":"77.5627","accuracy":"1"},{"address3":"Akola H.O","state":"Maharashtra","state_code":"16","district":"Akola","district_code":"501","address1":"Akola","address2":"","latitude":"20.4534","longitude":"77.5627","accuracy":"1"},{"address3":"Ramdaspeth Akola","state":"Maharashtra","state_code":"16","district":"Akola","district_code":"501","address1":"Akola","address2":"","latitude":"20.4534","longitude":"77.5627","accuracy":"1"}],"444002":[{"address3":"Rpts Akola","state":"Maharashtra","state_code":"16","district":"Akola","district_code":"501","address1":"Akola","address2":"","latitude":"20.4534","longitude":"77.5627","accuracy":"1"},{"address3":"Akola City","state":"Maharashtra","state_code":"16","district":"Akola","district_code":"501","address1":"Akola","address2":"","latitude":"20.4534","longitude":"77.5627","accuracy":"1"},{"address3":"Bhurad","state":"Maharashtra","state_code":"16","district":"Akola","district_code":"501","address1":"NA","address2":"","latitude":"20.4534","longitude":"77.5627","accuracy":"1"},{"address3":"Gajanan Nagar","state":"Maharashtra","state_code":"16","district":"Akola","district_code":"501","address1":"NA","address2":"","latitude":"20.4534","longitude":"77.5627","accuracy":"1"}],"444003":[{"address3":"Ghusar","state":"Maharashtra","state_code":"16","district":"Akola","district_code":"501","address1":"Akola","address2":"","latitude":"20.7718","longitude":"77.0561","accuracy":"4"},{"address3":"Mhaisang","state":"Maharashtra","state_code":"16","district":"Akola","district_code":"501","address1":"Akola","address2":"","latitude":"20.8504","longitude":"77.1918","accuracy":"4"},{"address3":"Shivaji Park Akola","state":"Maharashtra","state_code":"16","district":"Akola","district_code":"501","address1":"Akola","address2":"","latitude":"20.2629","longitude":"77.201","accuracy":"3"},{"address3":"Wadad","state":"Maharashtra","state_code":"16","district":"Akola","district_code":"501","address1":"Akola","address2":"","latitude":"20.7489","longitude":"77.0533","accuracy":"4"},{"address3":"Donwada","state":"Maharashtra","state_code":"16","district":"Akola","district_code":"501","address1":"Akola","address2":"","latitude":"20.7489","longitude":"77.0533","accuracy":"4"},{"address3":"Mathodi","state":"Maharashtra","state_code":"16","district":"Akola","district_code":"501","address1":"Akola","address2":"","latitude":"20.2629","longitude":"77.201","accuracy":"3"},{"address3":"Dapura","state":"Maharashtra","state_code":"16","district":"Akola","district_code":"501","address1":"Akola","address2":"","latitude":"20.8153","longitude":"77.157","accuracy":"4"},{"address3":"Apoti","state":"Maharashtra","state_code":"16","district":"Akola","district_code":"501","address1":"Akola","address2":"","latitude":"20.2629","longitude":"77.201","accuracy":"3"}],"444004":[{"address3":"Kaulkhed","state":"Maharashtra","state_code":"16","district":"Akola","district_code":"501","address1":"Akola","address2":"","latitude":"20.7784","longitude":"77.2566","accuracy":"4"},{"address3":"Gandhinagar (Akola)","state":"Maharashtra","state_code":"16","district":"Akola","district_code":"501","address1":"Akola","address2":"","latitude":"20.7465","longitude":"77.5793","accuracy":"3"},{"address3":"Malkapur","state":"Maharashtra","state_code":"16","district":"Washim","district_code":"502","address1":"NA","address2":"","latitude":"20.2376","longitude":"77.219","accuracy":"4"},{"address3":"Chandur","state":"Maharashtra","state_code":"16","district":"Washim","district_code":"502","address1":"NA","address2":"","latitude":"20.2376","longitude":"77.219","accuracy":"4"}],"444005":[{"address3":"Umari","state":"Maharashtra","state_code":"16","district":"Akola","district_code":"501","address1":"NA","address2":"","latitude":"20.7489","longitude":"77.0533","accuracy":"4"},{"address3":"Jatherpeth Akola","state":"Maharashtra","state_code":"16","district":"Akola","district_code":"501","address1":"Akola","address2":"","latitude":"20.4994","longitude":"78.894","accuracy":"3"},{"address3":"Gudadhi","state":"Maharashtra","state_code":"16","district":"Akola","district_code":"501","address1":"NA","address2":"","latitude":"20.4994","longitude":"78.894","accuracy":"3"}],"444006":[{"address3":"Agar","state":"Maharashtra","state_code":"16","district":"Akola","district_code":"501","address1":"NA","address2":"","latitude":"20.7489","longitude":"77.0533","accuracy":"4"},{"address3":"Sindkhed","state":"Maharashtra","state_code":"16","district":"Akola","district_code":"501","address1":"NA","address2":"","latitude":"20.5785","longitude":"77.0095","accuracy":"4"},{"address3":"Nimbhora","state":"Maharashtra","state_code":"16","district":"Akola","district_code":"501","address1":"NA","address2":"","latitude":"20.5192","longitude":"77.1646","accuracy":"4"},{"address3":"Khambora","state":"Maharashtra","state_code":"16","district":"Akola","district_code":"501","address1":"NA","address2":"","latitude":"20.6044","longitude":"77.2075","accuracy":"4"},{"address3":"Tajnapeth Akola","state":"Maharashtra","state_code":"16","district":"Akola","district_code":"501","address1":"Akola","address2":"","latitude":"20.4565","longitude":"77.6103","accuracy":"3"},{"address3":"Kapsi","state":"Maharashtra","state_code":"16","district":"Akola","district_code":"501","address1":"NA","address2":"","latitude":"20.7489","longitude":"77.0533","accuracy":"4"},{"address3":"Gandhigram","state":"Maharashtra","state_code":"16","district":"Akola","district_code":"501","address1":"NA","address2":"","latitude":"20.4565","longitude":"77.6103","accuracy":"3"},{"address3":"Mhaispur","state":"Maharashtra","state_code":"16","district":"Akola","district_code":"501","address1":"NA","address2":"","latitude":"20.6137","longitude":"77.0107","accuracy":"4"},{"address3":"Goregaon KD","state":"Maharashtra","state_code":"16","district":"Akola","district_code":"501","address1":"NA","address2":"","latitude":"20.4565","longitude":"77.6103","accuracy":"3"},{"address3":"Chikhalgaon","state":"Maharashtra","state_code":"16","district":"Akola","district_code":"501","address1":"NA","address2":"","latitude":"20.7489","longitude":"77.0533","accuracy":"4"},{"address3":"Sangvi Kd","state":"Maharashtra","state_code":"16","district":"Akola","district_code":"501","address1":"NA","address2":"","latitude":"20.4565","longitude":"77.6103","accuracy":"3"},{"address3":"Patkhed","state":"Maharashtra","state_code":"16","district":"Akola","district_code":"501","address1":"NA","address2":"","latitude":"20.5321","longitude":"77.0308","accuracy":"4"},{"address3":"Sukoda","state":"Maharashtra","state_code":"16","district":"Akola","district_code":"501","address1":"NA","address2":"","latitude":"20.4565","longitude":"77.6103","accuracy":"3"},{"address3":"Rajanda","state":"Maharashtra","state_code":"16","district":"Akola","district_code":"501","address1":"NA","address2":"","latitude":"20.5542","longitude":"77.0045","accuracy":"4"},{"address3":"Ugawa","state":"Maharashtra","state_code":"16","district":"Akola","district_code":"501","address1":"NA","address2":"","latitude":"20.4565","longitude":"77.6103","accuracy":"3"},{"address3":"Wairat Rajapur","state":"Maharashtra","state_code":"16","district":"Akola","district_code":"501","address1":"NA","address2":"","latitude":"20.4565","longitude":"77.6103","accuracy":"3"},{"address3":"Nimbi Malokar","state":"Maharashtra","state_code":"16","district":"Akola","district_code":"501","address1":"NA","address2":"","latitude":"20.4565","longitude":"77.6103","accuracy":"3"},{"address3":"Mazod","state":"Maharashtra","state_code":"16","district":"Akola","district_code":"501","address1":"NA","address2":"","latitude":"20.4565","longitude":"77.6103","accuracy":"3"},{"address3":"Lonagra","state":"Maharashtra","state_code":"16","district":"Akola","district_code":"501","address1":"NA","address2":"","latitude":"20.4565","longitude":"77.6103","accuracy":"3"}],"444101":[{"address3":"Khirkund","state":"Maharashtra","state_code":"16","district":"Akola","district_code":"501","address1":"NA","address2":"","latitude":"21.2315","longitude":"77.1669","accuracy":"4"},{"address3":"Panaj","state":"Maharashtra","state_code":"16","district":"Akola","district_code":"501","address1":"NA","address2":"","latitude":"21.142","longitude":"77.1376","accuracy":"4"},{"address3":"Kalwadi","state":"Maharashtra","state_code":"16","district":"Akola","district_code":"501","address1":"NA","address2":"","latitude":"21.0563","longitude":"77.0678","accuracy":"4"},{"address3":"Vadali Deshmukh","state":"Maharashtra","state_code":"16","district":"Akola","district_code":"501","address1":"NA","address2":"","latitude":"21.0915","longitude":"77.0904","accuracy":"3"},{"address3":"Ruikhed","state":"Maharashtra","state_code":"16","district":"Akola","district_code":"501","address1":"NA","address2":"","latitude":"21.1823","longitude":"77.1531","accuracy":"4"},{"address3":"Popatkheda","state":"Maharashtra","state_code":"16","district":"Akola","district_code":"501","address1":"NA","address2":"","latitude":"21.0915","longitude":"77.0904","accuracy":"3"},{"address3":"Akot","state":"Maharashtra","state_code":"16","district":"Akola","district_code":"501","address1":"Akot","address2":"","latitude":"21.0963","longitude":"77.0588","accuracy":"4"},{"address3":"Danori Panori","state":"Maharashtra","state_code":"16","district":"Akola","district_code":"501","address1":"NA","address2":"","latitude":"21.0915","longitude":"77.0904","accuracy":"3"},{"address3":"Punda","state":"Maharashtra","state_code":"16","district":"Akola","district_code":"501","address1":"NA","address2":"","latitude":"21.0161","longitude":"77.1499","accuracy":"4"},{"address3":"Chohatta","state":"Maharashtra","state_code":"16","district":"Akola","district_code":"501","address1":"Akola","address2":"","latitude":"21.0915","longitude":"77.0904","accuracy":"3"},{"address3":"Bordi","state":"Maharashtra","state_code":"16","district":"Akola","district_code":"501","address1":"NA","address2":"","latitude":"21.1524","longitude":"77.0313","accuracy":"4"},{"address3":"Warudjaula","state":"Maharashtra","state_code":"16","district":"Akola","district_code":"501","address1":"NA","address2":"","latitude":"21.0915","longitude":"77.0904","accuracy":"3"},{"address3":"Palsod","state":"Maharashtra","state_code":"16","district":"Akola","district_code":"501","address1":"NA","address2":"","latitude":"20.9531","longitude":"77.0074","accuracy":"4"},{"address3":"Umara","state":"Maharashtra","state_code":"16","district":"Akola","district_code":"501","address1":"NA","address2":"","latitude":"21.0915","longitude":"77.0904","accuracy":"3"},{"address3":"Kutasa","state":"Maharashtra","state_code":"16","district":"Akola","district_code":"501","address1":"NA","address2":"","latitude":"20.9478","longitude":"77.1101","accuracy":"4"},{"address3":"Assegaon Bazar","state":"Maharashtra","state_code":"16","district":"Akola","district_code":"501","address1":"NA","address2":"","latitude":"21.0915","longitude":"77.0904","accuracy":"3"},{"address3":"Deori","state":"Maharashtra","state_code":"16","district":"Akola","district_code":"501","address1":"NA","address2":"","latitude":"21.0033","longitude":"77.0138","accuracy":"4"},{"address3":"Akot Kut","state":"Maharashtra","state_code":"16","district":"Akola","district_code":"501","address1":"Akola","address2":"","latitude":"21.0915","longitude":"77.0904","accuracy":"3"},{"address3":"Chandikapur","state":"Maharashtra","state_code":"16","district":"Akola","district_code":"501","address1":"NA","address2":"","latitude":"21.1179","longitude":"77.1184","accuracy":"4"},{"address3":"Akoli Jahangir","state":"Maharashtra","state_code":"16","district":"Akola","district_code":"501","address1":"NA","address2":"","latitude":"21.0915","longitude":"77.0904","accuracy":"3"},{"address3":"Akolkhed","state":"Maharashtra","state_code":"16","district":"Akola","district_code":"501","address1":"NA","address2":"","latitude":"21.1506","longitude":"77.092","accuracy":"4"},{"address3":"Kawasa","state":"Maharashtra","state_code":"16","district":"Akola","district_code":"501","address1":"NA","address2":"","latitude":"21.0915","longitude":"77.0904","accuracy":"3"},{"address3":"Mohala","state":"Maharashtra","state_code":"16","district":"Akola","district_code":"501","address1":"NA","address2":"","latitude":"21.1402","longitude":"77.0681","accuracy":"4"},{"address3":"Sawara","state":"Maharashtra","state_code":"16","district":"Akola","district_code":"501","address1":"NA","address2":"","latitude":"21.0915","longitude":"77.0904","accuracy":"3"}],"444102":[{"address3":"Kaulkhed","state":"Maharashtra","state_code":"16","district":"Akola","district_code":"501","address1":"NA","address2":"","latitude":"20.7784","longitude":"77.2566","accuracy":"4"},{"address3":"Deoli","state":"Maharashtra","state_code":"16","district":"Akola","district_code":"501","address1":"NA","address2":"","latitude":"20.7489","longitude":"77.0533","accuracy":"4"},{"address3":"Goregaon","state":"Maharashtra","state_code":"16","district":"Akola","district_code":"501","address1":"NA","address2":"","latitude":"20.7305","longitude":"77.2909","accuracy":"4"},{"address3":"Anvi","state":"Maharashtra","state_code":"16","district":"Akola","district_code":"501","address1":"NA","address2":"","latitude":"20.7338","longitude":"77.1934","accuracy":"4"},{"address3":"Palso Badhe","state":"Maharashtra","state_code":"16","district":"Akola","district_code":"501","address1":"NA","address2":"","latitude":"20.7215","longitude":"77.3318","accuracy":"3"},{"address3":"Dahigaon","state":"Maharashtra","state_code":"16","district":"Akola","district_code":"501","address1":"NA","address2":"","latitude":"20.7639","longitude":"77.1946","accuracy":"4"},{"address3":"Borgaon Manju","state":"Maharashtra","state_code":"16","district":"Akola","district_code":"501","address1":"Akola","address2":"","latitude":"20.7214","longitude":"77.1528","accuracy":"4"},{"address3":"Jambha","state":"Maharashtra","state_code":"16","district":"Akola","district_code":"501","address1":"NA","address2":"","latitude":"20.7215","longitude":"77.3318","accuracy":"3"},{"address3":"Kolambi","state":"Maharashtra","state_code":"16","district":"Akola","district_code":"501","address1":"NA","address2":"","latitude":"20.6886","longitude":"77.2742","accuracy":"4"},{"address3":"Sanglood","state":"Maharashtra","state_code":"16","district":"Akola","district_code":"501","address1":"NA","address2":"","latitude":"20.7215","longitude":"77.3318","accuracy":"3"},{"address3":"Kurankhed","state":"Maharashtra","state_code":"16","district":"Akola","district_code":"501","address1":"NA","address2":"","latitude":"20.7067","longitude":"77.2474","accuracy":"4"},{"address3":"Kanshoni","state":"Maharashtra","state_code":"16","district":"Akola","district_code":"501","address1":"NA","address2":"","latitude":"20.7215","longitude":"77.3318","accuracy":"3"},{"address3":"Nipana","state":"Maharashtra","state_code":"16","district":"Akola","district_code":"501","address1":"NA","address2":"","latitude":"20.6923","longitude":"77.181","accuracy":"4"},{"address3":"Morgaon Kakad","state":"Maharashtra","state_code":"16","district":"Akola","district_code":"501","address1":"NA","address2":"","latitude":"20.7215","longitude":"77.3318","accuracy":"3"},{"address3":"Pailpada","state":"Maharashtra","state_code":"16","district":"Akola","district_code":"501","address1":"NA","address2":"","latitude":"20.7121","longitude":"77.2388","accuracy":"4"},{"address3":"Dhotardi","state":"Maharashtra","state_code":"16","district":"Akola","district_code":"501","address1":"NA","address2":"","latitude":"20.7593","longitude":"77.1393","accuracy":"4"}],"444103":[{"address3":"Wari","state":"Maharashtra","state_code":"16","district":"Akola","district_code":"501","address1":"NA","address2":"","latitude":"20.7489","longitude":"77.0533","accuracy":"4"},{"address3":"Hiverkhed Ruprao","state":"Maharashtra","state_code":"16","district":"Akola","district_code":"501","address1":"Telhara","address2":"","latitude":"20.7151","longitude":"76.8959","accuracy":"3"},{"address3":"Khandala","state":"Maharashtra","state_code":"16","district":"Akola","district_code":"501","address1":"NA","address2":"","latitude":"20.5952","longitude":"77.395","accuracy":"4"},{"address3":"Talegaon Bazar","state":"Maharashtra","state_code":"16","district":"Akola","district_code":"501","address1":"NA","address2":"","latitude":"20.7151","longitude":"76.8959","accuracy":"3"},{"address3":"Saundala","state":"Maharashtra","state_code":"16","district":"Akola","district_code":"501","address1":"NA","address2":"","latitude":"20.7151","longitude":"76.8959","accuracy":"3"},{"address3":"Hingani KD","state":"Maharashtra","state_code":"16","district":"Akola","district_code":"501","address1":"NA","address2":"","latitude":"20.7151","longitude":"76.8959","accuracy":"3"},{"address3":"Chittalwadi","state":"Maharashtra","state_code":"16","district":"Akola","district_code":"501","address1":"NA","address2":"","latitude":"20.7151","longitude":"76.8959","accuracy":"3"}],"444104":[{"address3":"Dongargaon","state":"Maharashtra","state_code":"16","district":"Akola","district_code":"501","address1":"Akola","address2":"","latitude":"20.696","longitude":"77.0981","accuracy":"4"},{"address3":"Midc Shivar","state":"Maharashtra","state_code":"16","district":"Akola","district_code":"501","address1":"Akola","address2":"","latitude":"20.696","longitude":"77.0981","accuracy":"3"},{"address3":"Babhulgaon Jahangir","state":"Maharashtra","state_code":"16","district":"Akola","district_code":"501","address1":"Akola","address2":"","latitude":"20.696","longitude":"77.0981","accuracy":"3"},{"address3":"Krishinagar Akola","state":"Maharashtra","state_code":"16","district":"Akola","district_code":"501","address1":"Akola","address2":"","latitude":"20.696","longitude":"77.0981","accuracy":"3"},{"address3":"Shoni","state":"Maharashtra","state_code":"16","district":"Akola","district_code":"501","address1":"Akola","address2":"","latitude":"20.696","longitude":"77.0981","accuracy":"3"}],"444105":[{"address3":"Manabha","state":"Maharashtra","state_code":"16","district":"Washim","district_code":"502","address1":"NA","address2":"","latitude":"20.5322","longitude":"77.2439","accuracy":"3"},{"address3":"Sukali","state":"Maharashtra","state_code":"16","district":"Washim","district_code":"502","address1":"NA","address2":"","latitude":"20.2376","longitude":"77.219","accuracy":"4"},{"address3":"Yeota","state":"Maharashtra","state_code":"16","district":"Washim","district_code":"502","address1":"NA","address2":"","latitude":"20.2376","longitude":"77.219","accuracy":"4"},{"address3":"Poha","state":"Maharashtra","state_code":"16","district":"Washim","district_code":"502","address1":"NA","address2":"","latitude":"20.4966","longitude":"77.4084","accuracy":"4"},{"address3":"Karanja (Washim)","state":"Maharashtra","state_code":"16","district":"Washim","district_code":"502","address1":"Washim","address2":"","latitude":"20.4827","longitude":"77.4886","accuracy":"4"},{"address3":"Shaha","state":"Maharashtra","state_code":"16","district":"Washim","district_code":"502","address1":"NA","address2":"","latitude":"20.5291","longitude":"77.4711","accuracy":"4"},{"address3":"Yawardi","state":"Maharashtra","state_code":"16","district":"Washim","district_code":"502","address1":"NA","address2":"","latitude":"20.5322","longitude":"77.2439","accuracy":"3"},{"address3":"Loni Arab","state":"Maharashtra","state_code":"16","district":"Washim","district_code":"502","address1":"NA","address2":"","latitude":"20.5724","longitude":"77.5966","accuracy":"4"},{"address3":"Jamb","state":"Maharashtra","state_code":"16","district":"Washim","district_code":"502","address1":"NA","address2":"","latitude":"20.4785","longitude":"77.5408","accuracy":"4"},{"address3":"Zodga","state":"Maharashtra","state_code":"16","district":"Washim","district_code":"502","address1":"NA","address2":"","latitude":"20.5322","longitude":"77.2439","accuracy":"3"},{"address3":"Wai","state":"Maharashtra","state_code":"16","district":"Washim","district_code":"502","address1":"NA","address2":"","latitude":"19.9688","longitude":"77.2445","accuracy":"4"},{"address3":"Umbarda Bazar","state":"Maharashtra","state_code":"16","district":"Washim","district_code":"502","address1":"Washim","address2":"","latitude":"20.5322","longitude":"77.2439","accuracy":"3"},{"address3":"Gurumandir Karanja","state":"Maharashtra","state_code":"16","district":"Washim","district_code":"502","address1":"Washim","address2":"","latitude":"20.5322","longitude":"77.2439","accuracy":"3"},{"address3":"Kherda","state":"Maharashtra","state_code":"16","district":"Washim","district_code":"502","address1":"NA","address2":"","latitude":"20.5322","longitude":"77.2439","accuracy":"3"}],"444106":[{"address3":"Pohi","state":"Maharashtra","state_code":"16","district":"Akola","district_code":"501","address1":"Akola","address2":"","latitude":"20.7965","longitude":"77.4868","accuracy":"4"},{"address3":"Mana","state":"Maharashtra","state_code":"16","district":"Akola","district_code":"501","address1":"Akola","address2":"","latitude":"20.7489","longitude":"77.0533","accuracy":"4"},{"address3":"Ramtek","state":"Maharashtra","state_code":"16","district":"Akola","district_code":"501","address1":"Akola","address2":"","latitude":"20.7805","longitude":"77.529","accuracy":"4"},{"address3":"Hivara Mana","state":"Maharashtra","state_code":"16","district":"Akola","district_code":"501","address1":"Akola","address2":"","latitude":"20.6196","longitude":"77.8876","accuracy":"3"},{"address3":"Bapori","state":"Maharashtra","state_code":"16","district":"Akola","district_code":"501","address1":"Akola","address2":"","latitude":"20.821","longitude":"77.536","accuracy":"4"},{"address3":"Shelubazar Mana","state":"Maharashtra","state_code":"16","district":"Akola","district_code":"501","address1":"Akola","address2":"","latitude":"20.6196","longitude":"77.8876","accuracy":"3"},{"address3":"Madhapuri","state":"Maharashtra","state_code":"16","district":"Akola","district_code":"501","address1":"Akola","address2":"","latitude":"20.7886","longitude":"77.5879","accuracy":"4"},{"address3":"Bramhi","state":"Maharashtra","state_code":"16","district":"Akola","district_code":"501","address1":"Akola","address2":"","latitude":"20.6196","longitude":"77.8876","accuracy":"3"},{"address3":"Borta","state":"Maharashtra","state_code":"16","district":"Akola","district_code":"501","address1":"Akola","address2":"","latitude":"20.6196","longitude":"77.8876","accuracy":"3"},{"address3":"Jampthi","state":"Maharashtra","state_code":"16","district":"Akola","district_code":"501","address1":"Akola","address2":"","latitude":"20.6196","longitude":"77.8876","accuracy":"3"},{"address3":"Rajnapur Kinkinhi","state":"Maharashtra","state_code":"16","district":"Akola","district_code":"501","address1":"Akola","address2":"","latitude":"20.6196","longitude":"77.8876","accuracy":"3"},{"address3":"Kurum","state":"Maharashtra","state_code":"16","district":"Washim","district_code":"502","address1":"Washim","address2":"","latitude":"20.6196","longitude":"77.8876","accuracy":"3"}],"444107":[{"address3":"Kinkhed","state":"Maharashtra","state_code":"16","district":"Akola","district_code":"501","address1":"Akola","address2":"","latitude":"20.4653","longitude":"77.3326","accuracy":"4"},{"address3":"Nimbha","state":"Maharashtra","state_code":"16","district":"Akola","district_code":"501","address1":"Akola","address2":"","latitude":"20.6336","longitude":"77.372","accuracy":"4"},{"address3":"Kanadi","state":"Maharashtra","state_code":"16","district":"Akola","district_code":"501","address1":"Akola","address2":"","latitude":"20.6028","longitude":"77.3254","accuracy":"4"},{"address3":"Sirso","state":"Maharashtra","state_code":"16","district":"Akola","district_code":"501","address1":"Akola","address2":"","latitude":"20.7319","longitude":"77.4279","accuracy":"3"},{"address3":"Hirpur","state":"Maharashtra","state_code":"16","district":"Akola","district_code":"501","address1":"Akola","address2":"","latitude":"20.7674","longitude":"77.402","accuracy":"4"},{"address3":"Durgwada","state":"Maharashtra","state_code":"16","district":"Akola","district_code":"501","address1":"Akola","address2":"","latitude":"20.7489","longitude":"77.0533","accuracy":"4"},{"address3":"Kherda Vilegaon","state":"Maharashtra","state_code":"16","district":"Akola","district_code":"501","address1":"Akola","address2":"","latitude":"20.7319","longitude":"77.4279","accuracy":"3"},{"address3":"Sonori","state":"Maharashtra","state_code":"16","district":"Akola","district_code":"501","address1":"Akola","address2":"","latitude":"20.8185","longitude":"77.5247","accuracy":"4"},{"address3":"Kajaleshwar","state":"Maharashtra","state_code":"16","district":"Akola","district_code":"501","address1":"Akola","address2":"","latitude":"20.7319","longitude":"77.4279","accuracy":"3"},{"address3":"Anbhora","state":"Maharashtra","state_code":"16","district":"Akola","district_code":"501","address1":"Akola","address2":"","latitude":"20.7028","longitude":"77.3218","accuracy":"4"},{"address3":"Ghungshi","state":"Maharashtra","state_code":"16","district":"Akola","district_code":"501","address1":"Akola","address2":"","latitude":"20.7319","longitude":"77.4279","accuracy":"3"},{"address3":"Hatgaon","state":"Maharashtra","state_code":"16","district":"Akola","district_code":"501","address1":"Akola","address2":"","latitude":"20.709","longitude":"77.388","accuracy":"4"},{"address3":"Wai Pargane Mana","state":"Maharashtra","state_code":"16","district":"Akola","district_code":"501","address1":"Akola","address2":"","latitude":"20.7319","longitude":"77.4279","accuracy":"3"},{"address3":"Lakhpuri","state":"Maharashtra","state_code":"16","district":"Akola","district_code":"501","address1":"Akola","address2":"","latitude":"20.8435","longitude":"77.3599","accuracy":"4"},{"address3":"Mangrul Kambe","state":"Maharashtra","state_code":"16","district":"Akola","district_code":"501","address1":"Akola","address2":"","latitude":"20.7319","longitude":"77.4279","accuracy":"3"},{"address3":"Ghota","state":"Maharashtra","state_code":"16","district":"Akola","district_code":"501","address1":"Akola","address2":"","latitude":"20.5675","longitude":"77.3285","accuracy":"4"},{"address3":"Kanzara","state":"Maharashtra","state_code":"16","district":"Akola","district_code":"501","address1":"NA","address2":"","latitude":"20.7319","longitude":"77.4279","accuracy":"3"},{"address3":"Bhatori","state":"Maharashtra","state_code":"16","district":"Akola","district_code":"501","address1":"Akola","address2":"","latitude":"20.8262","longitude":"77.2954","accuracy":"4"},{"address3":"Murtizapur City","state":"Maharashtra","state_code":"16","district":"Akola","district_code":"501","address1":"Murtijapur","address2":"","latitude":"20.7319","longitude":"77.4279","accuracy":"3"},{"address3":"Mahagaon","state":"Maharashtra","state_code":"16","district":"Akola","district_code":"501","address1":"Akola","address2":"","latitude":"20.5201","longitude":"77.255","accuracy":"4"},{"address3":"Murtizapur","state":"Maharashtra","state_code":"16","district":"Akola","district_code":"501","address1":"Akola","address2":"","latitude":"20.7319","longitude":"77.4279","accuracy":"3"}],"444108":[{"address3":"Kheldeshpande","state":"Maharashtra","state_code":"16","district":"Akola","district_code":"501","address1":"Akola","address2":"","latitude":"20.4715","longitude":"77.3868","accuracy":"3"},{"address3":"Belkhed","state":"Maharashtra","state_code":"16","district":"Akola","district_code":"501","address1":"Akola","address2":"","latitude":"20.4897","longitude":"77.0008","accuracy":"4"},{"address3":"Ghodegaon","state":"Maharashtra","state_code":"16","district":"Akola","district_code":"501","address1":"Akola","address2":"","latitude":"20.7489","longitude":"77.0533","accuracy":"4"},{"address3":"Manabda","state":"Maharashtra","state_code":"16","district":"Akola","district_code":"501","address1":"Akola","address2":"","latitude":"20.4715","longitude":"77.3868","accuracy":"3"},{"address3":"Danapur","state":"Maharashtra","state_code":"16","district":"Akola","district_code":"501","address1":"Telhara","address2":"","latitude":"20.7489","longitude":"77.0533","accuracy":"4"},{"address3":"Ner","state":"Maharashtra","state_code":"16","district":"Akola","district_code":"501","address1":"Akola","address2":"","latitude":"20.7489","longitude":"77.0533","accuracy":"4"},{"address3":"Malegaon Bazar","state":"Maharashtra","state_code":"16","district":"Akola","district_code":"501","address1":"Akola","address2":"","latitude":"20.4715","longitude":"77.3868","accuracy":"3"},{"address3":"Telhara (Akola)","state":"Maharashtra","state_code":"16","district":"Akola","district_code":"501","address1":"Telhara","address2":"","latitude":"21.0269","longitude":"76.8389","accuracy":"4"},{"address3":"Hanwadi","state":"Maharashtra","state_code":"16","district":"Akola","district_code":"501","address1":"Akola","address2":"","latitude":"20.7489","longitude":"77.0533","accuracy":"4"},{"address3":"Bhamberi","state":"Maharashtra","state_code":"16","district":"Akola","district_code":"501","address1":"Akola","address2":"","latitude":"20.4715","longitude":"77.3868","accuracy":"3"},{"address3":"Warud","state":"Maharashtra","state_code":"16","district":"Akola","district_code":"501","address1":"Akola","address2":"","latitude":"20.7489","longitude":"77.0533","accuracy":"4"},{"address3":"Wadi Adampur","state":"Maharashtra","state_code":"16","district":"Akola","district_code":"501","address1":"Akola","address2":"","latitude":"20.4715","longitude":"77.3868","accuracy":"3"},{"address3":"Adsul","state":"Maharashtra","state_code":"16","district":"Akola","district_code":"501","address1":"Akola","address2":"","latitude":"20.4384","longitude":"77.0015","accuracy":"4"},{"address3":"Raundala","state":"Maharashtra","state_code":"16","district":"Akola","district_code":"501","address1":"Akola","address2":"","latitude":"20.4715","longitude":"77.3868","accuracy":"3"},{"address3":"Panchagavan","state":"Maharashtra","state_code":"16","district":"Akola","district_code":"501","address1":"Akola","address2":"","latitude":"20.4715","longitude":"77.3868","accuracy":"3"},{"address3":"Ukali Bazar","state":"Maharashtra","state_code":"16","district":"Akola","district_code":"501","address1":"NA","address2":"","latitude":"20.4715","longitude":"77.3868","accuracy":"3"},{"address3":"Dahigaon","state":"Maharashtra","state_code":"16","district":"Akola","district_code":"501","address1":"Akola","address2":"","latitude":"20.7639","longitude":"77.1946","accuracy":"4"}],"444109":[{"address3":"Vidyutnagar Paras","state":"Maharashtra","state_code":"16","district":"Akola","district_code":"501","address1":"Balapur","address2":"","latitude":"20.624","longitude":"77.0776","accuracy":"3"},{"address3":"Manarkhed","state":"Maharashtra","state_code":"16","district":"Akola","district_code":"501","address1":"Akola","address2":"","latitude":"20.7489","longitude":"77.0533","accuracy":"4"},{"address3":"Khandala","state":"Maharashtra","state_code":"16","district":"Akola","district_code":"501","address1":"Akola","address2":"","latitude":"20.5952","longitude":"77.395","accuracy":"4"},{"address3":"Nimkarda","state":"Maharashtra","state_code":"16","district":"Akola","district_code":"501","address1":"Akola","address2":"","latitude":"20.624","longitude":"77.0776","accuracy":"3"},{"address3":"Hatrun","state":"Maharashtra","state_code":"16","district":"Akola","district_code":"501","address1":"Akola","address2":"","latitude":"20.8408","longitude":"76.8894","accuracy":"4"},{"address3":"Morzadi","state":"Maharashtra","state_code":"16","district":"Akola","district_code":"501","address1":"Akola","address2":"","latitude":"20.624","longitude":"77.0776","accuracy":"3"},{"address3":"Manjari","state":"Maharashtra","state_code":"16","district":"Akola","district_code":"501","address1":"Akola","address2":"","latitude":"20.7489","longitude":"77.0533","accuracy":"4"},{"address3":"Gaigaon","state":"Maharashtra","state_code":"16","district":"Akola","district_code":"501","address1":"Akola","address2":"","latitude":"20.624","longitude":"77.0776","accuracy":"3"},{"address3":"Paras","state":"Maharashtra","state_code":"16","district":"Akola","district_code":"501","address1":"Akola","address2":"","latitude":"20.7157","longitude":"76.8245","accuracy":"4"},{"address3":"Kasura","state":"Maharashtra","state_code":"16","district":"Akola","district_code":"501","address1":"Akola","address2":"","latitude":"20.624","longitude":"77.0776","accuracy":"3"},{"address3":"Kalambi Mahagaon","state":"Maharashtra","state_code":"16","district":"Akola","district_code":"501","address1":"Akola","address2":"","latitude":"20.624","longitude":"77.0776","accuracy":"3"},{"address3":"Morgaon Bhakre","state":"Maharashtra","state_code":"16","district":"Akola","district_code":"501","address1":"Akola","address2":"","latitude":"20.624","longitude":"77.0776","accuracy":"3"}],"444110":[{"address3":"Bembla","state":"Maharashtra","state_code":"16","district":"Washim","district_code":"502","address1":"NA","address2":"","latitude":"20.6445","longitude":"77.4683","accuracy":"4"},{"address3":"Ladegaon","state":"Maharashtra","state_code":"16","district":"Washim","district_code":"502","address1":"NA","address2":"","latitude":"20.6323","longitude":"77.5376","accuracy":"4"},{"address3":"Bhamb","state":"Maharashtra","state_code":"16","district":"Washim","district_code":"502","address1":"NA","address2":"","latitude":"20.623","longitude":"77.6065","accuracy":"4"},{"address3":"Pimpri Modak","state":"Maharashtra","state_code":"16","district":"Washim","district_code":"502","address1":"NA","address2":"","latitude":"20.2744","longitude":"77.2345","accuracy":"3"},{"address3":"Hinganwadi","state":"Maharashtra","state_code":"16","district":"Washim","district_code":"502","address1":"NA","address2":"","latitude":"20.2376","longitude":"77.219","accuracy":"4"},{"address3":"Dhanaj BK","state":"Maharashtra","state_code":"16","district":"Washim","district_code":"502","address1":"NA","address2":"","latitude":"20.2744","longitude":"77.2345","accuracy":"3"},{"address3":"Vilegaon","state":"Maharashtra","state_code":"16","district":"Washim","district_code":"502","address1":"NA","address2":"","latitude":"20.0016","longitude":"77.0934","accuracy":"4"},{"address3":"Kamargaon (Washim)","state":"Maharashtra","state_code":"16","district":"Washim","district_code":"502","address1":"Karanja","address2":"","latitude":"20.6169","longitude":"77.5013","accuracy":"4"},{"address3":"Dhanaj KD","state":"Maharashtra","state_code":"16","district":"Washim","district_code":"502","address1":"NA","address2":"","latitude":"20.2744","longitude":"77.2345","accuracy":"3"}],"444111":[{"address3":"Kinkhed","state":"Maharashtra","state_code":"16","district":"Akola","district_code":"501","address1":"NA","address2":"","latitude":"20.4146","longitude":"77.1304","accuracy":"4"},{"address3":"Rail","state":"Maharashtra","state_code":"16","district":"Akola","district_code":"501","address1":"NA","address2":"","latitude":"20.6111","longitude":"77.116","accuracy":"3"},{"address3":"Dahihanda","state":"Maharashtra","state_code":"16","district":"Akola","district_code":"501","address1":"Akola","address2":"","latitude":"20.8854","longitude":"77.129","accuracy":"4"},{"address3":"Keliveli","state":"Maharashtra","state_code":"16","district":"Akola","district_code":"501","address1":"NA","address2":"","latitude":"20.6111","longitude":"77.116","accuracy":"3"},{"address3":"Jaulkhed","state":"Maharashtra","state_code":"16","district":"Akola","district_code":"501","address1":"NA","address2":"","latitude":"20.5333","longitude":"77.0885","accuracy":"4"}],"444117":[{"address3":"Mundgaon","state":"Maharashtra","state_code":"16","district":"Akola","district_code":"501","address1":"Akola","address2":"","latitude":"21.0503","longitude":"76.993","accuracy":"4"},{"address3":"Pathardi","state":"Maharashtra","state_code":"16","district":"Akola","district_code":"501","address1":"Akola","address2":"","latitude":"20.7489","longitude":"77.0533","accuracy":"3"},{"address3":"Balegaon","state":"Maharashtra","state_code":"16","district":"Akola","district_code":"501","address1":"Akola","address2":"","latitude":"21.0311","longitude":"77.0325","accuracy":"4"}],"444126":[{"address3":"Adgaon Bk","state":"Maharashtra","state_code":"16","district":"Akola","district_code":"501","address1":"Akot","address2":"","latitude":"20.6786","longitude":"77.5881","accuracy":"3"},{"address3":"Sirsoli","state":"Maharashtra","state_code":"16","district":"Akola","district_code":"501","address1":"Akola","address2":"","latitude":"20.7489","longitude":"77.0533","accuracy":"4"},{"address3":"Adgaon KD","state":"Maharashtra","state_code":"16","district":"Akola","district_code":"501","address1":"NA","address2":"","latitude":"20.6786","longitude":"77.5881","accuracy":"3"},{"address3":"Jalgaon Nahate","state":"Maharashtra","state_code":"16","district":"Akola","district_code":"501","address1":"NA","address2":"","latitude":"20.6786","longitude":"77.5881","accuracy":"3"},{"address3":"Pimpri Kd","state":"Maharashtra","state_code":"16","district":"Akola","district_code":"501","address1":"Akola","address2":"","latitude":"20.6786","longitude":"77.5881","accuracy":"3"}],"444201":[{"address3":"Paturda","state":"Maharashtra","state_code":"16","district":"Buldhana","district_code":"500","address1":"Sangrampur","address2":"","latitude":"20.9513","longitude":"76.7307","accuracy":"4"},{"address3":"Kodri","state":"Maharashtra","state_code":"16","district":"Buldhana","district_code":"500","address1":"Sangrampur","address2":"","latitude":"20.7563","longitude":"76.9774","accuracy":"3"},{"address3":"Wankhed","state":"Maharashtra","state_code":"16","district":"Buldhana","district_code":"500","address1":"Sangrampur","address2":"","latitude":"20.9906","longitude":"76.7335","accuracy":"4"},{"address3":"Kavthal","state":"Maharashtra","state_code":"16","district":"Buldhana","district_code":"500","address1":"Sangrampur","address2":"","latitude":"20.5111","longitude":"76.4083","accuracy":"4"},{"address3":"Jastgaon","state":"Maharashtra","state_code":"16","district":"Buldhana","district_code":"500","address1":"Sangrampur","address2":"","latitude":"20.7563","longitude":"76.9774","accuracy":"3"},{"address3":"Warwat Khanderao","state":"Maharashtra","state_code":"16","district":"Buldhana","district_code":"500","address1":"Sangrampur","address2":"","latitude":"20.7563","longitude":"76.9774","accuracy":"3"}],"444202":[{"address3":"Bodkha","state":"Maharashtra","state_code":"16","district":"Buldhana","district_code":"500","address1":"Sangrampur","address2":"","latitude":"20.5111","longitude":"76.4083","accuracy":"3"},{"address3":"Kankanwada","state":"Maharashtra","state_code":"16","district":"Buldhana","district_code":"500","address1":"Sangrampur","address2":"","latitude":"21.0285","longitude":"76.6951","accuracy":"3"},{"address3":"Sangrampur (Buldhana)","state":"Maharashtra","state_code":"16","district":"Buldhana","district_code":"500","address1":"Sangrampur","address2":"","latitude":"21.0331","longitude":"76.6761","accuracy":"4"},{"address3":"Warwat Bakal","state":"Maharashtra","state_code":"16","district":"Buldhana","district_code":"500","address1":"Sangrampur","address2":"","latitude":"21.0238","longitude":"76.7141","accuracy":"4"},{"address3":"Palsi Zanshi","state":"Maharashtra","state_code":"16","district":"Buldhana","district_code":"500","address1":"Sangrampur","address2":"","latitude":"21.0285","longitude":"76.6951","accuracy":"3"}],"444203":[{"address3":"Kherda","state":"Maharashtra","state_code":"16","district":"Buldhana","district_code":"500","address1":"Shegaon","address2":"","latitude":"20.9017","longitude":"76.3301","accuracy":"4"},{"address3":"Nagzari","state":"Maharashtra","state_code":"16","district":"Buldhana","district_code":"500","address1":"Shegaon","address2":"","latitude":"20.5111","longitude":"76.4083","accuracy":"4"},{"address3":"Adsul","state":"Maharashtra","state_code":"16","district":"Buldhana","district_code":"500","address1":"Shegaon","address2":"","latitude":"20.5111","longitude":"76.4083","accuracy":"4"},{"address3":"Shegaon","state":"Maharashtra","state_code":"16","district":"Buldhana","district_code":"500","address1":"Shegaon","address2":"","latitude":"20.7932","longitude":"76.6992","accuracy":"4"},{"address3":"Alsana","state":"Maharashtra","state_code":"16","district":"Buldhana","district_code":"500","address1":"Shegaon","address2":"","latitude":"20.5297","longitude":"77.0839","accuracy":"3"},{"address3":"Zadegaon","state":"Maharashtra","state_code":"16","district":"Buldhana","district_code":"500","address1":"Shegaon","address2":"","latitude":"20.5297","longitude":"77.0839","accuracy":"3"},{"address3":"Takli Viro","state":"Maharashtra","state_code":"16","district":"Buldhana","district_code":"500","address1":"Shegaon","address2":"","latitude":"20.5297","longitude":"77.0839","accuracy":"3"},{"address3":"Sagoda","state":"Maharashtra","state_code":"16","district":"Buldhana","district_code":"500","address1":"Shegaon","address2":"","latitude":"20.5297","longitude":"77.0839","accuracy":"3"},{"address3":"Rokdiya Nagar","state":"Maharashtra","state_code":"16","district":"Buldhana","district_code":"500","address1":"Shegaon","address2":"","latitude":"20.5297","longitude":"77.0839","accuracy":"3"},{"address3":"Manasgaon","state":"Maharashtra","state_code":"16","district":"Buldhana","district_code":"500","address1":"Shegaon","address2":"","latitude":"20.5297","longitude":"77.0839","accuracy":"3"},{"address3":"Jawala BK","state":"Maharashtra","state_code":"16","district":"Buldhana","district_code":"500","address1":"Shegan","address2":"","latitude":"20.5297","longitude":"77.0839","accuracy":"3"},{"address3":"Janori Nipana","state":"Maharashtra","state_code":"16","district":"Buldhana","district_code":"500","address1":"Shegaon","address2":"","latitude":"20.5297","longitude":"77.0839","accuracy":"3"},{"address3":"Chincholi Karfarma","state":"Maharashtra","state_code":"16","district":"Buldhana","district_code":"500","address1":"Shegaon","address2":"","latitude":"20.5297","longitude":"77.0839","accuracy":"3"},{"address3":"Bhongaon","state":"Maharashtra","state_code":"16","district":"Buldhana","district_code":"500","address1":"Shegaon","address2":"","latitude":"20.5297","longitude":"77.0839","accuracy":"3"}],"444204":[{"address3":"Bawanbir","state":"Maharashtra","state_code":"16","district":"Buldhana","district_code":"500","address1":"Sonala","address2":"","latitude":"21.0853","longitude":"76.7145","accuracy":"4"},{"address3":"Tunki","state":"Maharashtra","state_code":"16","district":"Buldhana","district_code":"500","address1":"Sonala","address2":"","latitude":"20.5111","longitude":"76.4083","accuracy":"4"},{"address3":"Banoda Eklara","state":"Maharashtra","state_code":"16","district":"Buldhana","district_code":"500","address1":"Sonala","address2":"","latitude":"20.8601","longitude":"76.4511","accuracy":"3"},{"address3":"Sonala","state":"Maharashtra","state_code":"16","district":"Buldhana","district_code":"500","address1":"Sangrampur","address2":"","latitude":"21.1236","longitude":"76.7415","accuracy":"4"},{"address3":"Katel Kolad","state":"Maharashtra","state_code":"16","district":"Buldhana","district_code":"500","address1":"Sangrampur","address2":"","latitude":"20.8601","longitude":"76.4511","accuracy":"3"},{"address3":"Ladnapur","state":"Maharashtra","state_code":"16","district":"Buldhana","district_code":"500","address1":"Sonala","address2":"","latitude":"20.5111","longitude":"76.4083","accuracy":"4"}],"444301":[{"address3":"Chinchpur","state":"Maharashtra","state_code":"16","district":"Buldhana","district_code":"500","address1":"Khamgaon","address2":"","latitude":"20.5111","longitude":"76.4083","accuracy":"4"},{"address3":"Amdapur","state":"Maharashtra","state_code":"16","district":"Buldhana","district_code":"500","address1":"Chikhli","address2":"","latitude":"20.4082","longitude":"76.4442","accuracy":"4"},{"address3":"Takarkhed Helga","state":"Maharashtra","state_code":"16","district":"Buldhana","district_code":"500","address1":"Chikhali","address2":"","latitude":"20.1965","longitude":"76.8221","accuracy":"3"},{"address3":"Toranwada","state":"Maharashtra","state_code":"16","district":"Buldhana","district_code":"500","address1":"Chikhali","address2":"","latitude":"20.1965","longitude":"76.8221","accuracy":"3"},{"address3":"Dhotra Naik","state":"Maharashtra","state_code":"16","district":"Buldhana","district_code":"500","address1":"Khamgaon","address2":"","latitude":"20.1965","longitude":"76.8221","accuracy":"3"},{"address3":"Isoli","state":"Maharashtra","state_code":"16","district":"Buldhana","district_code":"500","address1":"Chikhali","address2":"","latitude":"20.1965","longitude":"76.8221","accuracy":"3"},{"address3":"Karwand","state":"Maharashtra","state_code":"16","district":"Buldhana","district_code":"500","address1":"Chikhali","address2":"","latitude":"20.1965","longitude":"76.8221","accuracy":"3"},{"address3":"Mangrul Navghare","state":"Maharashtra","state_code":"16","district":"Buldhana","district_code":"500","address1":"Chikhali","address2":"","latitude":"20.1965","longitude":"76.8221","accuracy":"3"}],"444302":[{"address3":"Kanheri Gawali","state":"Maharashtra","state_code":"16","district":"Akola","district_code":"501","address1":"NA","address2":"","latitude":"20.1307","longitude":"77.0823","accuracy":"3"},{"address3":"Batwadi","state":"Maharashtra","state_code":"16","district":"Akola","district_code":"501","address1":"NA","address2":"","latitude":"20.7489","longitude":"77.0533","accuracy":"4"},{"address3":"Balapur","state":"Maharashtra","state_code":"16","district":"Akola","district_code":"501","address1":"Akola","address2":"","latitude":"20.6622","longitude":"77.3612","accuracy":"4"},{"address3":"Ridhora","state":"Maharashtra","state_code":"16","district":"Akola","district_code":"501","address1":"NA","address2":"","latitude":"20.7489","longitude":"77.0533","accuracy":"4"},{"address3":"Khirpuri","state":"Maharashtra","state_code":"16","district":"Akola","district_code":"501","address1":"NA","address2":"","latitude":"20.1307","longitude":"77.0823","accuracy":"3"},{"address3":"Vyala","state":"Maharashtra","state_code":"16","district":"Akola","district_code":"501","address1":"NA","address2":"","latitude":"20.1307","longitude":"77.0823","accuracy":"3"}],"444303":[{"address3":"Hingna Karegaon","state":"Maharashtra","state_code":"16","district":"Buldhana","district_code":"500","address1":"Khamgaon","address2":"","latitude":"20.811","longitude":"76.8346","accuracy":"3"},{"address3":"Gawhan","state":"Maharashtra","state_code":"16","district":"Buldhana","district_code":"500","address1":"Shegaon","address2":"","latitude":"20.5111","longitude":"76.4083","accuracy":"3"},{"address3":"Khamgaon H.O","state":"Maharashtra","state_code":"16","district":"Buldhana","district_code":"500","address1":"Khamgaon","address2":"","latitude":"20.811","longitude":"76.8346","accuracy":"3"},{"address3":"Undri","state":"Maharashtra","state_code":"16","district":"Buldhana","district_code":"500","address1":"NA","address2":"","latitude":"20.5111","longitude":"76.4083","accuracy":"4"},{"address3":"Antraj","state":"Maharashtra","state_code":"16","district":"Buldhana","district_code":"500","address1":"Khamgaon","address2":"","latitude":"20.811","longitude":"76.8346","accuracy":"3"},{"address3":"Lakhanwada","state":"Maharashtra","state_code":"16","district":"Buldhana","district_code":"500","address1":"Khamgaon","address2":"","latitude":"20.4922","longitude":"76.6212","accuracy":"4"},{"address3":"Kinhi Mahadeo","state":"Maharashtra","state_code":"16","district":"Buldhana","district_code":"500","address1":"Khamgaon","address2":"","latitude":"20.811","longitude":"76.8346","accuracy":"3"},{"address3":"Ganeshpur","state":"Maharashtra","state_code":"16","district":"Buldhana","district_code":"500","address1":"Khamgaon","address2":"","latitude":"20.5111","longitude":"76.4083","accuracy":"4"},{"address3":"Kelanagar","state":"Maharashtra","state_code":"16","district":"Buldhana","district_code":"500","address1":"Khamgaon","address2":"","latitude":"20.811","longitude":"76.8346","accuracy":"3"},{"address3":"Chitoda","state":"Maharashtra","state_code":"16","district":"Buldhana","district_code":"500","address1":"Khamgaon","address2":"","latitude":"20.5111","longitude":"76.4083","accuracy":"4"},{"address3":"Gharod","state":"Maharashtra","state_code":"16","district":"Buldhana","district_code":"500","address1":"Khamgaon","address2":"","latitude":"20.811","longitude":"76.8346","accuracy":"3"},{"address3":"Loni Gurao","state":"Maharashtra","state_code":"16","district":"Buldhana","district_code":"500","address1":"Khamgaon","address2":"","latitude":"20.811","longitude":"76.8346","accuracy":"3"},{"address3":"Warna","state":"Maharashtra","state_code":"16","district":"Buldhana","district_code":"500","address1":"Khamgaon","address2":"","latitude":"20.6126","longitude":"76.4596","accuracy":"4"},{"address3":"Awar","state":"Maharashtra","state_code":"16","district":"Buldhana","district_code":"500","address1":"Khamgaon","address2":"","latitude":"20.811","longitude":"76.8346","accuracy":"3"},{"address3":"Kalegaon","state":"Maharashtra","state_code":"16","district":"Buldhana","district_code":"500","address1":"Khamgaon","address2":"","latitude":"20.6423","longitude":"76.4293","accuracy":"4"},{"address3":"Vihigaon","state":"Maharashtra","state_code":"16","district":"Buldhana","district_code":"500","address1":"Khamgaon","address2":"","latitude":"20.5111","longitude":"76.4083","accuracy":"4"},{"address3":"Ambetakli","state":"Maharashtra","state_code":"16","district":"Buldhana","district_code":"500","address1":"Khamgaon","address2":"","latitude":"20.811","longitude":"76.8346","accuracy":"3"},{"address3":"Hiwarkhed","state":"Maharashtra","state_code":"16","district":"Buldhana","district_code":"500","address1":"Khamgaon","address2":"","latitude":"20.5111","longitude":"76.4083","accuracy":"4"},{"address3":"Atali","state":"Maharashtra","state_code":"16","district":"Buldhana","district_code":"500","address1":"Khamgaon","address2":"","latitude":"20.811","longitude":"76.8346","accuracy":"3"},{"address3":"Rohana","state":"Maharashtra","state_code":"16","district":"Buldhana","district_code":"500","address1":"Khamgaon","address2":"","latitude":"20.5111","longitude":"76.4083","accuracy":"4"},{"address3":"Bori Adgaon","state":"Maharashtra","state_code":"16","district":"Buldhana","district_code":"500","address1":"Khamgaon","address2":"","latitude":"20.811","longitude":"76.8346","accuracy":"3"},{"address3":"Shahapur","state":"Maharashtra","state_code":"16","district":"Buldhana","district_code":"500","address1":"Khamgaon","address2":"","latitude":"20.5111","longitude":"76.4083","accuracy":"4"},{"address3":"Botha Kazi","state":"Maharashtra","state_code":"16","district":"Buldhana","district_code":"500","address1":"Khamgaon","address2":"","latitude":"20.811","longitude":"76.8346","accuracy":"3"},{"address3":"Garadgaon","state":"Maharashtra","state_code":"16","district":"Buldhana","district_code":"500","address1":"Khamgoan","address2":"","latitude":"20.811","longitude":"76.8346","accuracy":"3"},{"address3":"Gondhanapur","state":"Maharashtra","state_code":"16","district":"Buldhana","district_code":"500","address1":"Khamgaon","address2":"","latitude":"20.811","longitude":"76.8346","accuracy":"3"},{"address3":"Jalamb","state":"Maharashtra","state_code":"16","district":"Buldhana","district_code":"500","address1":"Shegaon","address2":"","latitude":"20.811","longitude":"76.8346","accuracy":"3"},{"address3":"Lasura Khurd","state":"Maharashtra","state_code":"16","district":"Buldhana","district_code":"500","address1":"Khamgaon","address2":"","latitude":"20.811","longitude":"76.8346","accuracy":"3"},{"address3":"Lokhanda","state":"Maharashtra","state_code":"16","district":"Buldhana","district_code":"500","address1":"Khamgaon","address2":"","latitude":"20.811","longitude":"76.8346","accuracy":"3"},{"address3":"Palshi BK","state":"Maharashtra","state_code":"16","district":"Buldhana","district_code":"500","address1":"Khamgaon","address2":"","latitude":"20.811","longitude":"76.8346","accuracy":"3"},{"address3":"Pimpri Gaoli","state":"Maharashtra","state_code":"16","district":"Buldhana","district_code":"500","address1":"Khamgaon","address2":"","latitude":"20.811","longitude":"76.8346","accuracy":"3"},{"address3":"Shirala Nemane","state":"Maharashtra","state_code":"16","district":"Buldhana","district_code":"500","address1":"Khamgaon","address2":"","latitude":"20.811","longitude":"76.8346","accuracy":"3"},{"address3":"Tembhurna","state":"Maharashtra","state_code":"16","district":"Buldhana","district_code":"500","address1":"Khamgaon","address2":"","latitude":"20.811","longitude":"76.8346","accuracy":"3"},{"address3":"Wazar","state":"Maharashtra","state_code":"16","district":"Buldhana","district_code":"500","address1":"Khamgaon","address2":"","latitude":"20.811","longitude":"76.8346","accuracy":"3"}],"444304":[{"address3":"Matergaon","state":"Maharashtra","state_code":"16","district":"Buldhana","district_code":"500","address1":"Shegaon","address2":"","latitude":"20.8531","longitude":"76.5618","accuracy":"4"}],"444306":[{"address3":"Bhalegaon Bazar","state":"Maharashtra","state_code":"16","district":"Buldhana","district_code":"500","address1":"Khamgoan","address2":"","latitude":"20.698","longitude":"76.5855","accuracy":"3"},{"address3":"Pimpalgaon Raja","state":"Maharashtra","state_code":"16","district":"Buldhana","district_code":"500","address1":"Khamgaon","address2":"","latitude":"20.7236","longitude":"76.437","accuracy":"4"},{"address3":"Jalka Bhadang","state":"Maharashtra","state_code":"16","district":"Buldhana","district_code":"500","address1":"Khamgaon","address2":"","latitude":"20.698","longitude":"76.5855","accuracy":"3"},{"address3":"Nipana","state":"Maharashtra","state_code":"16","district":"Buldhana","district_code":"500","address1":"Khamgaon","address2":"","latitude":"20.5111","longitude":"76.4083","accuracy":"4"},{"address3":"Dhorapgaon","state":"Maharashtra","state_code":"16","district":"Buldhana","district_code":"500","address1":"Khamgaon","address2":"","latitude":"20.6601","longitude":"76.4172","accuracy":"4"},{"address3":"Parkhed","state":"Maharashtra","state_code":"16","district":"Buldhana","district_code":"500","address1":"Mehkar","address2":"","latitude":"20.698","longitude":"76.5855","accuracy":"3"},{"address3":"Ghanegaon","state":"Maharashtra","state_code":"16","district":"Buldhana","district_code":"500","address1":"Khamgaon","address2":"","latitude":"20.7418","longitude":"76.4428","accuracy":"4"},{"address3":"Borjawala","state":"Maharashtra","state_code":"16","district":"Buldhana","district_code":"500","address1":"Kahmgaon","address2":"","latitude":"20.698","longitude":"76.5855","accuracy":"3"},{"address3":"Poraj","state":"Maharashtra","state_code":"16","district":"Buldhana","district_code":"500","address1":"Khamgaon","address2":"","latitude":"20.6721","longitude":"76.4495","accuracy":"4"}],"444311":[{"address3":"Bahadura","state":"Maharashtra","state_code":"16","district":"Akola","district_code":"501","address1":"Akola","address2":"","latitude":"20.287","longitude":"76.9395","accuracy":"3"},{"address3":"Hata","state":"Maharashtra","state_code":"16","district":"Akola","district_code":"501","address1":"Akola","address2":"","latitude":"20.7489","longitude":"77.0533","accuracy":"3"},{"address3":"Mokha","state":"Maharashtra","state_code":"16","district":"Akola","district_code":"501","address1":"Akola","address2":"","latitude":"20.287","longitude":"76.9395","accuracy":"3"},{"address3":"Kazikhed","state":"Maharashtra","state_code":"16","district":"Akola","district_code":"501","address1":"Akola","address2":"","latitude":"20.287","longitude":"76.9395","accuracy":"3"},{"address3":"Lohara","state":"Maharashtra","state_code":"16","district":"Akola","district_code":"501","address1":"Akola","address2":"","latitude":"20.7489","longitude":"77.0533","accuracy":"4"},{"address3":"Karanja Ramzanpur","state":"Maharashtra","state_code":"16","district":"Akola","district_code":"501","address1":"Akola","address2":"","latitude":"20.287","longitude":"76.9395","accuracy":"3"},{"address3":"Morgaon Sadijan","state":"Maharashtra","state_code":"16","district":"Akola","district_code":"501","address1":"Akola","address2":"","latitude":"20.287","longitude":"76.9395","accuracy":"3"},{"address3":"Dongargaon","state":"Maharashtra","state_code":"16","district":"Akola","district_code":"501","address1":"Akola","address2":"","latitude":"20.696","longitude":"77.0981","accuracy":"4"},{"address3":"Ural","state":"Maharashtra","state_code":"16","district":"Akola","district_code":"501","address1":"Akola","address2":"","latitude":"20.287","longitude":"76.9395","accuracy":"3"},{"address3":"Nimba","state":"Maharashtra","state_code":"16","district":"Akola","district_code":"501","address1":"Akola","address2":"","latitude":"20.7489","longitude":"77.0533","accuracy":"4"},{"address3":"Andura","state":"Maharashtra","state_code":"16","district":"Akola","district_code":"501","address1":"Akola","address2":"","latitude":"20.8829","longitude":"76.8575","accuracy":"4"}],"444312":[{"address3":"G.S.College Khamgaon","state":"Maharashtra","state_code":"16","district":"Buldhana","district_code":"500","address1":"Khamgaon","address2":"","latitude":"19.5647","longitude":"77.0388","accuracy":"3"},{"address3":"Pimpri Deshmukh","state":"Maharashtra","state_code":"16","district":"Buldhana","district_code":"500","address1":"Shegaon","address2":"","latitude":"20.5111","longitude":"76.4083","accuracy":"4"},{"address3":"Amboda","state":"Maharashtra","state_code":"16","district":"Buldhana","district_code":"500","address1":"Shegaon","address2":"","latitude":"20.5111","longitude":"76.4083","accuracy":"4"},{"address3":"Pahurjira","state":"Maharashtra","state_code":"16","district":"Buldhana","district_code":"500","address1":"Shegaon","address2":"","latitude":"19.5647","longitude":"77.0388","accuracy":"3"},{"address3":"M.I.D.C. (Khamgaon)","state":"Maharashtra","state_code":"16","district":"Buldhana","district_code":"500","address1":"Khamgaon","address2":"","latitude":"19.5647","longitude":"77.0388","accuracy":"3"},{"address3":"Sutala BK","state":"Maharashtra","state_code":"16","district":"Buldhana","district_code":"500","address1":"Khamgaon","address2":"","latitude":"19.5647","longitude":"77.0388","accuracy":"3"},{"address3":"Lanjud","state":"Maharashtra","state_code":"16","district":"Buldhana","district_code":"500","address1":"Shegaon","address2":"","latitude":"19.5647","longitude":"77.0388","accuracy":"3"}],"444401":[{"address3":"Yeranda","state":"Maharashtra","state_code":"16","district":"Akola","district_code":"501","address1":"NA","address2":"","latitude":"20.6113","longitude":"77.1373","accuracy":"4"},{"address3":"Kanheri Sarap","state":"Maharashtra","state_code":"16","district":"Akola","district_code":"501","address1":"NA","address2":"","latitude":"20.7184","longitude":"77.4151","accuracy":"3"},{"address3":"Dhabha","state":"Maharashtra","state_code":"16","district":"Akola","district_code":"501","address1":"NA","address2":"","latitude":"20.7489","longitude":"77.0533","accuracy":"4"},{"address3":"Vizora","state":"Maharashtra","state_code":"16","district":"Akola","district_code":"501","address1":"NA","address2":"","latitude":"20.7184","longitude":"77.4151","accuracy":"3"},{"address3":"Kajaleshwar","state":"Maharashtra","state_code":"16","district":"Akola","district_code":"501","address1":"NA","address2":"","latitude":"20.7184","longitude":"77.4151","accuracy":"3"},{"address3":"Rajankhed","state":"Maharashtra","state_code":"16","district":"Akola","district_code":"501","address1":"NA","address2":"","latitude":"20.4986","longitude":"77.0398","accuracy":"4"},{"address3":"Lohagad","state":"Maharashtra","state_code":"16","district":"Akola","district_code":"501","address1":"NA","address2":"","latitude":"20.7184","longitude":"77.4151","accuracy":"3"},{"address3":"Barshitakli","state":"Maharashtra","state_code":"16","district":"Akola","district_code":"501","address1":"Barshitakli","address2":"","latitude":"20.7184","longitude":"77.4151","accuracy":"3"},{"address3":"Alanda","state":"Maharashtra","state_code":"16","district":"Akola","district_code":"501","address1":"NA","address2":"","latitude":"20.6153","longitude":"77.0682","accuracy":"4"},{"address3":"Dagadparwa","state":"Maharashtra","state_code":"16","district":"Akola","district_code":"501","address1":"NA","address2":"","latitude":"20.7184","longitude":"77.4151","accuracy":"3"},{"address3":"Punoti KD","state":"Maharashtra","state_code":"16","district":"Akola","district_code":"501","address1":"NA","address2":"","latitude":"20.7184","longitude":"77.4151","accuracy":"3"}],"444402":[{"address3":"Sonala Washim","state":"Maharashtra","state_code":"16","district":"Akola","district_code":"501","address1":"Akola","address2":"","latitude":"20.6234","longitude":"77.2935","accuracy":"3"},{"address3":"Shelubazar","state":"Maharashtra","state_code":"16","district":"Akola","district_code":"501","address1":"Akola","address2":"","latitude":"20.6234","longitude":"77.2935","accuracy":"3"},{"address3":"Pedgaon","state":"Maharashtra","state_code":"16","district":"Akola","district_code":"501","address1":"Akola","address2":"","latitude":"20.7489","longitude":"77.0533","accuracy":"4"},{"address3":"Kanzara","state":"Maharashtra","state_code":"16","district":"Akola","district_code":"501","address1":"Akola","address2":"","latitude":"20.6234","longitude":"77.2935","accuracy":"3"},{"address3":"Tarhala","state":"Maharashtra","state_code":"16","district":"Akola","district_code":"501","address1":"Akola","address2":"","latitude":"20.7489","longitude":"77.0533","accuracy":"4"},{"address3":"Pardi Tad","state":"Maharashtra","state_code":"16","district":"Akola","district_code":"501","address1":"Akola","address2":"","latitude":"20.6234","longitude":"77.2935","accuracy":"3"},{"address3":"Wanoja","state":"Maharashtra","state_code":"16","district":"Akola","district_code":"501","address1":"Akola","address2":"","latitude":"20.7489","longitude":"77.0533","accuracy":"4"}],"444403":[{"address3":"Sakhardoh","state":"Maharashtra","state_code":"16","district":"Washim","district_code":"502","address1":"Mangrulpir","address2":"","latitude":"20.2376","longitude":"77.219","accuracy":"4"},{"address3":"Dhamni","state":"Maharashtra","state_code":"16","district":"Washim","district_code":"502","address1":"Mangrulpir","address2":"","latitude":"20.223","longitude":"77.5547","accuracy":"4"},{"address3":"Parwa","state":"Maharashtra","state_code":"16","district":"Washim","district_code":"502","address1":"Mangrulpir","address2":"","latitude":"20.2376","longitude":"77.219","accuracy":"4"},{"address3":"Mangrulpir","state":"Maharashtra","state_code":"16","district":"Washim","district_code":"502","address1":"Washim","address2":"","latitude":"20.3696","longitude":"77.7168","accuracy":"3"},{"address3":"Shendurjana","state":"Maharashtra","state_code":"16","district":"Washim","district_code":"502","address1":"Mangrulpir","address2":"","latitude":"20.2376","longitude":"77.219","accuracy":"4"},{"address3":"Fulumari","state":"Maharashtra","state_code":"16","district":"Washim","district_code":"502","address1":"Mangrulpir","address2":"","latitude":"20.3696","longitude":"77.7168","accuracy":"3"},{"address3":"Palodi","state":"Maharashtra","state_code":"16","district":"Washim","district_code":"502","address1":"Mangrulpir","address2":"","latitude":"20.1105","longitude":"77.4972","accuracy":"4"},{"address3":"Gaiwal","state":"Maharashtra","state_code":"16","district":"Washim","district_code":"502","address1":"Mangrulpir","address2":"","latitude":"20.3696","longitude":"77.7168","accuracy":"3"},{"address3":"Girda","state":"Maharashtra","state_code":"16","district":"Washim","district_code":"502","address1":"Mangrulpir","address2":"","latitude":"20.4373","longitude":"77.4962","accuracy":"4"},{"address3":"Kawathal","state":"Maharashtra","state_code":"16","district":"Washim","district_code":"502","address1":"Mangrulpir","address2":"","latitude":"20.3696","longitude":"77.7168","accuracy":"3"},{"address3":"Giroli","state":"Maharashtra","state_code":"16","district":"Washim","district_code":"502","address1":"Mangrulpir","address2":"","latitude":"20.2162","longitude":"77.4803","accuracy":"4"},{"address3":"Hivra BK","state":"Maharashtra","state_code":"16","district":"Washim","district_code":"502","address1":"Mangrulpir","address2":"","latitude":"20.3696","longitude":"77.7168","accuracy":"3"},{"address3":"Kothari","state":"Maharashtra","state_code":"16","district":"Washim","district_code":"502","address1":"Mangrulpir","address2":"","latitude":"20.3072","longitude":"77.4228","accuracy":"4"},{"address3":"Kasola","state":"Maharashtra","state_code":"16","district":"Washim","district_code":"502","address1":"Mangrulpir","address2":"","latitude":"20.3696","longitude":"77.7168","accuracy":"3"},{"address3":"Mohari","state":"Maharashtra","state_code":"16","district":"Washim","district_code":"502","address1":"Mangrulpir","address2":"","latitude":"20.3564","longitude":"77.4083","accuracy":"4"},{"address3":"Mendra","state":"Maharashtra","state_code":"16","district":"Washim","district_code":"502","address1":"Mangrulpir","address2":"","latitude":"20.3696","longitude":"77.7168","accuracy":"3"},{"address3":"Poghat","state":"Maharashtra","state_code":"16","district":"Washim","district_code":"502","address1":"Mangrulpir","address2":"","latitude":"20.4062","longitude":"77.3491","accuracy":"4"},{"address3":"Shegi","state":"Maharashtra","state_code":"16","district":"Washim","district_code":"502","address1":"Mangrulpir","address2":"","latitude":"20.3696","longitude":"77.7168","accuracy":"3"},{"address3":"Poti","state":"Maharashtra","state_code":"16","district":"Washim","district_code":"502","address1":"Mangrulpir","address2":"","latitude":"20.375","longitude":"77.3866","accuracy":"4"},{"address3":"Dabha","state":"Maharashtra","state_code":"16","district":"Washim","district_code":"502","address1":"Mangrulpir","address2":"","latitude":"20.2704","longitude":"77.3603","accuracy":"4"}],"444404":[{"address3":"Kupta","state":"Maharashtra","state_code":"16","district":"Washim","district_code":"502","address1":"Mangrulpir","address2":"","latitude":"20.2376","longitude":"77.219","accuracy":"4"},{"address3":"Waroli","state":"Maharashtra","state_code":"16","district":"Washim","district_code":"502","address1":"Mangrulpir","address2":"","latitude":"20.2376","longitude":"77.219","accuracy":"4"},{"address3":"Rui","state":"Maharashtra","state_code":"16","district":"Washim","district_code":"502","address1":"Mangrulpir","address2":"","latitude":"20.0841","longitude":"77.4432","accuracy":"4"},{"address3":"Manora (Washim)","state":"Maharashtra","state_code":"16","district":"Washim","district_code":"502","address1":"Washim","address2":"","latitude":"20.2187","longitude":"77.5591","accuracy":"4"},{"address3":"Asola KD","state":"Maharashtra","state_code":"16","district":"Washim","district_code":"502","address1":"Mangrulpir","address2":"","latitude":"20.3689","longitude":"77.6558","accuracy":"3"},{"address3":"Umari","state":"Maharashtra","state_code":"16","district":"Washim","district_code":"502","address1":"Mangrulpir","address2":"","latitude":"20.2376","longitude":"77.219","accuracy":"4"},{"address3":"Dapura Kd","state":"Maharashtra","state_code":"16","district":"Washim","district_code":"502","address1":"Mangrulpir","address2":"","latitude":"20.3689","longitude":"77.6558","accuracy":"3"},{"address3":"Tornala","state":"Maharashtra","state_code":"16","district":"Washim","district_code":"502","address1":"Mangrulpir","address2":"","latitude":"20.3954","longitude":"77.5391","accuracy":"4"},{"address3":"Gwaha","state":"Maharashtra","state_code":"16","district":"Washim","district_code":"502","address1":"Mangrulpir","address2":"","latitude":"20.3689","longitude":"77.6558","accuracy":"3"},{"address3":"Karkheda","state":"Maharashtra","state_code":"16","district":"Washim","district_code":"502","address1":"Mangrulpir","address2":"","latitude":"20.2376","longitude":"77.219","accuracy":"4"},{"address3":"Dhanora Ghadge","state":"Maharashtra","state_code":"16","district":"Washim","district_code":"502","address1":"Mangrulpir","address2":"","latitude":"20.3689","longitude":"77.6558","accuracy":"3"},{"address3":"Bhuli","state":"Maharashtra","state_code":"16","district":"Washim","district_code":"502","address1":"Mangrulpir","address2":"","latitude":"20.1437","longitude":"77.5799","accuracy":"4"},{"address3":"Pohara Devi","state":"Maharashtra","state_code":"16","district":"Washim","district_code":"502","address1":"Mangrulpir","address2":"","latitude":"20.3689","longitude":"77.6558","accuracy":"3"},{"address3":"Kondoli","state":"Maharashtra","state_code":"16","district":"Washim","district_code":"502","address1":"Mangrulpir","address2":"","latitude":"20.2504","longitude":"77.5286","accuracy":"4"},{"address3":"Karli","state":"Maharashtra","state_code":"16","district":"Washim","district_code":"502","address1":"Mangrulpir","address2":"","latitude":"20.2313","longitude":"77.6211","accuracy":"4"},{"address3":"Vitholi","state":"Maharashtra","state_code":"16","district":"Washim","district_code":"502","address1":"Mangrulpir","address2":"","latitude":"20.1954","longitude":"77.5734","accuracy":"4"},{"address3":"Shendona","state":"Maharashtra","state_code":"16","district":"Washim","district_code":"502","address1":"Mangrulpir","address2":"","latitude":"20.3689","longitude":"77.6558","accuracy":"3"},{"address3":"Talap BK","state":"Maharashtra","state_code":"16","district":"Washim","district_code":"502","address1":"Mangrulpir","address2":"","latitude":"20.3689","longitude":"77.6558","accuracy":"3"},{"address3":"Waigual","state":"Maharashtra","state_code":"16","district":"Washim","district_code":"502","address1":"Mangrulpir","address2":"","latitude":"20.3689","longitude":"77.6558","accuracy":"3"},{"address3":"Inzori","state":"Maharashtra","state_code":"16","district":"Washim","district_code":"502","address1":"Mangrulpir","address2":"","latitude":"20.3689","longitude":"77.6558","accuracy":"3"},{"address3":"Dhawanda","state":"Maharashtra","state_code":"16","district":"Washim","district_code":"502","address1":"Mangrulpir","address2":"","latitude":"20.3689","longitude":"77.6558","accuracy":"3"}],"444405":[{"address3":"Hatola","state":"Maharashtra","state_code":"16","district":"Akola","district_code":"501","address1":"Akola","address2":"","latitude":"20.5071","longitude":"77.1993","accuracy":"4"},{"address3":"Jamakeshwar","state":"Maharashtra","state_code":"16","district":"Akola","district_code":"501","address1":"Akola","address2":"","latitude":"20.4911","longitude":"77.1853","accuracy":"3"},{"address3":"Mahan","state":"Maharashtra","state_code":"16","district":"Akola","district_code":"501","address1":"Akola","address2":"","latitude":"20.4969","longitude":"77.1617","accuracy":"4"},{"address3":"Kothali","state":"Maharashtra","state_code":"16","district":"Akola","district_code":"501","address1":"Akola","address2":"","latitude":"20.4627","longitude":"77.1326","accuracy":"4"},{"address3":"Zodga","state":"Maharashtra","state_code":"16","district":"Akola","district_code":"501","address1":"Akola","address2":"","latitude":"20.4911","longitude":"77.1853","accuracy":"3"},{"address3":"Januna","state":"Maharashtra","state_code":"16","district":"Akola","district_code":"501","address1":"Akola","address2":"","latitude":"20.4977","longitude":"77.2474","accuracy":"4"},{"address3":"Wagha","state":"Maharashtra","state_code":"16","district":"Akola","district_code":"501","address1":"Akola","address2":"","latitude":"20.4911","longitude":"77.1853","accuracy":"3"},{"address3":"Titwa","state":"Maharashtra","state_code":"16","district":"Akola","district_code":"501","address1":"Akola","address2":"","latitude":"20.4911","longitude":"77.1853","accuracy":"3"}],"444407":[{"address3":"Patur Nandapur","state":"Maharashtra","state_code":"16","district":"Akola","district_code":"501","address1":"Akola","address2":"","latitude":"20.602","longitude":"77.2776","accuracy":"4"},{"address3":"Bhendi Mahal","state":"Maharashtra","state_code":"16","district":"Akola","district_code":"501","address1":"Akola","address2":"","latitude":"20.5791","longitude":"77.2425","accuracy":"3"},{"address3":"Rahit","state":"Maharashtra","state_code":"16","district":"Akola","district_code":"501","address1":"Akola","address2":"","latitude":"20.5876","longitude":"77.1883","accuracy":"4"},{"address3":"Borgaon KD","state":"Maharashtra","state_code":"16","district":"Akola","district_code":"501","address1":"Akola","address2":"","latitude":"20.5791","longitude":"77.2425","accuracy":"3"},{"address3":"Pinjar","state":"Maharashtra","state_code":"16","district":"Akola","district_code":"501","address1":"Akola","address2":"","latitude":"20.5476","longitude":"77.2616","accuracy":"4"},{"address3":"Kherda Bhagai","state":"Maharashtra","state_code":"16","district":"Akola","district_code":"501","address1":"Akola","address2":"","latitude":"20.5791","longitude":"77.2425","accuracy":"3"}],"444409":[{"address3":"Asegaon","state":"Maharashtra","state_code":"16","district":"Washim","district_code":"502","address1":"Mangrulpir","address2":"","latitude":"20.1526","longitude":"77.3347","accuracy":"4"},{"address3":"Arak","state":"Maharashtra","state_code":"16","district":"Washim","district_code":"502","address1":"NA","address2":"","latitude":"20.3016","longitude":"77.2761","accuracy":"4"},{"address3":"Falegaon","state":"Maharashtra","state_code":"16","district":"Washim","district_code":"502","address1":"NA","address2":"","latitude":"20.2271","longitude":"77.3054","accuracy":"3"},{"address3":"Dhanora KD","state":"Maharashtra","state_code":"16","district":"Washim","district_code":"502","address1":"NA","address2":"","latitude":"20.2271","longitude":"77.3054","accuracy":"3"},{"address3":"Wara Jahangir","state":"Maharashtra","state_code":"16","district":"Washim","district_code":"502","address1":"NA","address2":"","latitude":"20.2271","longitude":"77.3054","accuracy":"3"},{"address3":"Kalamba Bodkhe","state":"Maharashtra","state_code":"16","district":"Washim","district_code":"502","address1":"NA","address2":"","latitude":"20.2271","longitude":"77.3054","accuracy":"3"}],"444501":[{"address3":"Malrajura","state":"Maharashtra","state_code":"16","district":"Akola","district_code":"501","address1":"Akola","address2":"","latitude":"20.5778","longitude":"77.4406","accuracy":"3"},{"address3":"Babhulgaon","state":"Maharashtra","state_code":"16","district":"Akola","district_code":"501","address1":"Akola","address2":"","latitude":"20.7051","longitude":"77.0858","accuracy":"4"},{"address3":"Digras","state":"Maharashtra","state_code":"16","district":"Akola","district_code":"501","address1":"Akola","address2":"","latitude":"20.7489","longitude":"77.0533","accuracy":"4"},{"address3":"Shirla Andhare","state":"Maharashtra","state_code":"16","district":"Akola","district_code":"501","address1":"Akola","address2":"","latitude":"20.5778","longitude":"77.4406","accuracy":"3"},{"address3":"Bhandaraj","state":"Maharashtra","state_code":"16","district":"Akola","district_code":"501","address1":"Akola","address2":"","latitude":"20.7489","longitude":"77.0533","accuracy":"4"},{"address3":"Umara Balapur","state":"Maharashtra","state_code":"16","district":"Akola","district_code":"501","address1":"Akola","address2":"","latitude":"20.5778","longitude":"77.4406","accuracy":"3"},{"address3":"Tulanga BK","state":"Maharashtra","state_code":"16","district":"Akola","district_code":"501","address1":"Akola","address2":"","latitude":"20.5778","longitude":"77.4406","accuracy":"3"},{"address3":"Patur","state":"Maharashtra","state_code":"16","district":"Akola","district_code":"501","address1":"Akola","address2":"","latitude":"20.4609","longitude":"76.9372","accuracy":"4"},{"address3":"Channi","state":"Maharashtra","state_code":"16","district":"Akola","district_code":"501","address1":"Akola","address2":"","latitude":"20.5778","longitude":"77.4406","accuracy":"3"},{"address3":"Tandali","state":"Maharashtra","state_code":"16","district":"Akola","district_code":"501","address1":"Akola","address2":"","latitude":"20.5778","longitude":"77.4406","accuracy":"3"},{"address3":"Deulgaon Bramhan","state":"Maharashtra","state_code":"16","district":"Akola","district_code":"501","address1":"Akola","address2":"","latitude":"20.5778","longitude":"77.4406","accuracy":"3"},{"address3":"Sawargaon","state":"Maharashtra","state_code":"16","district":"Akola","district_code":"501","address1":"Akola","address2":"","latitude":"21.0294","longitude":"77.0984","accuracy":"4"},{"address3":"Gawandgaon","state":"Maharashtra","state_code":"16","district":"Akola","district_code":"501","address1":"Akola","address2":"","latitude":"20.5778","longitude":"77.4406","accuracy":"3"},{"address3":"Chatari","state":"Maharashtra","state_code":"16","district":"Akola","district_code":"501","address1":"Akola","address2":"","latitude":"20.7489","longitude":"77.0533","accuracy":"4"},{"address3":"Khetri","state":"Maharashtra","state_code":"16","district":"Akola","district_code":"501","address1":"Akola","address2":"","latitude":"20.5778","longitude":"77.4406","accuracy":"3"},{"address3":"Pimpalkhuta","state":"Maharashtra","state_code":"16","district":"Akola","district_code":"501","address1":"Akola","address2":"","latitude":"20.6007","longitude":"77.0866","accuracy":"4"},{"address3":"Malsoor","state":"Maharashtra","state_code":"16","district":"Akola","district_code":"501","address1":"Akola","address2":"","latitude":"20.5778","longitude":"77.4406","accuracy":"3"},{"address3":"Sasti","state":"Maharashtra","state_code":"16","district":"Akola","district_code":"501","address1":"Akola","address2":"","latitude":"20.7489","longitude":"77.0533","accuracy":"4"},{"address3":"Khanapur","state":"Maharashtra","state_code":"16","district":"Akola","district_code":"501","address1":"NA","address2":"","latitude":"20.7902","longitude":"77.023","accuracy":"4"}],"444502":[{"address3":"Vadegaon","state":"Maharashtra","state_code":"16","district":"Akola","district_code":"501","address1":"Akola","address2":"","latitude":"20.7329","longitude":"78.45","accuracy":"3"},{"address3":"Degaon","state":"Maharashtra","state_code":"16","district":"Akola","district_code":"501","address1":"Akola","address2":"","latitude":"20.7489","longitude":"77.0533","accuracy":"4"}],"444503":[{"address3":"Dongarkinhi","state":"Maharashtra","state_code":"16","district":"Washim","district_code":"502","address1":"Washim","address2":"","latitude":"20.277","longitude":"77.4568","accuracy":"3"},{"address3":"Medshi","state":"Maharashtra","state_code":"16","district":"Washim","district_code":"502","address1":"Washim","address2":"","latitude":"20.277","longitude":"77.4568","accuracy":"3"},{"address3":"Yekamba","state":"Maharashtra","state_code":"16","district":"Washim","district_code":"502","address1":"Washim","address2":"","latitude":"20.0738","longitude":"77.3409","accuracy":"4"},{"address3":"Anchal","state":"Maharashtra","state_code":"16","district":"Washim","district_code":"502","address1":"Washim","address2":"","latitude":"20.277","longitude":"77.4568","accuracy":"3"},{"address3":"Amkheda","state":"Maharashtra","state_code":"16","district":"Washim","district_code":"502","address1":"Washim","address2":"","latitude":"20.2456","longitude":"77.0932","accuracy":"4"},{"address3":"Nandhana","state":"Maharashtra","state_code":"16","district":"Washim","district_code":"502","address1":"Washim","address2":"","latitude":"20.277","longitude":"77.4568","accuracy":"3"},{"address3":"Rajura","state":"Maharashtra","state_code":"16","district":"Washim","district_code":"502","address1":"Washim","address2":"","latitude":"20.2376","longitude":"77.219","accuracy":"4"},{"address3":"Pangra Bandi","state":"Maharashtra","state_code":"16","district":"Washim","district_code":"502","address1":"Washim","address2":"","latitude":"20.277","longitude":"77.4568","accuracy":"3"},{"address3":"Pangri Navghare","state":"Maharashtra","state_code":"16","district":"Washim","district_code":"502","address1":"Washim","address2":"","latitude":"20.2191","longitude":"77.0482","accuracy":"4"},{"address3":"Kenwad","state":"Maharashtra","state_code":"16","district":"Washim","district_code":"502","address1":"Washim","address2":"","latitude":"20.277","longitude":"77.4568","accuracy":"3"},{"address3":"Dawha","state":"Maharashtra","state_code":"16","district":"Washim","district_code":"502","address1":"Washim","address2":"","latitude":"20.2376","longitude":"77.219","accuracy":"4"},{"address3":"Mungla","state":"Maharashtra","state_code":"16","district":"Washim","district_code":"502","address1":"Washim","address2":"","latitude":"20.277","longitude":"77.4568","accuracy":"3"},{"address3":"Malegaon","state":"Maharashtra","state_code":"16","district":"Washim","district_code":"502","address1":"Washim","address2":"","latitude":"20.1817","longitude":"77.1885","accuracy":"4"},{"address3":"Kiniraja","state":"Maharashtra","state_code":"16","district":"Washim","district_code":"502","address1":"Washim","address2":"","latitude":"20.277","longitude":"77.4568","accuracy":"3"},{"address3":"Kalambeshwar","state":"Maharashtra","state_code":"16","district":"Washim","district_code":"502","address1":"Washim","address2":"","latitude":"20.277","longitude":"77.4568","accuracy":"3"},{"address3":"Pangri Kute","state":"Maharashtra","state_code":"16","district":"Washim","district_code":"502","address1":"Washim","address2":"","latitude":"20.277","longitude":"77.4568","accuracy":"3"},{"address3":"Jaulka","state":"Maharashtra","state_code":"16","district":"Washim","district_code":"502","address1":"Washim","address2":"","latitude":"20.2978","longitude":"77.0764","accuracy":"4"},{"address3":"Amana","state":"Maharashtra","state_code":"16","district":"Washim","district_code":"502","address1":"Washim","address2":"","latitude":"20.277","longitude":"77.4568","accuracy":"3"},{"address3":"Marsul","state":"Maharashtra","state_code":"16","district":"Washim","district_code":"502","address1":"Washim","address2":"","latitude":"20.2376","longitude":"77.219","accuracy":"4"},{"address3":"Nagardas","state":"Maharashtra","state_code":"16","district":"Washim","district_code":"502","address1":"Washim","address2":"","latitude":"20.2581","longitude":"77.0153","accuracy":"4"}],"444504":[{"address3":"Chinchambapen","state":"Maharashtra","state_code":"16","district":"Washim","district_code":"502","address1":"Washim","address2":"","latitude":"20.2141","longitude":"77.3985","accuracy":"3"},{"address3":"Sirpur","state":"Maharashtra","state_code":"16","district":"Washim","district_code":"502","address1":"Washim","address2":"","latitude":"20.1698","longitude":"76.9574","accuracy":"4"},{"address3":"Wasari","state":"Maharashtra","state_code":"16","district":"Washim","district_code":"502","address1":"Washim","address2":"","latitude":"20.2376","longitude":"77.219","accuracy":"4"},{"address3":"Lehani","state":"Maharashtra","state_code":"16","district":"Washim","district_code":"502","address1":"Washim","address2":"","latitude":"20.2141","longitude":"77.3985","accuracy":"3"},{"address3":"Yeota","state":"Maharashtra","state_code":"16","district":"Washim","district_code":"502","address1":"Washim","address2":"","latitude":"20.2376","longitude":"77.219","accuracy":"4"},{"address3":"Tiwali","state":"Maharashtra","state_code":"16","district":"Washim","district_code":"502","address1":"Washim","address2":"","latitude":"20.2141","longitude":"77.3985","accuracy":"3"},{"address3":"Gowardhan","state":"Maharashtra","state_code":"16","district":"Washim","district_code":"502","address1":"Washim","address2":"","latitude":"20.2376","longitude":"77.219","accuracy":"3"},{"address3":"Navali","state":"Maharashtra","state_code":"16","district":"Washim","district_code":"502","address1":"Washim","address2":"","latitude":"20.2141","longitude":"77.3985","accuracy":"3"},{"address3":"Karanji","state":"Maharashtra","state_code":"16","district":"Washim","district_code":"502","address1":"Washim","address2":"","latitude":"20.1659","longitude":"77.0042","accuracy":"4"},{"address3":"Masalapen","state":"Maharashtra","state_code":"16","district":"Washim","district_code":"502","address1":"Washim","address2":"","latitude":"20.2141","longitude":"77.3985","accuracy":"3"},{"address3":"Netansa","state":"Maharashtra","state_code":"16","district":"Washim","district_code":"502","address1":"Washim","address2":"","latitude":"20.2141","longitude":"77.3985","accuracy":"3"},{"address3":"Mangrulzanak","state":"Maharashtra","state_code":"16","district":"Washim","district_code":"502","address1":"Washim","address2":"","latitude":"20.2141","longitude":"77.3985","accuracy":"3"},{"address3":"Linga Kotwal","state":"Maharashtra","state_code":"16","district":"Washim","district_code":"502","address1":"Washim","address2":"","latitude":"20.2141","longitude":"77.3985","accuracy":"3"},{"address3":"Keshavnagar","state":"Maharashtra","state_code":"16","district":"Washim","district_code":"502","address1":"Washim","address2":"","latitude":"20.2141","longitude":"77.3985","accuracy":"3"},{"address3":"Khandala Shinde","state":"Maharashtra","state_code":"16","district":"Washim","district_code":"502","address1":"Washim","address2":"","latitude":"20.2141","longitude":"77.3985","accuracy":"3"},{"address3":"Gobhani","state":"Maharashtra","state_code":"16","district":"Washim","district_code":"502","address1":"Washim","address2":"","latitude":"20.2141","longitude":"77.3985","accuracy":"3"}],"444505":[{"address3":"Kalamba Mahali","state":"Maharashtra","state_code":"16","district":"Washim","district_code":"502","address1":"Washim","address2":"","latitude":"20.1402","longitude":"77.2015","accuracy":"4"},{"address3":"Yeranda","state":"Maharashtra","state_code":"16","district":"Washim","district_code":"502","address1":"Washim","address2":"","latitude":"20.2376","longitude":"77.219","accuracy":"4"},{"address3":"Bhatumra","state":"Maharashtra","state_code":"16","district":"Washim","district_code":"502","address1":"Washim","address2":"","latitude":"20.1565","longitude":"77.1159","accuracy":"3"},{"address3":"Ukali Jahangir","state":"Maharashtra","state_code":"16","district":"Washim","district_code":"502","address1":"Washim","address2":"","latitude":"20.1565","longitude":"77.1159","accuracy":"3"},{"address3":"Mohoja","state":"Maharashtra","state_code":"16","district":"Washim","district_code":"502","address1":"Washim","address2":"","latitude":"20.0664","longitude":"77.0164","accuracy":"4"},{"address3":"Washim","state":"Maharashtra","state_code":"16","district":"Washim","district_code":"502","address1":"Washim","address2":"","latitude":"20.1113","longitude":"77.133","accuracy":"4"},{"address3":"Washim City","state":"Maharashtra","state_code":"16","district":"Washim","district_code":"502","address1":"Washim","address2":"","latitude":"20.1565","longitude":"77.1159","accuracy":"3"},{"address3":"Kekatumara","state":"Maharashtra","state_code":"16","district":"Washim","district_code":"502","address1":"Washim","address2":"","latitude":"20.1565","longitude":"77.1159","accuracy":"3"},{"address3":"Tondgaon","state":"Maharashtra","state_code":"16","district":"Washim","district_code":"502","address1":"Washim","address2":"","latitude":"19.998","longitude":"77.1148","accuracy":"4"},{"address3":"Kajalamba","state":"Maharashtra","state_code":"16","district":"Washim","district_code":"502","address1":"Washim","address2":"","latitude":"20.1565","longitude":"77.1159","accuracy":"3"},{"address3":"Tamsi","state":"Maharashtra","state_code":"16","district":"Washim","district_code":"502","address1":"Washim","address2":"","latitude":"20.1419","longitude":"77.0639","accuracy":"4"},{"address3":"Tandali BK","state":"Maharashtra","state_code":"16","district":"Washim","district_code":"502","address1":"Washim","address2":"","latitude":"20.1565","longitude":"77.1159","accuracy":"3"},{"address3":"Chivara","state":"Maharashtra","state_code":"16","district":"Washim","district_code":"502","address1":"Washim","address2":"","latitude":"20.1703","longitude":"77.034","accuracy":"4"},{"address3":"Pardi Takmore","state":"Maharashtra","state_code":"16","district":"Washim","district_code":"502","address1":"Washim","address2":"","latitude":"20.1565","longitude":"77.1159","accuracy":"3"},{"address3":"Dhumka","state":"Maharashtra","state_code":"16","district":"Washim","district_code":"502","address1":"Washim","address2":"","latitude":"20.029","longitude":"77.1681","accuracy":"4"},{"address3":"Tandali Shewai","state":"Maharashtra","state_code":"16","district":"Washim","district_code":"502","address1":"Washim","address2":"","latitude":"20.1565","longitude":"77.1159","accuracy":"3"},{"address3":"Kata","state":"Maharashtra","state_code":"16","district":"Washim","district_code":"502","address1":"Washim","address2":"","latitude":"20.1624","longitude":"77.1136","accuracy":"4"},{"address3":"Soyata","state":"Maharashtra","state_code":"16","district":"Washim","district_code":"502","address1":"Washim","address2":"","latitude":"20.1565","longitude":"77.1159","accuracy":"3"},{"address3":"Karli","state":"Maharashtra","state_code":"16","district":"Washim","district_code":"502","address1":"Washim","address2":"","latitude":"20.2563","longitude":"77.1614","accuracy":"4"},{"address3":"Kokalgaon","state":"Maharashtra","state_code":"16","district":"Washim","district_code":"502","address1":"Washim","address2":"","latitude":"19.9709","longitude":"77.0863","accuracy":"4"},{"address3":"Tornala","state":"Maharashtra","state_code":"16","district":"Washim","district_code":"502","address1":"Washim","address2":"","latitude":"20.2196","longitude":"77.1609","accuracy":"4"}],"444506":[{"address3":"Bhar","state":"Maharashtra","state_code":"16","district":"Akola","district_code":"501","address1":"Akola","address2":"","latitude":"20.7489","longitude":"77.0533","accuracy":"4"},{"address3":"Wakad","state":"Maharashtra","state_code":"16","district":"Washim","district_code":"502","address1":"Washim","address2":"","latitude":"20.1377","longitude":"77.0448","accuracy":"4"},{"address3":"Loni Sm","state":"Maharashtra","state_code":"16","district":"Washim","district_code":"502","address1":"Washim","address2":"","latitude":"20.0593","longitude":"76.8659","accuracy":"3"},{"address3":"Risod","state":"Maharashtra","state_code":"16","district":"Washim","district_code":"502","address1":"Washim","address2":"","latitude":"19.9767","longitude":"76.788","accuracy":"4"},{"address3":"Sawad","state":"Maharashtra","state_code":"16","district":"Washim","district_code":"502","address1":"Washim","address2":"","latitude":"19.9843","longitude":"76.824","accuracy":"4"},{"address3":"Shelukhadse","state":"Maharashtra","state_code":"16","district":"Washim","district_code":"502","address1":"Washim","address2":"","latitude":"20.0593","longitude":"76.8659","accuracy":"3"},{"address3":"Mahagaon","state":"Maharashtra","state_code":"16","district":"Washim","district_code":"502","address1":"Washim","address2":"","latitude":"20.5304","longitude":"77.3524","accuracy":"4"},{"address3":"Chinchamba Bhar","state":"Maharashtra","state_code":"16","district":"Washim","district_code":"502","address1":"Washim","address2":"","latitude":"20.0593","longitude":"76.8659","accuracy":"3"},{"address3":"Mandwa","state":"Maharashtra","state_code":"16","district":"Washim","district_code":"502","address1":"Washim","address2":"","latitude":"19.8949","longitude":"76.6848","accuracy":"4"},{"address3":"Kawatha Naik","state":"Maharashtra","state_code":"16","district":"Washim","district_code":"502","address1":"Washim","address2":"","latitude":"20.0593","longitude":"76.8659","accuracy":"3"},{"address3":"Mop","state":"Maharashtra","state_code":"16","district":"Washim","district_code":"502","address1":"Washim","address2":"","latitude":"19.9517","longitude":"76.6555","accuracy":"4"},{"address3":"Mothegaon","state":"Maharashtra","state_code":"16","district":"Washim","district_code":"502","address1":"Washim","address2":"","latitude":"20.0593","longitude":"76.8659","accuracy":"3"}],"444507":[{"address3":"Pardi Asra","state":"Maharashtra","state_code":"16","district":"Washim","district_code":"502","address1":"NA","address2":"","latitude":"20.1687","longitude":"77.3536","accuracy":"3"},{"address3":"Umara Shamshuddin","state":"Maharashtra","state_code":"16","district":"Washim","district_code":"502","address1":"NA","address2":"","latitude":"20.1687","longitude":"77.3536","accuracy":"3"},{"address3":"Jaipur","state":"Maharashtra","state_code":"16","district":"Washim","district_code":"502","address1":"NA","address2":"","latitude":"20.546","longitude":"77.4806","accuracy":"4"},{"address3":"Warala","state":"Maharashtra","state_code":"16","district":"Washim","district_code":"502","address1":"NA","address2":"","latitude":"20.1687","longitude":"77.3536","accuracy":"3"},{"address3":"Sawali","state":"Maharashtra","state_code":"16","district":"Washim","district_code":"502","address1":"NA","address2":"","latitude":"19.9538","longitude":"77.2784","accuracy":"4"},{"address3":"Pimpalgaon","state":"Maharashtra","state_code":"16","district":"Washim","district_code":"502","address1":"NA","address2":"","latitude":"20.1341","longitude":"77.3402","accuracy":"4"},{"address3":"Ansing","state":"Maharashtra","state_code":"16","district":"Washim","district_code":"502","address1":"Washim","address2":"","latitude":"20.0409","longitude":"77.315","accuracy":"4"}],"444510":[{"address3":"Chikhali","state":"Maharashtra","state_code":"16","district":"Washim","district_code":"502","address1":"Washim","address2":"","latitude":"20.2376","longitude":"77.219","accuracy":"3"},{"address3":"Yeoti","state":"Maharashtra","state_code":"16","district":"Washim","district_code":"502","address1":"Washim","address2":"","latitude":"20.2376","longitude":"77.219","accuracy":"4"},{"address3":"Nagthana","state":"Maharashtra","state_code":"16","district":"Washim","district_code":"502","address1":"Washim","address2":"","latitude":"20.2376","longitude":"77.219","accuracy":"4"},{"address3":"Sawargaon Jire","state":"Maharashtra","state_code":"16","district":"Washim","district_code":"502","address1":"Washim","address2":"","latitude":"20.1904","longitude":"77.3217","accuracy":"3"},{"address3":"Hivara Rohila","state":"Maharashtra","state_code":"16","district":"Washim","district_code":"502","address1":"Washim","address2":"","latitude":"20.1904","longitude":"77.3217","accuracy":"3"},{"address3":"Vyad","state":"Maharashtra","state_code":"16","district":"Washim","district_code":"502","address1":"Washim","address2":"","latitude":"19.985","longitude":"76.9131","accuracy":"4"},{"address3":"Rithad","state":"Maharashtra","state_code":"16","district":"Washim","district_code":"502","address1":"Washim","address2":"","latitude":"20.053","longitude":"76.9795","accuracy":"4"},{"address3":"Koyali","state":"Maharashtra","state_code":"16","district":"Washim","district_code":"502","address1":"Washim","address2":"","latitude":"20.1904","longitude":"77.3217","accuracy":"3"},{"address3":"Assegaon Pen","state":"Maharashtra","state_code":"16","district":"Washim","district_code":"502","address1":"Washim","address2":"","latitude":"20.1904","longitude":"77.3217","accuracy":"3"},{"address3":"Adoli","state":"Maharashtra","state_code":"16","district":"Washim","district_code":"502","address1":"Washim","address2":"","latitude":"20.0369","longitude":"77.0563","accuracy":"4"},{"address3":"Haral","state":"Maharashtra","state_code":"16","district":"Washim","district_code":"502","address1":"Washim","address2":"","latitude":"19.9774","longitude":"76.8694","accuracy":"4"}],"444511":[{"address3":"Alegaon","state":"Maharashtra","state_code":"16","district":"Akola","district_code":"501","address1":"Akola","address2":"","latitude":"20.4021","longitude":"76.8416","accuracy":"4"},{"address3":"Charangaon","state":"Maharashtra","state_code":"16","district":"Akola","district_code":"501","address1":"NA","address2":"","latitude":"20.5583","longitude":"76.5564","accuracy":"3"},{"address3":"Vivra","state":"Maharashtra","state_code":"16","district":"Akola","district_code":"501","address1":"NA","address2":"","latitude":"20.7489","longitude":"77.0533","accuracy":"4"},{"address3":"Chondhi","state":"Maharashtra","state_code":"16","district":"Akola","district_code":"501","address1":"NA","address2":"","latitude":"20.7489","longitude":"77.0533","accuracy":"4"}],"444601":[{"address3":"Amravati H.O","state":"Maharashtra","state_code":"16","district":"Amravati","district_code":"503","address1":"Amravati","address2":"","latitude":"20.9142","longitude":"77.7597","accuracy":"3"},{"address3":"Bhaji Bazar Amravati","state":"Maharashtra","state_code":"16","district":"Amravati","district_code":"503","address1":"Amravati","address2":"","latitude":"20.9142","longitude":"77.7597","accuracy":"3"},{"address3":"Rajapeth","state":"Maharashtra","state_code":"16","district":"Amravati","district_code":"503","address1":"Amravati","address2":"","latitude":"20.9142","longitude":"77.7597","accuracy":"4"},{"address3":"Ambapeth","state":"Maharashtra","state_code":"16","district":"Amravati","district_code":"503","address1":"NA","address2":"","latitude":"20.9142","longitude":"77.7597","accuracy":"3"},{"address3":"Walgaon Road Tso Amravati","state":"Maharashtra","state_code":"16","district":"Amravati","district_code":"503","address1":"Amravati","address2":"","latitude":"20.9142","longitude":"77.7597","accuracy":"3"},{"address3":"Old Cotton Market","state":"Maharashtra","state_code":"16","district":"Amravati","district_code":"503","address1":"Amravati","address2":"","latitude":"20.9142","longitude":"77.7597","accuracy":"3"}],"444602":[{"address3":"Sayat","state":"Maharashtra","state_code":"16","district":"Amravati","district_code":"503","address1":"NA","address2":"","latitude":"20.8142","longitude":"77.5053","accuracy":"3"},{"address3":"Kawatha","state":"Maharashtra","state_code":"16","district":"Amravati","district_code":"503","address1":"NA","address2":"","latitude":"21.1878","longitude":"77.572","accuracy":"4"},{"address3":"Kathora","state":"Maharashtra","state_code":"16","district":"Amravati","district_code":"503","address1":"Amravati","address2":"","latitude":"21.1878","longitude":"77.572","accuracy":"4"},{"address3":"Nimbha","state":"Maharashtra","state_code":"16","district":"Amravati","district_code":"503","address1":"NA","address2":"","latitude":"20.9207","longitude":"77.6303","accuracy":"4"},{"address3":"Amravati Camp","state":"Maharashtra","state_code":"16","district":"Amravati","district_code":"503","address1":"NA","address2":"","latitude":"20.8142","longitude":"77.5053","accuracy":"3"},{"address3":"Khalkoni","state":"Maharashtra","state_code":"16","district":"Amravati","district_code":"503","address1":"NA","address2":"","latitude":"20.8142","longitude":"77.5053","accuracy":"3"},{"address3":"Wadgaon Mahore","state":"Maharashtra","state_code":"16","district":"Amravati","district_code":"503","address1":"NA","address2":"","latitude":"20.8142","longitude":"77.5053","accuracy":"3"},{"address3":"Paplam","state":"Maharashtra","state_code":"16","district":"Amravati","district_code":"503","address1":"NA","address2":"","latitude":"20.8142","longitude":"77.5053","accuracy":"3"},{"address3":"Rahatgaon","state":"Maharashtra","state_code":"16","district":"Amravati","district_code":"503","address1":"NA","address2":"","latitude":"20.9749","longitude":"77.778","accuracy":"4"},