{"445001":[{"address3":"Govt Poly (Yavatmal)","state":"Maharashtra","state_code":"16","district":"Yavatmal","district_code":"510","address1":"Yavatmal","address2":"","latitude":"20.7045","longitude":"77.8924","accuracy":"3"},{"address3":"Asegaon Devi","state":"Maharashtra","state_code":"16","district":"Yavatmal","district_code":"510","address1":"Yavatmal","address2":"","latitude":"20.0839","longitude":"78.1622","accuracy":"4"},{"address3":"Chhoti Gujri (Yavatmal)","state":"Maharashtra","state_code":"16","district":"Yavatmal","district_code":"510","address1":"Yavatmal","address2":"","latitude":"20.7045","longitude":"77.8924","accuracy":"3"},{"address3":"Karalgaon","state":"Maharashtra","state_code":"16","district":"Yavatmal","district_code":"510","address1":"Yavatmal","address2":"","latitude":"20.483","longitude":"78.1306","accuracy":"4"},{"address3":"Awdhutwadi (Yavatma)l","state":"Maharashtra","state_code":"16","district":"Yavatmal","district_code":"510","address1":"Yavatmal","address2":"","latitude":"20.7045","longitude":"77.8924","accuracy":"3"},{"address3":"Moha","state":"Maharashtra","state_code":"16","district":"Yavatmal","district_code":"510","address1":"Yavatmal","address2":"","latitude":"20.0839","longitude":"78.1622","accuracy":"3"},{"address3":"Yavatmal Town","state":"Maharashtra","state_code":"16","district":"Yavatmal","district_code":"510","address1":"Yavatmal","address2":"","latitude":"20.7045","longitude":"77.8924","accuracy":"3"},{"address3":"Asola","state":"Maharashtra","state_code":"16","district":"Yavatmal","district_code":"510","address1":"Yavatmal","address2":"","latitude":"20.5029","longitude":"77.9711","accuracy":"4"},{"address3":"Tilakwadi (Yavatmal)","state":"Maharashtra","state_code":"16","district":"Yavatmal","district_code":"510","address1":"Yavatmal","address2":"","latitude":"20.7045","longitude":"77.8924","accuracy":"3"},{"address3":"Kapra Methad","state":"Maharashtra","state_code":"16","district":"Yavatmal","district_code":"510","address1":"Yavatmal","address2":"","latitude":"20.7045","longitude":"77.8924","accuracy":"3"},{"address3":"Postal Colony (Yavatmal)","state":"Maharashtra","state_code":"16","district":"Yavatmal","district_code":"510","address1":"Yavatmal","address2":"","latitude":"20.7045","longitude":"77.8924","accuracy":"3"},{"address3":"Sawar","state":"Maharashtra","state_code":"16","district":"Yavatmal","district_code":"510","address1":"Yavatmal","address2":"","latitude":"20.7045","longitude":"77.8924","accuracy":"3"},{"address3":"Yavatmal H.O","state":"Maharashtra","state_code":"16","district":"Yavatmal","district_code":"510","address1":"Yavatmal","address2":"","latitude":"20.7045","longitude":"77.8924","accuracy":"3"}],"445002":[{"address3":"Bhosa","state":"Maharashtra","state_code":"16","district":"Yavatmal","district_code":"510","address1":"Yavatmal","address2":"","latitude":"20.3753","longitude":"78.1506","accuracy":"4"},{"address3":"Chinchghat","state":"Maharashtra","state_code":"16","district":"Yavatmal","district_code":"510","address1":"Yavatmal","address2":"","latitude":"20.3114","longitude":"78.2473","accuracy":"4"},{"address3":"Umarsara","state":"Maharashtra","state_code":"16","district":"Yavatmal","district_code":"510","address1":"Yavatmal","address2":"","latitude":"20.3679","longitude":"78.15","accuracy":"3"},{"address3":"Yawali","state":"Maharashtra","state_code":"16","district":"Yavatmal","district_code":"510","address1":"Yavatmal","address2":"","latitude":"20.3679","longitude":"78.15","accuracy":"3"},{"address3":"Kinhi","state":"Maharashtra","state_code":"16","district":"Yavatmal","district_code":"510","address1":"Yavatmal","address2":"","latitude":"20.3449","longitude":"78.0839","accuracy":"4"},{"address3":"Borgaon","state":"Maharashtra","state_code":"16","district":"Yavatmal","district_code":"510","address1":"Yavatmal","address2":"","latitude":"20.3783","longitude":"77.9598","accuracy":"4"},{"address3":"Sawargad","state":"Maharashtra","state_code":"16","district":"Yavatmal","district_code":"510","address1":"Yavatmal","address2":"","latitude":"20.3679","longitude":"78.15","accuracy":"3"},{"address3":"Zillla Parishad (Yavatmal)","state":"Maharashtra","state_code":"16","district":"Yavatmal","district_code":"510","address1":"Yavatmal","address2":"","latitude":"20.3679","longitude":"78.15","accuracy":"3"},{"address3":"Madkona","state":"Maharashtra","state_code":"16","district":"Yavatmal","district_code":"510","address1":"Yavatmal","address2":"","latitude":"20.4039","longitude":"78.2186","accuracy":"4"},{"address3":"Bhari","state":"Maharashtra","state_code":"16","district":"Yavatmal","district_code":"510","address1":"Yavatmal","address2":"","latitude":"20.3866","longitude":"78.1991","accuracy":"4"},{"address3":"M.I.D.C.","state":"Maharashtra","state_code":"16","district":"Yavatmal","district_code":"510","address1":"Yavatmal","address2":"","latitude":"20.3679","longitude":"78.15","accuracy":"3"},{"address3":"Waghapur","state":"Maharashtra","state_code":"16","district":"Yavatmal","district_code":"510","address1":"Yavatmal","address2":"","latitude":"20.3679","longitude":"78.15","accuracy":"3"},{"address3":"Lasina","state":"Maharashtra","state_code":"16","district":"Yavatmal","district_code":"510","address1":"Yavatmal","address2":"","latitude":"20.4064","longitude":"78.0203","accuracy":"4"},{"address3":"Jamb","state":"Maharashtra","state_code":"16","district":"Yavatmal","district_code":"510","address1":"Yavatmal","address2":"","latitude":"20.323","longitude":"78.1065","accuracy":"4"},{"address3":"Murzadi","state":"Maharashtra","state_code":"16","district":"Yavatmal","district_code":"510","address1":"Yavatmal","address2":"","latitude":"20.3679","longitude":"78.15","accuracy":"3"},{"address3":"Wadgaon Road","state":"Maharashtra","state_code":"16","district":"Yavatmal","district_code":"510","address1":"Yavatmal","address2":"","latitude":"20.3679","longitude":"78.15","accuracy":"3"},{"address3":"Ghodkhindi","state":"Maharashtra","state_code":"16","district":"Yavatmal","district_code":"510","address1":"Yavatmal","address2":"","latitude":"20.3022","longitude":"78.1637","accuracy":"4"},{"address3":"Jodmoha","state":"Maharashtra","state_code":"16","district":"Yavatmal","district_code":"510","address1":"Kalamb","address2":"","latitude":"20.3167","longitude":"78.2967","accuracy":"4"},{"address3":"Nanza","state":"Maharashtra","state_code":"16","district":"Yavatmal","district_code":"510","address1":"Kalamb","address2":"","latitude":"20.3679","longitude":"78.15","accuracy":"3"},{"address3":"Talegaon","state":"Maharashtra","state_code":"16","district":"Yavatmal","district_code":"510","address1":"Yavatmal","address2":"","latitude":"20.3625","longitude":"78.212","accuracy":"4"},{"address3":"Lohara","state":"Maharashtra","state_code":"16","district":"Yavatmal","district_code":"510","address1":"Yavatmal","address2":"","latitude":"20.3898","longitude":"78.0903","accuracy":"4"},{"address3":"Wadgaon P.S.","state":"Maharashtra","state_code":"16","district":"Yavatmal","district_code":"510","address1":"Yavatmal","address2":"","latitude":"20.3679","longitude":"78.15","accuracy":"3"},{"address3":"Madni","state":"Maharashtra","state_code":"16","district":"Yavatmal","district_code":"510","address1":"Babhulgaon","address2":"","latitude":"20.4812","longitude":"78.2015","accuracy":"4"}],"445101":[{"address3":"Pachkhed","state":"Maharashtra","state_code":"16","district":"Yavatmal","district_code":"510","address1":"Babhulgaon","address2":"","latitude":"20.5249","longitude":"78.3255","accuracy":"3"},{"address3":"Dighi","state":"Maharashtra","state_code":"16","district":"Yavatmal","district_code":"510","address1":"Babhulgaon","address2":"","latitude":"20.0839","longitude":"78.1622","accuracy":"4"},{"address3":"Sarul","state":"Maharashtra","state_code":"16","district":"Yavatmal","district_code":"510","address1":"Babhulgaon","address2":"","latitude":"20.646","longitude":"78.1477","accuracy":"4"},{"address3":"Babhulgaon","state":"Maharashtra","state_code":"16","district":"Yavatmal","district_code":"510","address1":"Babhulgaon","address2":"","latitude":"20.0839","longitude":"78.1622","accuracy":"4"},{"address3":"Watkhed","state":"Maharashtra","state_code":"16","district":"Yavatmal","district_code":"510","address1":"Babhulgaon","address2":"","latitude":"20.5249","longitude":"78.3255","accuracy":"3"},{"address3":"Kotamba","state":"Maharashtra","state_code":"16","district":"Yavatmal","district_code":"510","address1":"Babhulgaon","address2":"","latitude":"20.5095","longitude":"78.2035","accuracy":"4"},{"address3":"Pimpalkhuta","state":"Maharashtra","state_code":"16","district":"Yavatmal","district_code":"510","address1":"Babhulgaon","address2":"","latitude":"20.6391","longitude":"78.0334","accuracy":"4"},{"address3":"Kharda","state":"Maharashtra","state_code":"16","district":"Yavatmal","district_code":"510","address1":"Babhulgaon","address2":"","latitude":"20.6201","longitude":"78.1714","accuracy":"4"},{"address3":"Veni Kasba","state":"Maharashtra","state_code":"16","district":"Yavatmal","district_code":"510","address1":"Babhulgaon","address2":"","latitude":"20.5249","longitude":"78.3255","accuracy":"3"},{"address3":"Ganori","state":"Maharashtra","state_code":"16","district":"Yavatmal","district_code":"510","address1":"Babhulgaon","address2":"","latitude":"20.5312","longitude":"78.1656","accuracy":"4"},{"address3":"Naigaon","state":"Maharashtra","state_code":"16","district":"Yavatmal","district_code":"510","address1":"Babhulgaon","address2":"","latitude":"20.0875","longitude":"78.9844","accuracy":"4"},{"address3":"Veni (Kotha)","state":"Maharashtra","state_code":"16","district":"Yavatmal","district_code":"510","address1":"Kalamb","address2":"","latitude":"20.5249","longitude":"78.3255","accuracy":"3"},{"address3":"Ashti","state":"Maharashtra","state_code":"16","district":"Yavatmal","district_code":"510","address1":"Kalamb","address2":"","latitude":"20.4865","longitude":"78.2665","accuracy":"4"},{"address3":"Rani Amravati","state":"Maharashtra","state_code":"16","district":"Yavatmal","district_code":"510","address1":"Babhulgaon","address2":"","latitude":"20.5249","longitude":"78.3255","accuracy":"3"},{"address3":"Pahur (Dabha)","state":"Maharashtra","state_code":"16","district":"Yavatmal","district_code":"510","address1":"Babhulgaon","address2":"","latitude":"20.5249","longitude":"78.3255","accuracy":"3"},{"address3":"Pardi (Sawlapur)","state":"Maharashtra","state_code":"16","district":"Yavatmal","district_code":"510","address1":"Kalamb","address2":"","latitude":"20.5249","longitude":"78.3255","accuracy":"3"},{"address3":"Dabha (Pahur)","state":"Maharashtra","state_code":"16","district":"Yavatmal","district_code":"510","address1":"Babhulgaon","address2":"","latitude":"20.5249","longitude":"78.3255","accuracy":"3"},{"address3":"Falegaon","state":"Maharashtra","state_code":"16","district":"Yavatmal","district_code":"510","address1":"Babhulgaon","address2":"","latitude":"20.5249","longitude":"78.3255","accuracy":"3"},{"address3":"Gharfal","state":"Maharashtra","state_code":"16","district":"Yavatmal","district_code":"510","address1":"Babhulgaon","address2":"","latitude":"20.5249","longitude":"78.3255","accuracy":"3"}],"445102":[{"address3":"Brahmanwada","state":"Maharashtra","state_code":"16","district":"Yavatmal","district_code":"510","address1":"Ner Persopant","address2":"","latitude":"20.0839","longitude":"78.1622","accuracy":"4"},{"address3":"Watfali","state":"Maharashtra","state_code":"16","district":"Yavatmal","district_code":"510","address1":"Ner Persopant","address2":"","latitude":"20.556","longitude":"77.7853","accuracy":"3"},{"address3":"Manikwada","state":"Maharashtra","state_code":"16","district":"Yavatmal","district_code":"510","address1":"Ner Persopant","address2":"","latitude":"20.0839","longitude":"78.1622","accuracy":"4"},{"address3":"Sirasgaon Pandhari","state":"Maharashtra","state_code":"16","district":"Yavatmal","district_code":"510","address1":"Ner Persopant","address2":"","latitude":"20.556","longitude":"77.7853","accuracy":"3"},{"address3":"Malked Khurd","state":"Maharashtra","state_code":"16","district":"Yavatmal","district_code":"510","address1":"Ner Persopant","address2":"","latitude":"20.556","longitude":"77.7853","accuracy":"3"},{"address3":"Uttarwadhona","state":"Maharashtra","state_code":"16","district":"Yavatmal","district_code":"510","address1":"Ner Persopant","address2":"","latitude":"20.556","longitude":"77.7853","accuracy":"3"},{"address3":"Kolura","state":"Maharashtra","state_code":"16","district":"Yavatmal","district_code":"510","address1":"Ner Persopant","address2":"","latitude":"20.4715","longitude":"77.8955","accuracy":"4"},{"address3":"Malkhed BK","state":"Maharashtra","state_code":"16","district":"Yavatmal","district_code":"510","address1":"Ner Persopant","address2":"","latitude":"20.556","longitude":"77.7853","accuracy":"3"},{"address3":"Ajanti","state":"Maharashtra","state_code":"16","district":"Yavatmal","district_code":"510","address1":"Ner Persopant","address2":"","latitude":"20.5088","longitude":"77.8191","accuracy":"4"},{"address3":"Chikhali Domga","state":"Maharashtra","state_code":"16","district":"Yavatmal","district_code":"510","address1":"Ner Persopant","address2":"","latitude":"20.556","longitude":"77.7853","accuracy":"3"},{"address3":"Kharadgaon","state":"Maharashtra","state_code":"16","district":"Yavatmal","district_code":"510","address1":"Nr Persopant","address2":"","latitude":"20.5614","longitude":"77.6742","accuracy":"4"},{"address3":"Chikhali Kanhoba","state":"Maharashtra","state_code":"16","district":"Yavatmal","district_code":"510","address1":"Ner Persopant","address2":"","latitude":"20.556","longitude":"77.7853","accuracy":"3"},{"address3":"Ner Parsopant","state":"Maharashtra","state_code":"16","district":"Yavatmal","district_code":"510","address1":"Ner Parsopant","address2":"","latitude":"20.4897","longitude":"77.8663","accuracy":"4"},{"address3":"Pimpri Kalga","state":"Maharashtra","state_code":"16","district":"Yavatmal","district_code":"510","address1":"Yavatmal","address2":"","latitude":"20.556","longitude":"77.7853","accuracy":"3"},{"address3":"Bangaon","state":"Maharashtra","state_code":"16","district":"Yavatmal","district_code":"510","address1":"Ner Persopant","address2":"","latitude":"20.4408","longitude":"77.7938","accuracy":"4"},{"address3":"Patharot","state":"Maharashtra","state_code":"16","district":"Yavatmal","district_code":"510","address1":"Ner Persopant","address2":"","latitude":"20.556","longitude":"77.7853","accuracy":"3"},{"address3":"Mozar","state":"Maharashtra","state_code":"16","district":"Yavatmal","district_code":"510","address1":"Ner Persopant","address2":"","latitude":"20.556","longitude":"77.7853","accuracy":"3"},{"address3":"Mangala Devi","state":"Maharashtra","state_code":"16","district":"Yavatmal","district_code":"510","address1":"Ner Persopant","address2":"","latitude":"20.556","longitude":"77.7853","accuracy":"3"}],"445103":[{"address3":"Sukli","state":"Maharashtra","state_code":"16","district":"Yavatmal","district_code":"510","address1":"Arni","address2":"","latitude":"19.6417","longitude":"77.6889","accuracy":"4"},{"address3":"Arni","state":"Maharashtra","state_code":"16","district":"Yavatmal","district_code":"510","address1":"Arni","address2":"","latitude":"20.0621","longitude":"77.9517","accuracy":"4"},{"address3":"Rani Dhanora","state":"Maharashtra","state_code":"16","district":"Yavatmal","district_code":"510","address1":"Arni","address2":"","latitude":"19.9593","longitude":"78.0908","accuracy":"3"},{"address3":"Dabhadi","state":"Maharashtra","state_code":"16","district":"Yavatmal","district_code":"510","address1":"Arni","address2":"","latitude":"19.9241","longitude":"78.7471","accuracy":"4"},{"address3":"Chikhli Izara","state":"Maharashtra","state_code":"16","district":"Yavatmal","district_code":"510","address1":"Arni","address2":"","latitude":"19.9593","longitude":"78.0908","accuracy":"3"},{"address3":"Sakur","state":"Maharashtra","state_code":"16","district":"Yavatmal","district_code":"510","address1":"Arni","address2":"","latitude":"20.2094","longitude":"77.9755","accuracy":"4"},{"address3":"Borgaon Vitholi","state":"Maharashtra","state_code":"16","district":"Yavatmal","district_code":"510","address1":"Arni","address2":"","latitude":"19.9593","longitude":"78.0908","accuracy":"3"},{"address3":"Kawatha Bazar","state":"Maharashtra","state_code":"16","district":"Yavatmal","district_code":"510","address1":"Arni","address2":"","latitude":"19.9593","longitude":"78.0908","accuracy":"3"},{"address3":"Lonbehel","state":"Maharashtra","state_code":"16","district":"Yavatmal","district_code":"510","address1":"Arni","address2":"","latitude":"19.9593","longitude":"78.0908","accuracy":"3"},{"address3":"Sheloo","state":"Maharashtra","state_code":"16","district":"Yavatmal","district_code":"510","address1":"Arni","address2":"","latitude":"19.9593","longitude":"78.0908","accuracy":"3"},{"address3":"Mahalungi","state":"Maharashtra","state_code":"16","district":"Yavatmal","district_code":"510","address1":"Arni","address2":"","latitude":"19.9593","longitude":"78.0908","accuracy":"3"}],"445105":[{"address3":"Hiwari","state":"Maharashtra","state_code":"16","district":"Yavatmal","district_code":"510","address1":"Yavatmal","address2":"","latitude":"20.1659","longitude":"78.0364","accuracy":"3"},{"address3":"Loni","state":"Maharashtra","state_code":"16","district":"Yavatmal","district_code":"510","address1":"Darwha","address2":"","latitude":"20.1897","longitude":"77.9304","accuracy":"4"},{"address3":"Rui","state":"Maharashtra","state_code":"16","district":"Yavatmal","district_code":"510","address1":"Yavatmal","address2":"","latitude":"20.1676","longitude":"78.058","accuracy":"4"},{"address3":"Jawala (Yavatmal)","state":"Maharashtra","state_code":"16","district":"Yavatmal","district_code":"510","address1":"Arni","address2":"","latitude":"20.1659","longitude":"78.0364","accuracy":"3"},{"address3":"Bhamb Raja","state":"Maharashtra","state_code":"16","district":"Yavatmal","district_code":"510","address1":"Yavatmal","address2":"","latitude":"20.1659","longitude":"78.0364","accuracy":"3"},{"address3":"Belora","state":"Maharashtra","state_code":"16","district":"Yavatmal","district_code":"510","address1":"Yavatmal","address2":"","latitude":"20.0133","longitude":"78.0666","accuracy":"4"},{"address3":"Nakapardi","state":"Maharashtra","state_code":"16","district":"Yavatmal","district_code":"510","address1":"Arni","address2":"","latitude":"20.1659","longitude":"78.0364","accuracy":"3"},{"address3":"Arjuna","state":"Maharashtra","state_code":"16","district":"Yavatmal","district_code":"510","address1":"Yavatmal","address2":"","latitude":"20.3221","longitude":"78.068","accuracy":"4"},{"address3":"Mhasola","state":"Maharashtra","state_code":"16","district":"Yavatmal","district_code":"510","address1":"Yavatmal","address2":"","latitude":"20.1368","longitude":"78.059","accuracy":"4"}],"445106":[{"address3":"Palsi","state":"Maharashtra","state_code":"16","district":"Yavatmal","district_code":"510","address1":"Arni","address2":"","latitude":"19.6507","longitude":"77.6048","accuracy":"4"},{"address3":"Datodi","state":"Maharashtra","state_code":"16","district":"Yavatmal","district_code":"510","address1":"Arni","address2":"","latitude":"19.9111","longitude":"78.0699","accuracy":"4"},{"address3":"Umri Kap","state":"Maharashtra","state_code":"16","district":"Yavatmal","district_code":"510","address1":"Arni","address2":"","latitude":"19.8394","longitude":"77.9289","accuracy":"3"},{"address3":"Sawali Sadoba","state":"Maharashtra","state_code":"16","district":"Yavatmal","district_code":"510","address1":"Arni","address2":"","latitude":"19.9564","longitude":"78.1121","accuracy":"4"},{"address3":"Ayata","state":"Maharashtra","state_code":"16","district":"Yavatmal","district_code":"510","address1":"Arni","address2":"","latitude":"19.8394","longitude":"77.9289","accuracy":"3"},{"address3":"Bhansara","state":"Maharashtra","state_code":"16","district":"Yavatmal","district_code":"510","address1":"Arni","address2":"","latitude":"19.8394","longitude":"77.9289","accuracy":"3"}],"445109":[{"address3":"Salod","state":"Maharashtra","state_code":"16","district":"Yavatmal","district_code":"510","address1":"Yavatmal","address2":"","latitude":"20.0839","longitude":"78.1622","accuracy":"4"},{"address3":"Kolambi","state":"Maharashtra","state_code":"16","district":"Yavatmal","district_code":"510","address1":"Yavatmal","address2":"","latitude":"20.2522","longitude":"78.1648","accuracy":"4"},{"address3":"Akola Bazar","state":"Maharashtra","state_code":"16","district":"Yavatmal","district_code":"510","address1":"Ghatanji","address2":"","latitude":"20.1667","longitude":"78.1494","accuracy":"4"},{"address3":"Pardi Naskari","state":"Maharashtra","state_code":"16","district":"Yavatmal","district_code":"510","address1":"Ghatanji","address2":"","latitude":"20.0427","longitude":"78.1297","accuracy":"4"},{"address3":"Pahur Naskari","state":"Maharashtra","state_code":"16","district":"Yavatmal","district_code":"510","address1":"Arni","address2":"","latitude":"20.2286","longitude":"78.0712","accuracy":"3"},{"address3":"Talni","state":"Maharashtra","state_code":"16","district":"Yavatmal","district_code":"510","address1":"Arni","address2":"","latitude":"20.0925","longitude":"78.1446","accuracy":"4"},{"address3":"Pimpri Buti","state":"Maharashtra","state_code":"16","district":"Yavatmal","district_code":"510","address1":"Ghatanji","address2":"","latitude":"20.2286","longitude":"78.0712","accuracy":"3"}],"445110":[{"address3":"Khedbid","state":"Maharashtra","state_code":"16","district":"Yavatmal","district_code":"510","address1":"Arni","address2":"","latitude":"20.1648","longitude":"77.8738","accuracy":"3"},{"address3":"Gondegaon","state":"Maharashtra","state_code":"16","district":"Yavatmal","district_code":"510","address1":"Darwha","address2":"","latitude":"20.2803","longitude":"77.8024","accuracy":"4"},{"address3":"Daheli","state":"Maharashtra","state_code":"16","district":"Yavatmal","district_code":"510","address1":"Darwha","address2":"","latitude":"19.9601","longitude":"78.0352","accuracy":"4"},{"address3":"Mahagaon Kasba","state":"Maharashtra","state_code":"16","district":"Yavatmal","district_code":"510","address1":"Darwha","address2":"","latitude":"20.1648","longitude":"77.8738","accuracy":"3"},{"address3":"Mohatoli","state":"Maharashtra","state_code":"16","district":"Yavatmal","district_code":"510","address1":"Darwha","address2":"","latitude":"20.1648","longitude":"77.8738","accuracy":"3"},{"address3":"Haru","state":"Maharashtra","state_code":"16","district":"Yavatmal","district_code":"510","address1":"Darwha","address2":"","latitude":"20.2661","longitude":"77.8239","accuracy":"4"},{"address3":"Arambhi","state":"Maharashtra","state_code":"16","district":"Yavatmal","district_code":"510","address1":"Digras","address2":"","latitude":"20.1525","longitude":"77.8339","accuracy":"4"},{"address3":"Deurwadi Lad","state":"Maharashtra","state_code":"16","district":"Yavatmal","district_code":"510","address1":"Darwha","address2":"","latitude":"20.1648","longitude":"77.8738","accuracy":"3"}],"445201":[{"address3":"Kamathwada","state":"Maharashtra","state_code":"16","district":"Yavatmal","district_code":"510","address1":"Yavatmal","address2":"","latitude":"19.9283","longitude":"77.5185","accuracy":"3"},{"address3":"Bori Arab","state":"Maharashtra","state_code":"16","district":"Yavatmal","district_code":"510","address1":"Darwha","address2":"","latitude":"20.3489","longitude":"77.8634","accuracy":"4"},{"address3":"Ladkhed","state":"Maharashtra","state_code":"16","district":"Yavatmal","district_code":"510","address1":"Darwha","address2":"","latitude":"20.3452","longitude":"77.916","accuracy":"4"},{"address3":"Tiwasa","state":"Maharashtra","state_code":"16","district":"Yavatmal","district_code":"510","address1":"Yavatmal","address2":"","latitude":"19.9283","longitude":"77.5185","accuracy":"3"},{"address3":"Jawalgaon","state":"Maharashtra","state_code":"16","district":"Yavatmal","district_code":"510","address1":"Ner Parsopant","address2":"","latitude":"20.0839","longitude":"78.1622","accuracy":"4"},{"address3":"Wadgaon Gadhwe","state":"Maharashtra","state_code":"16","district":"Yavatmal","district_code":"510","address1":"Darwha","address2":"","latitude":"19.9283","longitude":"77.5185","accuracy":"3"},{"address3":"Shelodi","state":"Maharashtra","state_code":"16","district":"Yavatmal","district_code":"510","address1":"Darwha","address2":"","latitude":"20.3319","longitude":"77.8184","accuracy":"4"},{"address3":"Chikani","state":"Maharashtra","state_code":"16","district":"Yavatmal","district_code":"510","address1":"Yavatmal","address2":"","latitude":"19.9283","longitude":"77.5185","accuracy":"3"},{"address3":"Borgaon (Linga )","state":"Maharashtra","state_code":"16","district":"Yavatmal","district_code":"510","address1":"Ner Parsopant","address2":"","latitude":"19.9283","longitude":"77.5185","accuracy":"3"},{"address3":"Mozar Izara","state":"Maharashtra","state_code":"16","district":"Yavatmal","district_code":"510","address1":"Darwha","address2":"","latitude":"19.9283","longitude":"77.5185","accuracy":"3"}],"445202":[{"address3":"Chikhali Ramnath","state":"Maharashtra","state_code":"16","district":"Yavatmal","district_code":"510","address1":"Darwha","address2":"","latitude":"20.3518","longitude":"77.6873","accuracy":"3"},{"address3":"Bhulai","state":"Maharashtra","state_code":"16","district":"Yavatmal","district_code":"510","address1":"Darwha","address2":"","latitude":"20.3393","longitude":"77.7074","accuracy":"4"},{"address3":"Dhamangaon Deo","state":"Maharashtra","state_code":"16","district":"Yavatmal","district_code":"510","address1":"Darwha","address2":"","latitude":"20.3518","longitude":"77.6873","accuracy":"3"},{"address3":"Talegaon Deshmukh","state":"Maharashtra","state_code":"16","district":"Yavatmal","district_code":"510","address1":"Darwha","address2":"","latitude":"20.3837","longitude":"77.7525","accuracy":"4"},{"address3":"Karajgaon","state":"Maharashtra","state_code":"16","district":"Yavatmal","district_code":"510","address1":"Darwha","address2":"","latitude":"20.3592","longitude":"77.6375","accuracy":"4"},{"address3":"Fubgaon Kharbi","state":"Maharashtra","state_code":"16","district":"Yavatmal","district_code":"510","address1":"Darwha","address2":"","latitude":"20.3518","longitude":"77.6873","accuracy":"3"},{"address3":"Darwha","state":"Maharashtra","state_code":"16","district":"Yavatmal","district_code":"510","address1":"Darwha","address2":"","latitude":"20.3102","longitude":"77.7726","accuracy":"4"},{"address3":"Khopadi BK","state":"Maharashtra","state_code":"16","district":"Yavatmal","district_code":"510","address1":"Darwha","address2":"","latitude":"20.3518","longitude":"77.6873","accuracy":"3"},{"address3":"Ramgaon Rameshwar","state":"Maharashtra","state_code":"16","district":"Yavatmal","district_code":"510","address1":"Darwha","address2":"","latitude":"20.3995","longitude":"77.5979","accuracy":"4"},{"address3":"Lakh Khind","state":"Maharashtra","state_code":"16","district":"Yavatmal","district_code":"510","address1":"Darwha","address2":"","latitude":"20.3518","longitude":"77.6873","accuracy":"3"},{"address3":"Mang Kinhi","state":"Maharashtra","state_code":"16","district":"Yavatmal","district_code":"510","address1":"Darwha","address2":"","latitude":"20.3089","longitude":"77.6542","accuracy":"4"},{"address3":"Pimpalkhuta (R)","state":"Maharashtra","state_code":"16","district":"Yavatmal","district_code":"510","address1":"Darwha","address2":"","latitude":"20.3518","longitude":"77.6873","accuracy":"3"},{"address3":"Bhandegaon","state":"Maharashtra","state_code":"16","district":"Yavatmal","district_code":"510","address1":"Darwha","address2":"","latitude":"20.3621","longitude":"77.6889","accuracy":"4"},{"address3":"Shendri (Bk) B..","state":"Maharashtra","state_code":"16","district":"Yavatmal","district_code":"510","address1":"Darwha","address2":"","latitude":"20.3518","longitude":"77.6873","accuracy":"3"}],"445203":[{"address3":"Digras","state":"Maharashtra","state_code":"16","district":"Yavatmal","district_code":"510","address1":"Digras","address2":"","latitude":"20.1035","longitude":"77.7185","accuracy":"4"},{"address3":"Dehni","state":"Maharashtra","state_code":"16","district":"Yavatmal","district_code":"510","address1":"Digras","address2":"","latitude":"20.0168","longitude":"77.8322","accuracy":"4"},{"address3":"Tuptakli","state":"Maharashtra","state_code":"16","district":"Yavatmal","district_code":"510","address1":"Digras","address2":"","latitude":"20.2376","longitude":"77.7356","accuracy":"3"},{"address3":"Deurwada","state":"Maharashtra","state_code":"16","district":"Yavatmal","district_code":"510","address1":"Digras","address2":"","latitude":"20.0839","longitude":"78.1622","accuracy":"4"},{"address3":"Vasant Nagar","state":"Maharashtra","state_code":"16","district":"Yavatmal","district_code":"510","address1":"Digras","address2":"","latitude":"20.2376","longitude":"77.7356","accuracy":"3"},{"address3":"Vithala","state":"Maharashtra","state_code":"16","district":"Yavatmal","district_code":"510","address1":"Digras","address2":"","latitude":"20.0299","longitude":"77.7474","accuracy":"4"},{"address3":"Kandali","state":"Maharashtra","state_code":"16","district":"Yavatmal","district_code":"510","address1":"Digras","address2":"","latitude":"20.2376","longitude":"77.7356","accuracy":"3"},{"address3":"Harsul","state":"Maharashtra","state_code":"16","district":"Yavatmal","district_code":"510","address1":"Digras","address2":"","latitude":"20.1906","longitude":"77.6755","accuracy":"4"},{"address3":"Lakh Rayachi","state":"Maharashtra","state_code":"16","district":"Yavatmal","district_code":"510","address1":"Digras","address2":"","latitude":"20.2376","longitude":"77.7356","accuracy":"3"},{"address3":"Kalgaon","state":"Maharashtra","state_code":"16","district":"Yavatmal","district_code":"510","address1":"Digras","address2":"","latitude":"20.0448","longitude":"77.834","accuracy":"4"},{"address3":"Mal Hivara","state":"Maharashtra","state_code":"16","district":"Yavatmal","district_code":"510","address1":"Digras","address2":"","latitude":"20.2376","longitude":"77.7356","accuracy":"3"},{"address3":"Singad","state":"Maharashtra","state_code":"16","district":"Yavatmal","district_code":"510","address1":"Digras","address2":"","latitude":"20.0466","longitude":"77.642","accuracy":"4"},{"address3":"Sakhara Wai","state":"Maharashtra","state_code":"16","district":"Yavatmal","district_code":"510","address1":"Digras","address2":"","latitude":"20.2376","longitude":"77.7356","accuracy":"3"},{"address3":"Mokh","state":"Maharashtra","state_code":"16","district":"Yavatmal","district_code":"510","address1":"Digras","address2":"","latitude":"20.1666","longitude":"77.7266","accuracy":"4"},{"address3":"Tiwari","state":"Maharashtra","state_code":"16","district":"Yavatmal","district_code":"510","address1":"Digras","address2":"","latitude":"20.2376","longitude":"77.7356","accuracy":"3"}],"445204":[{"address3":"Kondri","state":"Maharashtra","state_code":"16","district":"Yavatmal","district_code":"510","address1":"Mahagaon","address2":"","latitude":"20.0455","longitude":"77.4458","accuracy":"3"},{"address3":"Pedhi","state":"Maharashtra","state_code":"16","district":"Yavatmal","district_code":"510","address1":"Mahagaon","address2":"","latitude":"20.0839","longitude":"78.1622","accuracy":"4"},{"address3":"Bansi","state":"Maharashtra","state_code":"16","district":"Yavatmal","district_code":"510","address1":"Pusad","address2":"","latitude":"19.9945","longitude":"77.5368","accuracy":"4"},{"address3":"Brahmangaon","state":"Maharashtra","state_code":"16","district":"Yavatmal","district_code":"510","address1":"Pusad","address2":"","latitude":"20.0276","longitude":"77.411","accuracy":"4"},{"address3":"Jamni Dhundi","state":"Maharashtra","state_code":"16","district":"Yavatmal","district_code":"510","address1":"Pusad","address2":"","latitude":"20.0455","longitude":"77.4458","accuracy":"3"},{"address3":"Hiwara","state":"Maharashtra","state_code":"16","district":"Yavatmal","district_code":"510","address1":"Mahagaon","address2":"","latitude":"20.0839","longitude":"78.1622","accuracy":"4"},{"address3":"Gahuli","state":"Maharashtra","state_code":"16","district":"Yavatmal","district_code":"510","address1":"Pusad","address2":"","latitude":"20.0414","longitude":"77.5375","accuracy":"4"},{"address3":"Parwa","state":"Maharashtra","state_code":"16","district":"Yavatmal","district_code":"510","address1":"Pusad","address2":"","latitude":"19.991","longitude":"78.3297","accuracy":"4"},{"address3":"Lewa","state":"Maharashtra","state_code":"16","district":"Yavatmal","district_code":"510","address1":"Pusad","address2":"","latitude":"20.0455","longitude":"77.4458","accuracy":"3"},{"address3":"Mokhad","state":"Maharashtra","state_code":"16","district":"Yavatmal","district_code":"510","address1":"Pusad","address2":"","latitude":"20.0839","longitude":"78.1622","accuracy":"4"},{"address3":"Wanwarla","state":"Maharashtra","state_code":"16","district":"Yavatmal","district_code":"510","address1":"Pusad","address2":"","latitude":"19.9925","longitude":"77.4745","accuracy":"4"},{"address3":"Mohadi","state":"Maharashtra","state_code":"16","district":"Yavatmal","district_code":"510","address1":"Mahagaon","address2":"","latitude":"20.0839","longitude":"78.1622","accuracy":"4"},{"address3":"Pohandul","state":"Maharashtra","state_code":"16","district":"Yavatmal","district_code":"510","address1":"Mahagaon","address2":"","latitude":"20.0455","longitude":"77.4458","accuracy":"3"},{"address3":"Moha","state":"Maharashtra","state_code":"16","district":"Yavatmal","district_code":"510","address1":"Pusad","address2":"","latitude":"20.0839","longitude":"78.1622","accuracy":"4"},{"address3":"Jamb Bazar","state":"Maharashtra","state_code":"16","district":"Yavatmal","district_code":"510","address1":"Pusad","address2":"","latitude":"20.0455","longitude":"77.4458","accuracy":"3"},{"address3":"Bhojla","state":"Maharashtra","state_code":"16","district":"Yavatmal","district_code":"510","address1":"Pusad","address2":"","latitude":"19.9533","longitude":"77.5349","accuracy":"4"},{"address3":"Chikhali Camp","state":"Maharashtra","state_code":"16","district":"Yavatmal","district_code":"510","address1":"Pusad","address2":"","latitude":"20.0455","longitude":"77.4458","accuracy":"3"},{"address3":"Bhandari","state":"Maharashtra","state_code":"16","district":"Yavatmal","district_code":"510","address1":"Pusad","address2":"","latitude":"19.899","longitude":"77.7872","accuracy":"4"},{"address3":"Kali Daulat Khan","state":"Maharashtra","state_code":"16","district":"Yavatmal","district_code":"510","address1":"Pusad","address2":"","latitude":"20.0455","longitude":"77.4458","accuracy":"3"},{"address3":"Pophali","state":"Maharashtra","state_code":"16","district":"Yavatmal","district_code":"510","address1":"Pusad","address2":"","latitude":"19.683","longitude":"77.6081","accuracy":"4"},{"address3":"Kasola","state":"Maharashtra","state_code":"16","district":"Yavatmal","district_code":"510","address1":"Mahagaon","address2":"","latitude":"20.0455","longitude":"77.4458","accuracy":"3"},{"address3":"Pusad","state":"Maharashtra","state_code":"16","district":"Yavatmal","district_code":"510","address1":"Pusad","address2":"","latitude":"19.9127","longitude":"77.5784","accuracy":"4"}],"445205":[{"address3":"Hudi","state":"Maharashtra","state_code":"16","district":"Yavatmal","district_code":"510","address1":"Pusad","address2":"","latitude":"19.8717","longitude":"77.6275","accuracy":"4"},{"address3":"Sawana","state":"Maharashtra","state_code":"16","district":"Yavatmal","district_code":"510","address1":"Mahagaon","address2":"","latitude":"19.9019","longitude":"77.6197","accuracy":"3"},{"address3":"Mahagaon (Yavatmal)","state":"Maharashtra","state_code":"16","district":"Yavatmal","district_code":"510","address1":"Mahagaon","address2":"","latitude":"19.9019","longitude":"77.6197","accuracy":"3"},{"address3":"Mudana","state":"Maharashtra","state_code":"16","district":"Yavatmal","district_code":"510","address1":"Mahagaon","address2":"","latitude":"19.7523","longitude":"77.752","accuracy":"4"},{"address3":"Gunj","state":"Maharashtra","state_code":"16","district":"Yavatmal","district_code":"510","address1":"Mahagaon","address2":"","latitude":"20.0839","longitude":"78.1622","accuracy":"4"},{"address3":"Wadad","state":"Maharashtra","state_code":"16","district":"Yavatmal","district_code":"510","address1":"Mahagaon","address2":"","latitude":"19.9898","longitude":"77.6605","accuracy":"4"},{"address3":"Morath","state":"Maharashtra","state_code":"16","district":"Yavatmal","district_code":"510","address1":"Mahagaon","address2":"","latitude":"19.7928","longitude":"77.7038","accuracy":"4"},{"address3":"Kanha","state":"Maharashtra","state_code":"16","district":"Yavatmal","district_code":"510","address1":"Mahagaon","address2":"","latitude":"19.8445","longitude":"77.666","accuracy":"4"},{"address3":"Amboda","state":"Maharashtra","state_code":"16","district":"Yavatmal","district_code":"510","address1":"Mahagaon","address2":"","latitude":"19.8213","longitude":"77.7825","accuracy":"4"}],"445206":[{"address3":"Sukli Jehangir","state":"Maharashtra","state_code":"16","district":"Yavatmal","district_code":"510","address1":"Umerkhed","address2":"","latitude":"19.6425","longitude":"77.6878","accuracy":"3"},{"address3":"Belkhed","state":"Maharashtra","state_code":"16","district":"Yavatmal","district_code":"510","address1":"Umerkhed","address2":"","latitude":"20.0839","longitude":"78.1622","accuracy":"4"},{"address3":"Dhanora Sachaldev","state":"Maharashtra","state_code":"16","district":"Yavatmal","district_code":"510","address1":"Umerkhed","address2":"","latitude":"19.6425","longitude":"77.6878","accuracy":"3"},{"address3":"Umarkhed","state":"Maharashtra","state_code":"16","district":"Yavatmal","district_code":"510","address1":"Umarkhed","address2":"","latitude":"19.6014","longitude":"77.6888","accuracy":"4"},{"address3":"Vidul","state":"Maharashtra","state_code":"16","district":"Yavatmal","district_code":"510","address1":"Umerkhed","address2":"","latitude":"19.5682","longitude":"77.7536","accuracy":"4"},{"address3":"Brahmangaon","state":"Maharashtra","state_code":"16","district":"Yavatmal","district_code":"510","address1":"Umerkhed","address2":"","latitude":"19.5099","longitude":"77.8046","accuracy":"4"},{"address3":"Kharus BK","state":"Maharashtra","state_code":"16","district":"Yavatmal","district_code":"510","address1":"Umerkhed","address2":"","latitude":"19.6425","longitude":"77.6878","accuracy":"3"},{"address3":"Chatari","state":"Maharashtra","state_code":"16","district":"Yavatmal","district_code":"510","address1":"Umerkhed","address2":"","latitude":"19.4684","longitude":"77.7998","accuracy":"4"},{"address3":"Deosari","state":"Maharashtra","state_code":"16","district":"Yavatmal","district_code":"510","address1":"Umerkhed","address2":"","latitude":"19.4436","longitude":"77.7193","accuracy":"4"},{"address3":"Marsul","state":"Maharashtra","state_code":"16","district":"Yavatmal","district_code":"510","address1":"Umerkhed","address2":"","latitude":"19.6463","longitude":"77.6631","accuracy":"4"},{"address3":"Marlegaon","state":"Maharashtra","state_code":"16","district":"Yavatmal","district_code":"510","address1":"Umerkhed","address2":"","latitude":"19.5469","longitude":"77.6853","accuracy":"4"}],"445207":[{"address3":"Dhanki (Yavatmal)","state":"Maharashtra","state_code":"16","district":"Yavatmal","district_code":"510","address1":"Umerkhed","address2":"","latitude":"19.5699","longitude":"77.8466","accuracy":"4"},{"address3":"Bittergaon","state":"Maharashtra","state_code":"16","district":"Yavatmal","district_code":"510","address1":"Umarkhed","address2":"","latitude":"19.5771","longitude":"77.9374","accuracy":"3"},{"address3":"Krishnapur","state":"Maharashtra","state_code":"16","district":"Yavatmal","district_code":"510","address1":"Umarkhed","address2":"","latitude":"19.6011","longitude":"77.8163","accuracy":"4"},{"address3":"Darati","state":"Maharashtra","state_code":"16","district":"Yavatmal","district_code":"510","address1":"Umarkhed","address2":"","latitude":"19.6208","longitude":"78.1181","accuracy":"4"},{"address3":"Jeoli","state":"Maharashtra","state_code":"16","district":"Yavatmal","district_code":"510","address1":"Umarkhed","address2":"","latitude":"19.5238","longitude":"78.0013","accuracy":"4"},{"address3":"Korta","state":"Maharashtra","state_code":"16","district":"Yavatmal","district_code":"510","address1":"Umarkhed","address2":"","latitude":"19.5771","longitude":"77.9374","accuracy":"3"},{"address3":"Akoli","state":"Maharashtra","state_code":"16","district":"Yavatmal","district_code":"510","address1":"Umarkhed","address2":"","latitude":"19.5699","longitude":"77.9048","accuracy":"4"}],"445209":[{"address3":"Shembal Pimpri","state":"Maharashtra","state_code":"16","district":"Yavatmal","district_code":"510","address1":"Pusad","address2":"","latitude":"19.9821","longitude":"77.6328","accuracy":"1"},{"address3":"Issapur","state":"Maharashtra","state_code":"16","district":"Yavatmal","district_code":"510","address1":"Pusad","address2":"","latitude":"19.9821","longitude":"77.6328","accuracy":"1"},{"address3":"Sawargaon Bunglow","state":"Maharashtra","state_code":"16","district":"Yavatmal","district_code":"510","address1":"Pusad","address2":"","latitude":"19.9821","longitude":"77.6328","accuracy":"1"},{"address3":"Lohara Izara","state":"Maharashtra","state_code":"16","district":"Yavatmal","district_code":"510","address1":"Pusad","address2":"","latitude":"19.9821","longitude":"77.6328","accuracy":"1"}],"445210":[{"address3":"Lohi","state":"Maharashtra","state_code":"16","district":"Yavatmal","district_code":"510","address1":"Darwha","address2":"","latitude":"20.4368","longitude":"77.6604","accuracy":"4"},{"address3":"Satefal","state":"Maharashtra","state_code":"16","district":"Yavatmal","district_code":"510","address1":"Nerparsopant","address2":"","latitude":"20.2712","longitude":"77.9733","accuracy":"3"},{"address3":"Hatola","state":"Maharashtra","state_code":"16","district":"Yavatmal","district_code":"510","address1":"Darwha","address2":"","latitude":"20.4334","longitude":"77.6331","accuracy":"4"},{"address3":"Tarnoli","state":"Maharashtra","state_code":"16","district":"Yavatmal","district_code":"510","address1":"Darwha","address2":"","latitude":"20.419","longitude":"77.7017","accuracy":"4"},{"address3":"Adegaon","state":"Maharashtra","state_code":"16","district":"Yavatmal","district_code":"510","address1":"Ner Parsopant","address2":"","latitude":"19.7958","longitude":"78.898","accuracy":"4"}],"445211":[{"address3":"Palsi","state":"Maharashtra","state_code":"16","district":"Yavatmal","district_code":"510","address1":"Umerkhed","address2":"","latitude":"19.6507","longitude":"77.6048","accuracy":"4"},{"address3":"Taroda","state":"Maharashtra","state_code":"16","district":"Yavatmal","district_code":"510","address1":"Umerkhed","address2":"","latitude":"20.272","longitude":"77.774","accuracy":"4"},{"address3":"Mulawa","state":"Maharashtra","state_code":"16","district":"Yavatmal","district_code":"510","address1":"Umerkhed","address2":"","latitude":"19.684","longitude":"77.5621","accuracy":"4"}],"445215":[{"address3":"Khadakdari","state":"Maharashtra","state_code":"16","district":"Yavatmal","district_code":"510","address1":"Pusad","address2":"","latitude":"19.9458","longitude":"77.9716","accuracy":"3"},{"address3":"Mop Jawala","state":"Maharashtra","state_code":"16","district":"Yavatmal","district_code":"510","address1":"Pusad","address2":"","latitude":"19.9458","longitude":"77.9716","accuracy":"3"},{"address3":"Dongargaon","state":"Maharashtra","state_code":"16","district":"Yavatmal","district_code":"510","address1":"Mahagaon","address2":"","latitude":"19.8144","longitude":"77.6637","accuracy":"4"},{"address3":"Gaul,Khurd","state":"Maharashtra","state_code":"16","district":"Yavatmal","district_code":"510","address1":"Pusad","address2":"","latitude":"20.0839","longitude":"78.1622","accuracy":"4"},{"address3":"Soot Girni","state":"Maharashtra","state_code":"16","district":"Yavatmal","district_code":"510","address1":"Pusad","address2":"","latitude":"19.9458","longitude":"77.9716","accuracy":"3"},{"address3":"Mandawa","state":"Maharashtra","state_code":"16","district":"Yavatmal","district_code":"510","address1":"Pusad","address2":"","latitude":"19.9458","longitude":"77.9716","accuracy":"3"},{"address3":"Januna","state":"Maharashtra","state_code":"16","district":"Yavatmal","district_code":"510","address1":"Pusad","address2":"","latitude":"19.8031","longitude":"77.7848","accuracy":"4"},{"address3":"Belura","state":"Maharashtra","state_code":"16","district":"Yavatmal","district_code":"510","address1":"Pusad","address2":"","latitude":"20.1758","longitude":"78.0066","accuracy":"4"},{"address3":"Harshi","state":"Maharashtra","state_code":"16","district":"Yavatmal","district_code":"510","address1":"Pusad","address2":"","latitude":"19.9458","longitude":"77.9716","accuracy":"3"},{"address3":"Shelu BK","state":"Maharashtra","state_code":"16","district":"Yavatmal","district_code":"510","address1":"Pusad","address2":"","latitude":"19.9458","longitude":"77.9716","accuracy":"3"},{"address3":"Sandawa","state":"Maharashtra","state_code":"16","district":"Yavatmal","district_code":"510","address1":"Pusad","address2":"","latitude":"19.8281","longitude":"77.51","accuracy":"4"},{"address3":"Khandala","state":"Maharashtra","state_code":"16","district":"Yavatmal","district_code":"510","address1":"Pusad","address2":"","latitude":"19.8915","longitude":"77.4447","accuracy":"4"},{"address3":"Dhansal","state":"Maharashtra","state_code":"16","district":"Yavatmal","district_code":"510","address1":"Pusad","address2":"","latitude":"19.9458","longitude":"77.9716","accuracy":"3"},{"address3":"Sawargaon Gore","state":"Maharashtra","state_code":"16","district":"Yavatmal","district_code":"510","address1":"Pusad","address2":"","latitude":"19.9458","longitude":"77.9716","accuracy":"3"},{"address3":"Fetra","state":"Maharashtra","state_code":"16","district":"Yavatmal","district_code":"510","address1":"Pusad","address2":"","latitude":"19.9458","longitude":"77.9716","accuracy":"3"},{"address3":"Bori Khurd","state":"Maharashtra","state_code":"16","district":"Yavatmal","district_code":"510","address1":"Pusad","address2":"","latitude":"19.8777","longitude":"77.55","accuracy":"4"},{"address3":"Rohda","state":"Maharashtra","state_code":"16","district":"Yavatmal","district_code":"510","address1":"Pusad","address2":"","latitude":"19.9458","longitude":"77.9716","accuracy":"3"},{"address3":"Adegaon","state":"Maharashtra","state_code":"16","district":"Yavatmal","district_code":"510","address1":"Pusad","address2":"","latitude":"19.7958","longitude":"78.898","accuracy":"4"},{"address3":"Pardi Limbi","state":"Maharashtra","state_code":"16","district":"Yavatmal","district_code":"510","address1":"Pusad","address2":"","latitude":"19.9458","longitude":"77.9716","accuracy":"3"},{"address3":"Manikdoh","state":"Maharashtra","state_code":"16","district":"Yavatmal","district_code":"510","address1":"Pusad","address2":"","latitude":"19.9458","longitude":"77.9716","accuracy":"3"},{"address3":"Lakhi Jehangir","state":"Maharashtra","state_code":"16","district":"Yavatmal","district_code":"510","address1":"Pusad","address2":"","latitude":"19.9458","longitude":"77.9716","accuracy":"3"}],"445216":[{"address3":"P.N.C. Pusad","state":"Maharashtra","state_code":"16","district":"Yavatmal","district_code":"510","address1":"Pusad","address2":"","latitude":"20.0172","longitude":"77.9071","accuracy":"1"}],"445230":[{"address3":"Kurli","state":"Maharashtra","state_code":"16","district":"Yavatmal","district_code":"510","address1":"Pusad","address2":"","latitude":"19.6614","longitude":"77.9338","accuracy":"4"},{"address3":"Tembhi","state":"Maharashtra","state_code":"16","district":"Yavatmal","district_code":"510","address1":"Umarkhed","address2":"","latitude":"19.7535","longitude":"77.8406","accuracy":"4"},{"address3":"Fulsavangi","state":"Maharashtra","state_code":"16","district":"Yavatmal","district_code":"510","address1":"Mahagaon","address2":"","latitude":"19.7075","longitude":"77.8872","accuracy":"3"},{"address3":"Ningnoor","state":"Maharashtra","state_code":"16","district":"Yavatmal","district_code":"510","address1":"Umerkhed","address2":"","latitude":"19.7075","longitude":"77.8872","accuracy":"3"},{"address3":"Bhavani Jahagir","state":"Maharashtra","state_code":"16","district":"Yavatmal","district_code":"510","address1":"Umarkhed","address2":"","latitude":"19.7075","longitude":"77.8872","accuracy":"3"}],"445301":[{"address3":"Shiroli","state":"Maharashtra","state_code":"16","district":"Yavatmal","district_code":"510","address1":"Ghatanji","address2":"","latitude":"20.2023","longitude":"78.3334","accuracy":"3"},{"address3":"Shivani","state":"Maharashtra","state_code":"16","district":"Yavatmal","district_code":"510","address1":"Ghatanji","address2":"","latitude":"20.0839","longitude":"78.1622","accuracy":"4"},{"address3":"Rajurwadi","state":"Maharashtra","state_code":"16","district":"Yavatmal","district_code":"510","address1":"Ghatanji","address2":"","latitude":"20.0866","longitude":"78.4186","accuracy":"4"},{"address3":"Sayat Kharda","state":"Maharashtra","state_code":"16","district":"Yavatmal","district_code":"510","address1":"Ghatanji","address2":"","latitude":"20.2023","longitude":"78.3334","accuracy":"3"},{"address3":"Pandhurna Khurd","state":"Maharashtra","state_code":"16","district":"Yavatmal","district_code":"510","address1":"Ghatanji","address2":"","latitude":"20.1455","longitude":"78.2393","accuracy":"4"},{"address3":"Ghatanji","state":"Maharashtra","state_code":"16","district":"Yavatmal","district_code":"510","address1":"Ghatanji","address2":"","latitude":"20.1418","longitude":"78.3133","accuracy":"4"},{"address3":"Saikhada BK","state":"Maharashtra","state_code":"16","district":"Yavatmal","district_code":"510","address1":"Ghatanji","address2":"","latitude":"20.2023","longitude":"78.3334","accuracy":"3"},{"address3":"Mowada","state":"Maharashtra","state_code":"16","district":"Yavatmal","district_code":"510","address1":"Ghatanji","address2":"","latitude":"20.0839","longitude":"78.1622","accuracy":"4"},{"address3":"Sakhra Khurd","state":"Maharashtra","state_code":"16","district":"Yavatmal","district_code":"510","address1":"Ghatanji","address2":"","latitude":"20.1044","longitude":"78.3439","accuracy":"4"},{"address3":"Yelabara","state":"Maharashtra","state_code":"16","district":"Yavatmal","district_code":"510","address1":"Ghatanji","address2":"","latitude":"20.2383","longitude":"78.3123","accuracy":"4"},{"address3":"Anji (Nrusinha)","state":"Maharashtra","state_code":"16","district":"Yavatmal","district_code":"510","address1":"Ghatanji","address2":"","latitude":"20.2023","longitude":"78.3334","accuracy":"3"},{"address3":"Patapangra","state":"Maharashtra","state_code":"16","district":"Yavatmal","district_code":"510","address1":"Ghatanji","address2":"","latitude":"19.9674","longitude":"78.2297","accuracy":"4"},{"address3":"Ghoti","state":"Maharashtra","state_code":"16","district":"Yavatmal","district_code":"510","address1":"Ghatanji","address2":"","latitude":"20.0163","longitude":"78.2054","accuracy":"4"},{"address3":"Akpuri","state":"Maharashtra","state_code":"16","district":"Yavatmal","district_code":"510","address1":"Yavatmal","address2":"","latitude":"20.1822","longitude":"78.2709","accuracy":"4"}],"445302":[{"address3":"Both","state":"Maharashtra","state_code":"16","district":"Yavatmal","district_code":"510","address1":"Kelapur","address2":"","latitude":"20.3329","longitude":"78.045","accuracy":"4"},{"address3":"Umari Road","state":"Maharashtra","state_code":"16","district":"Yavatmal","district_code":"510","address1":"Kelapur","address2":"","latitude":"20.0428","longitude":"78.4424","accuracy":"3"},{"address3":"Pandharkawda","state":"Maharashtra","state_code":"16","district":"Yavatmal","district_code":"510","address1":"Kelapur","address2":"","latitude":"20.0428","longitude":"78.4424","accuracy":"3"},{"address3":"Wai","state":"Maharashtra","state_code":"16","district":"Yavatmal","district_code":"510","address1":"Kalapur","address2":"","latitude":"20.0839","longitude":"78.1622","accuracy":"4"},{"address3":"Akhada Ward(Pandharkawada)","state":"Maharashtra","state_code":"16","district":"Yavatmal","district_code":"510","address1":"Kalapur","address2":"","latitude":"20.0428","longitude":"78.4424","accuracy":"3"},{"address3":"Shibala","state":"Maharashtra","state_code":"16","district":"Yavatmal","district_code":"510","address1":"Kelapur","address2":"","latitude":"20.0428","longitude":"78.4424","accuracy":"3"},{"address3":"Sonbardi","state":"Maharashtra","state_code":"16","district":"Yavatmal","district_code":"510","address1":"Kelapur","address2":"","latitude":"20.0461","longitude":"78.5128","accuracy":"4"},{"address3":"Akoli","state":"Maharashtra","state_code":"16","district":"Yavatmal","district_code":"510","address1":"Kelapur","address2":"","latitude":"19.9746","longitude":"78.609","accuracy":"4"},{"address3":"Matharjun","state":"Maharashtra","state_code":"16","district":"Yavatmal","district_code":"510","address1":"Zari Jamni","address2":"","latitude":"19.8946","longitude":"78.6679","accuracy":"4"},{"address3":"Pimpri","state":"Maharashtra","state_code":"16","district":"Yavatmal","district_code":"510","address1":"Kelapur","address2":"","latitude":"20.0429","longitude":"78.548","accuracy":"4"},{"address3":"Karanji","state":"Maharashtra","state_code":"16","district":"Yavatmal","district_code":"510","address1":"Kelapur","address2":"","latitude":"20.1358","longitude":"78.6186","accuracy":"4"},{"address3":"Saikheda","state":"Maharashtra","state_code":"16","district":"Yavatmal","district_code":"510","address1":"Kelapur","address2":"","latitude":"20.2876","longitude":"77.8085","accuracy":"4"},{"address3":"Dharna","state":"Maharashtra","state_code":"16","district":"Yavatmal","district_code":"510","address1":"Kelapur","address2":"","latitude":"20.1069","longitude":"78.5876","accuracy":"4"},{"address3":"Kelapur","state":"Maharashtra","state_code":"16","district":"Yavatmal","district_code":"510","address1":"Kelapur","address2":"","latitude":"20.0007","longitude":"78.5356","accuracy":"4"},{"address3":"Mangurda","state":"Maharashtra","state_code":"16","district":"Yavatmal","district_code":"510","address1":"Kelapur","address2":"","latitude":"20.0375","longitude":"78.5897","accuracy":"4"},{"address3":"Pahapal","state":"Maharashtra","state_code":"16","district":"Yavatmal","district_code":"510","address1":"Kelapur","address2":"","latitude":"19.9982","longitude":"78.4913","accuracy":"4"},{"address3":"Chalbardi","state":"Maharashtra","state_code":"16","district":"Yavatmal","district_code":"510","address1":"Kelapur","address2":"","latitude":"19.8492","longitude":"78.7024","accuracy":"4"}],"445303":[{"address3":"Pendhari","state":"Maharashtra","state_code":"16","district":"Yavatmal","district_code":"510","address1":"Maregaon","address2":"","latitude":"20.0168","longitude":"78.7446","accuracy":"4"},{"address3":"Chinchoni Botoni","state":"Maharashtra","state_code":"16","district":"Yavatmal","district_code":"510","address1":"Maregaon","address2":"","latitude":"20.121","longitude":"78.8759","accuracy":"3"},{"address3":"Maregaon Road","state":"Maharashtra","state_code":"16","district":"Yavatmal","district_code":"510","address1":"Maregaon","address2":"","latitude":"20.121","longitude":"78.8759","accuracy":"3"},{"address3":"Chinchala","state":"Maharashtra","state_code":"16","district":"Yavatmal","district_code":"510","address1":"Maregaon","address2":"","latitude":"20.1391","longitude":"78.85","accuracy":"4"},{"address3":"Chinchmandal","state":"Maharashtra","state_code":"16","district":"Yavatmal","district_code":"510","address1":"Maregaon","address2":"","latitude":"20.2478","longitude":"78.8157","accuracy":"4"},{"address3":"Jalka Road","state":"Maharashtra","state_code":"16","district":"Yavatmal","district_code":"510","address1":"Maregaon","address2":"","latitude":"20.121","longitude":"78.8759","accuracy":"3"},{"address3":"Buranda","state":"Maharashtra","state_code":"16","district":"Yavatmal","district_code":"510","address1":"Maregaon","address2":"","latitude":"20.1535","longitude":"78.7795","accuracy":"4"},{"address3":"Hiwra Majra","state":"Maharashtra","state_code":"16","district":"Yavatmal","district_code":"510","address1":"Maregaon","address2":"","latitude":"20.121","longitude":"78.8759","accuracy":"3"},{"address3":"Kumbha","state":"Maharashtra","state_code":"16","district":"Yavatmal","district_code":"510","address1":"Maregaon","address2":"","latitude":"20.1917","longitude":"78.7555","accuracy":"4"},{"address3":"Pisgaon","state":"Maharashtra","state_code":"16","district":"Yavatmal","district_code":"510","address1":"Maregaon","address2":"","latitude":"20.1517","longitude":"78.8254","accuracy":"4"},{"address3":"Chopan","state":"Maharashtra","state_code":"16","district":"Yavatmal","district_code":"510","address1":"Maregaon","address2":"","latitude":"20.2122","longitude":"78.8576","accuracy":"4"},{"address3":"Mardi","state":"Maharashtra","state_code":"16","district":"Yavatmal","district_code":"510","address1":"Maregaon","address2":"","latitude":"20.1954","longitude":"78.8427","accuracy":"4"},{"address3":"Mhaisdodka","state":"Maharashtra","state_code":"16","district":"Yavatmal","district_code":"510","address1":"Maregaon","address2":"","latitude":"20.0595","longitude":"78.7371","accuracy":"4"},{"address3":"Narsala","state":"Maharashtra","state_code":"16","district":"Yavatmal","district_code":"510","address1":"Maregaon","address2":"","latitude":"20.1168","longitude":"78.7679","accuracy":"4"},{"address3":"Sagnapur","state":"Maharashtra","state_code":"16","district":"Yavatmal","district_code":"510","address1":"Maregaon","address2":"","latitude":"20.0839","longitude":"78.1622","accuracy":"4"},{"address3":"Nawargaon","state":"Maharashtra","state_code":"16","district":"Yavatmal","district_code":"510","address1":"Maregaon","address2":"","latitude":"20.0735","longitude":"78.7735","accuracy":"4"},{"address3":"Wegaon","state":"Maharashtra","state_code":"16","district":"Yavatmal","district_code":"510","address1":"Maregaon","address2":"","latitude":"20.0606","longitude":"78.8266","accuracy":"4"}],"445304":[{"address3":"Bhalar","state":"Maharashtra","state_code":"16","district":"Yavatmal","district_code":"510","address1":"Wani","address2":"","latitude":"20.0317","longitude":"79.0141","accuracy":"4"},{"address3":"Mendholi","state":"Maharashtra","state_code":"16","district":"Yavatmal","district_code":"510","address1":"Wani","address2":"","latitude":"19.9436","longitude":"78.9512","accuracy":"4"},{"address3":"Nerad Purad","state":"Maharashtra","state_code":"16","district":"Yavatmal","district_code":"510","address1":"Wani","address2":"","latitude":"20.029","longitude":"78.8425","accuracy":"3"},{"address3":"Suknegaon","state":"Maharashtra","state_code":"16","district":"Yavatmal","district_code":"510","address1":"Wani","address2":"","latitude":"19.9714","longitude":"78.8965","accuracy":"4"},{"address3":"Borda","state":"Maharashtra","state_code":"16","district":"Yavatmal","district_code":"510","address1":"Wani","address2":"","latitude":"20.0021","longitude":"78.8284","accuracy":"4"},{"address3":"Rajur","state":"Maharashtra","state_code":"16","district":"Yavatmal","district_code":"510","address1":"Wani","address2":"","latitude":"20.1109","longitude":"78.8931","accuracy":"4"},{"address3":"Wanzari","state":"Maharashtra","state_code":"16","district":"Yavatmal","district_code":"510","address1":"Wani","address2":"","latitude":"20.029","longitude":"78.8425","accuracy":"3"},{"address3":"Ukni","state":"Maharashtra","state_code":"16","district":"Yavatmal","district_code":"510","address1":"Wani","address2":"","latitude":"20.0201","longitude":"79.0784","accuracy":"4"},{"address3":"Adegaon","state":"Maharashtra","state_code":"16","district":"Yavatmal","district_code":"510","address1":"Zari Jamni","address2":"","latitude":"19.7958","longitude":"78.898","accuracy":"4"},{"address3":"Jatra Road(Wani)","state":"Maharashtra","state_code":"16","district":"Yavatmal","district_code":"510","address1":"Wani","address2":"","latitude":"20.029","longitude":"78.8425","accuracy":"3"},{"address3":"Sakharadara","state":"Maharashtra","state_code":"16","district":"Yavatmal","district_code":"510","address1":"Wani","address2":"","latitude":"20.029","longitude":"78.8425","accuracy":"3"},{"address3":"Belora","state":"Maharashtra","state_code":"16","district":"Yavatmal","district_code":"510","address1":"Wani","address2":"","latitude":"20.1654","longitude":"78.3122","accuracy":"4"},{"address3":"Wani","state":"Maharashtra","state_code":"16","district":"Yavatmal","district_code":"510","address1":"Wani","address2":"","latitude":"20.0551","longitude":"78.9531","accuracy":"4"},{"address3":"Zamkola","state":"Maharashtra","state_code":"16","district":"Yavatmal","district_code":"510","address1":"Zari Jamni","address2":"","latitude":"20.029","longitude":"78.8425","accuracy":"3"},{"address3":"Nandepera","state":"Maharashtra","state_code":"16","district":"Yavatmal","district_code":"510","address1":"Wani","address2":"","latitude":"20.1469","longitude":"78.9236","accuracy":"4"},{"address3":"Naigaon","state":"Maharashtra","state_code":"16","district":"Yavatmal","district_code":"510","address1":"Wani","address2":"","latitude":"20.0875","longitude":"78.9844","accuracy":"4"},{"address3":"Palsoni","state":"Maharashtra","state_code":"16","district":"Yavatmal","district_code":"510","address1":"Wani","address2":"","latitude":"20.0633","longitude":"78.9047","accuracy":"4"},{"address3":"Punwat","state":"Maharashtra","state_code":"16","district":"Yavatmal","district_code":"510","address1":"Wani","address2":"","latitude":"19.9533","longitude":"79.0521","accuracy":"4"},{"address3":"Rasa","state":"Maharashtra","state_code":"16","district":"Yavatmal","district_code":"510","address1":"Wani","address2":"","latitude":"20.4207","longitude":"78.3459","accuracy":"4"},{"address3":"Ghonsa","state":"Maharashtra","state_code":"16","district":"Yavatmal","district_code":"510","address1":"Wani","address2":"","latitude":"19.9682","longitude":"78.819","accuracy":"4"},{"address3":"Kayar","state":"Maharashtra","state_code":"16","district":"Yavatmal","district_code":"510","address1":"Wani","address2":"","latitude":"19.9064","longitude":"78.9038","accuracy":"4"},{"address3":"Kona","state":"Maharashtra","state_code":"16","district":"Yavatmal","district_code":"510","address1":"Wani","address2":"","latitude":"20.1115","longitude":"79.0145","accuracy":"4"},{"address3":"Mandar","state":"Maharashtra","state_code":"16","district":"Yavatmal","district_code":"510","address1":"Wani","address2":"","latitude":"20.004","longitude":"78.9718","accuracy":"4"},{"address3":"Mohurli","state":"Maharashtra","state_code":"16","district":"Yavatmal","district_code":"510","address1":"Wani","address2":"","latitude":"20.0839","longitude":"78.1622","accuracy":"4"},{"address3":"Shirpur","state":"Maharashtra","state_code":"16","district":"Yavatmal","district_code":"510","address1":"Wani","address2":"","latitude":"19.8537","longitude":"77.7613","accuracy":"4"},{"address3":"Mukutban","state":"Maharashtra","state_code":"16","district":"Yavatmal","district_code":"510","address1":"Zari Jamni","address2":"","latitude":"19.8093","longitude":"78.8534","accuracy":"4"}],"445305":[{"address3":"Satpalli","state":"Maharashtra","state_code":"16","district":"Yavatmal","district_code":"510","address1":"Zari Jamni","address2":"","latitude":"19.9353","longitude":"78.5353","accuracy":"3"},{"address3":"Patanbori","state":"Maharashtra","state_code":"16","district":"Yavatmal","district_code":"510","address1":"Jhari Jamni","address2":"","latitude":"19.9353","longitude":"78.5353","accuracy":"3"},{"address3":"Dhoki","state":"Maharashtra","state_code":"16","district":"Yavatmal","district_code":"510","address1":"Kelapur","address2":"","latitude":"19.9488","longitude":"78.5354","accuracy":"4"},{"address3":"Sunna","state":"Maharashtra","state_code":"16","district":"Yavatmal","district_code":"510","address1":"Kelapur","address2":"","latitude":"19.9218","longitude":"78.5352","accuracy":"4"},{"address3":"Chanakha","state":"Maharashtra","state_code":"16","district":"Yavatmal","district_code":"510","address1":"Kelapur","address2":"","latitude":"19.9353","longitude":"78.5353","accuracy":"3"},{"address3":"Arali","state":"Maharashtra","state_code":"16","district":"Yavatmal","district_code":"510","address1":"Ghatanji","address2":"","latitude":"19.9353","longitude":"78.5353","accuracy":"3"}],"445306":[{"address3":"Parwa","state":"Maharashtra","state_code":"16","district":"Yavatmal","district_code":"510","address1":"Ghatanji","address2":"","latitude":"19.991","longitude":"78.3297","accuracy":"4"},{"address3":"Jamb","state":"Maharashtra","state_code":"16","district":"Yavatmal","district_code":"510","address1":"Ghatanji","address2":"","latitude":"19.983","longitude":"78.4018","accuracy":"4"},{"address3":"Tadsawali","state":"Maharashtra","state_code":"16","district":"Yavatmal","district_code":"510","address1":"Ghatanji","address2":"","latitude":"19.9186","longitude":"78.2342","accuracy":"4"},{"address3":"Zatala","state":"Maharashtra","state_code":"16","district":"Yavatmal","district_code":"510","address1":"Ghatanji","address2":"","latitude":"19.9516","longitude":"78.3118","accuracy":"3"},{"address3":"Chikhalwardha","state":"Maharashtra","state_code":"16","district":"Yavatmal","district_code":"510","address1":"Ghatanji","address2":"","latitude":"19.9389","longitude":"78.2628","accuracy":"4"},{"address3":"Kurli","state":"Maharashtra","state_code":"16","district":"Yavatmal","district_code":"510","address1":"Ghatanji","address2":"","latitude":"19.9386","longitude":"78.3001","accuracy":"4"},{"address3":"Waghar Takli","state":"Maharashtra","state_code":"16","district":"Yavatmal","district_code":"510","address1":"Ghatanji","address2":"","latitude":"19.9394","longitude":"78.3421","accuracy":"4"},{"address3":"Deodhari","state":"Maharashtra","state_code":"16","district":"Yavatmal","district_code":"510","address1":"Ghatanji","address2":"","latitude":"19.9516","longitude":"78.3118","accuracy":"3"}],"445307":[{"address3":"Kurai","state":"Maharashtra","state_code":"16","district":"Yavatmal","district_code":"510","address1":"Wani","address2":"","latitude":"19.8537","longitude":"78.9984","accuracy":"4"},{"address3":"Velabai","state":"Maharashtra","state_code":"16","district":"Yavatmal","district_code":"510","address1":"Wani","address2":"","latitude":"19.8537","longitude":"78.9984","accuracy":"3"},{"address3":"Sindhola Mines","state":"Maharashtra","state_code":"16","district":"Yavatmal","district_code":"510","address1":"Wani","address2":"","latitude":"19.8537","longitude":"78.9984","accuracy":"3"},{"address3":"Chikparam","state":"Maharashtra","state_code":"16","district":"Yavatmal","district_code":"510","address1":"Wani","address2":"","latitude":"19.8537","longitude":"78.9984","accuracy":"3"},{"address3":"Sakhra Kolgaon","state":"Maharashtra","state_code":"16","district":"Yavatmal","district_code":"510","address1":"Wani","address2":"","latitude":"19.8537","longitude":"78.9984","accuracy":"3"}],"445308":[{"address3":"Wadki","state":"Maharashtra","state_code":"16","district":"Yavatmal","district_code":"510","address1":"Ralegaon","address2":"","latitude":"20.2803","longitude":"78.7181","accuracy":"4"},{"address3":"Dahegaon","state":"Maharashtra","state_code":"16","district":"Yavatmal","district_code":"510","address1":"Ralegaon","address2":"","latitude":"20.0998","longitude":"78.2697","accuracy":"4"},{"address3":"Chahand","state":"Maharashtra","state_code":"16","district":"Yavatmal","district_code":"510","address1":"Ralegaon","address2":"","latitude":"20.3122","longitude":"78.6912","accuracy":"4"},{"address3":"Pimpalapur","state":"Maharashtra","state_code":"16","district":"Yavatmal","district_code":"510","address1":"Ralegaon","address2":"","latitude":"20.2674","longitude":"78.4864","accuracy":"3"},{"address3":"Khairi","state":"Maharashtra","state_code":"16","district":"Yavatmal","district_code":"510","address1":"Ralegaon","address2":"","latitude":"20.3774","longitude":"78.2668","accuracy":"4"},{"address3":"Munzala","state":"Maharashtra","state_code":"16","district":"Yavatmal","district_code":"510","address1":"Kelapur","address2":"","latitude":"20.2674","longitude":"78.4864","accuracy":"3"}],"445323":[{"address3":"Mohda","state":"Maharashtra","state_code":"16","district":"Yavatmal","district_code":"510","address1":"Kelapur","address2":"","latitude":"20.1698","longitude":"78.1477","accuracy":"3"},{"address3":"Sawarkheda","state":"Maharashtra","state_code":"16","district":"Yavatmal","district_code":"510","address1":"Ralegaon","address2":"","latitude":"20.0839","longitude":"78.1622","accuracy":"4"},{"address3":"Dabha","state":"Maharashtra","state_code":"16","district":"Yavatmal","district_code":"510","address1":"Kelapur","address2":"","latitude":"20.1612","longitude":"78.5176","accuracy":"4"},{"address3":"Loni","state":"Maharashtra","state_code":"16","district":"Yavatmal","district_code":"510","address1":"Ralegaon","address2":"","latitude":"20.2654","longitude":"78.5427","accuracy":"4"},{"address3":"Runza","state":"Maharashtra","state_code":"16","district":"Yavatmal","district_code":"510","address1":"Kelapur","address2":"","latitude":"20.1698","longitude":"78.1477","accuracy":"3"},{"address3":"Dongarkharda","state":"Maharashtra","state_code":"16","district":"Yavatmal","district_code":"510","address1":"Kalamb","address2":"","latitude":"20.3003","longitude":"78.4484","accuracy":"4"},{"address3":"Pahur Izara","state":"Maharashtra","state_code":"16","district":"Yavatmal","district_code":"510","address1":"Kalamb","address2":"","latitude":"20.1698","longitude":"78.1477","accuracy":"3"},{"address3":"Metikheda","state":"Maharashtra","state_code":"16","district":"Yavatmal","district_code":"510","address1":"Yavatmal","address2":"","latitude":"20.2486","longitude":"78.4182","accuracy":"4"},{"address3":"Wardh","state":"Maharashtra","state_code":"16","district":"Yavatmal","district_code":"510","address1":"Ralegaon","address2":"","latitude":"20.1698","longitude":"78.1477","accuracy":"3"}],"445324":[{"address3":"Zari Jamani SO","state":"Maharashtra","state_code":"16","district":"Yavatmal","district_code":"510","address1":"zari","address2":"","latitude":"20.0906","longitude":"78.6791","accuracy":"3"},{"address3":"Marki","state":"Maharashtra","state_code":"16","district":"Yavatmal","district_code":"510","address1":"Zari Jamni","address2":"","latitude":"20.0906","longitude":"78.6791","accuracy":"3"},{"address3":"Dhanora","state":"Maharashtra","state_code":"16","district":"Yavatmal","district_code":"510","address1":"Zari Jamni","address2":"","latitude":"20.3752","longitude":"78.6589","accuracy":"4"},{"address3":"Patan","state":"Maharashtra","state_code":"16","district":"Yavatmal","district_code":"510","address1":"Zari Jamni","address2":"","latitude":"19.8061","longitude":"78.6993","accuracy":"4"}],"445401":[{"address3":"Pimpalgaon Raja","state":"Maharashtra","state_code":"16","district":"Yavatmal","district_code":"510","address1":"Kalamb","address2":"","latitude":"20.0839","longitude":"78.1622","accuracy":"4"},{"address3":"Sonegaon","state":"Maharashtra","state_code":"16","district":"Yavatmal","district_code":"510","address1":"Kalamb","address2":"","latitude":"20.4869","longitude":"78.3951","accuracy":"4"},{"address3":"Sawargaon","state":"Maharashtra","state_code":"16","district":"Yavatmal","district_code":"510","address1":"Kalamb","address2":"","latitude":"19.7813","longitude":"77.4993","accuracy":"4"},{"address3":"Kalamb (Yavatmal)","state":"Maharashtra","state_code":"16","district":"Yavatmal","district_code":"510","address1":"Kalamb","address2":"","latitude":"20.4446","longitude":"78.3262","accuracy":"4"},{"address3":"Katri","state":"Maharashtra","state_code":"16","district":"Yavatmal","district_code":"510","address1":"Kalamb","address2":"","latitude":"20.4518","longitude":"78.384","accuracy":"4"},{"address3":"Dhotra","state":"Maharashtra","state_code":"16","district":"Yavatmal","district_code":"510","address1":"Kalamb","address2":"","latitude":"20.4295","longitude":"78.4356","accuracy":"4"}],"445402":[{"address3":"Dhanora","state":"Maharashtra","state_code":"16","district":"Yavatmal","district_code":"510","address1":"Rlegaon","address2":"","latitude":"20.3536","longitude":"78.1674","accuracy":"4"},{"address3":"Apti Rampur","state":"Maharashtra","state_code":"16","district":"Yavatmal","district_code":"510","address1":"Ralegaon","address2":"","latitude":"20.394","longitude":"78.4486","accuracy":"3"},{"address3":"Undari","state":"Maharashtra","state_code":"16","district":"Yavatmal","district_code":"510","address1":"Ralegaon","address2":"","latitude":"20.4133","longitude":"78.6248","accuracy":"4"},{"address3":"Jalka","state":"Maharashtra","state_code":"16","district":"Yavatmal","district_code":"510","address1":"Ralegaon","address2":"","latitude":"20.3853","longitude":"78.481","accuracy":"4"},{"address3":"Gujari","state":"Maharashtra","state_code":"16","district":"Yavatmal","district_code":"510","address1":"Ralegoan","address2":"","latitude":"20.394","longitude":"78.4486","accuracy":"3"},{"address3":"Zadgaon","state":"Maharashtra","state_code":"16","district":"Yavatmal","district_code":"510","address1":"Ralegaon","address2":"","latitude":"20.394","longitude":"78.4486","accuracy":"3"},{"address3":"Chikhali Kelapur","state":"Maharashtra","state_code":"16","district":"Yavatmal","district_code":"510","address1":"Ralegaon","address2":"","latitude":"20.394","longitude":"78.4486","accuracy":"3"},{"address3":"Ralegaon","state":"Maharashtra","state_code":"16","district":"Yavatmal","district_code":"510","address1":"Ralegaon","address2":"","latitude":"20.4239","longitude":"78.5211","accuracy":"4"},{"address3":"Sawangi Perka","state":"Maharashtra","state_code":"16","district":"Yavatmal","district_code":"510","address1":"Ralegoan","address2":"","latitude":"20.394","longitude":"78.4486","accuracy":"3"},{"address3":"Wadhona Bazar","state":"Maharashtra","state_code":"16","district":"Yavatmal","district_code":"510","address1":"Ralegaon","address2":"","latitude":"20.394","longitude":"78.4486","accuracy":"3"},{"address3":"Warud JR","state":"Maharashtra","state_code":"16","district":"Yavatmal","district_code":"510","address1":"Ralegoan","address2":"","latitude":"20.394","longitude":"78.4486","accuracy":"3"}],"credits":[{"name":"geonames","url":"https://www.geonames.org"}],"last_update":"2019-03-01T09:01:31.543Z"}