{"452001":[{"address3":"Indore G.P.O.","state":"Madhya Pradesh","state_code":"35","district":"Indore","district_code":"439","address1":"Indore","address2":"","latitude":"22.7233","longitude":"75.87","accuracy":"4"},{"address3":"Indore Manorama Ganj","state":"Madhya Pradesh","state_code":"35","district":"Indore","district_code":"439","address1":"Indore","address2":"","latitude":"22.7233","longitude":"75.87","accuracy":"3"},{"address3":"Indore Takshashila","state":"Madhya Pradesh","state_code":"35","district":"Indore","district_code":"439","address1":"Indore","address2":"","latitude":"22.7233","longitude":"75.87","accuracy":"3"},{"address3":"Radio Colony Indore","state":"Madhya Pradesh","state_code":"35","district":"Indore","district_code":"439","address1":"Indore","address2":"","latitude":"22.7233","longitude":"75.87","accuracy":"3"},{"address3":"Indore Tukoganj","state":"Madhya Pradesh","state_code":"35","district":"Indore","district_code":"439","address1":"Indore","address2":"","latitude":"22.7233","longitude":"75.87","accuracy":"3"},{"address3":"Indore CGO Complex","state":"Madhya Pradesh","state_code":"35","district":"Indore","district_code":"439","address1":"Indore","address2":"","latitude":"22.7233","longitude":"75.87","accuracy":"3"},{"address3":"Indore Uchchanyayalay","state":"Madhya Pradesh","state_code":"35","district":"Indore","district_code":"439","address1":"Indore","address2":"","latitude":"22.7233","longitude":"75.87","accuracy":"3"}],"452002":[{"address3":"Indore Cloth Market","state":"Madhya Pradesh","state_code":"35","district":"Indore","district_code":"439","address1":"Indore","address2":"","latitude":"22.7334","longitude":"75.8422","accuracy":"1"},{"address3":"Indore City-2","state":"Madhya Pradesh","state_code":"35","district":"Indore","district_code":"439","address1":"Indore","address2":"","latitude":"22.7334","longitude":"75.8422","accuracy":"1"}],"452003":[{"address3":"Bhagirath Pura","state":"Madhya Pradesh","state_code":"35","district":"Indore","district_code":"439","address1":"Indore","address2":"","latitude":"22.7334","longitude":"75.8422","accuracy":"1"},{"address3":"Vallabhnagar (Indore)","state":"Madhya Pradesh","state_code":"35","district":"Indore","district_code":"439","address1":"Indore","address2":"","latitude":"22.7334","longitude":"75.8422","accuracy":"1"},{"address3":"Indore Pardesipura","state":"Madhya Pradesh","state_code":"35","district":"Indore","district_code":"439","address1":"Indore","address2":"","latitude":"22.7334","longitude":"75.8422","accuracy":"1"}],"452005":[{"address3":"Chhota Bangarda","state":"Madhya Pradesh","state_code":"35","district":"Indore","district_code":"439","address1":"Indore","address2":"","latitude":"22.7435","longitude":"75.8145","accuracy":"4"},{"address3":"Bijasan Road","state":"Madhya Pradesh","state_code":"35","district":"Indore","district_code":"439","address1":"Indore","address2":"","latitude":"22.7435","longitude":"75.8145","accuracy":"3"}],"452006":[{"address3":"Army Head Quarter","state":"Madhya Pradesh","state_code":"35","district":"Indore","district_code":"439","address1":"Indore","address2":"","latitude":"22.7334","longitude":"75.8422","accuracy":"1"}],"452007":[{"address3":"Indore Courts","state":"Madhya Pradesh","state_code":"35","district":"Indore","district_code":"439","address1":"Indore","address2":"","latitude":"22.7334","longitude":"75.8422","accuracy":"1"},{"address3":"Indore Nagar H.O","state":"Madhya Pradesh","state_code":"35","district":"Indore","district_code":"439","address1":"Indore","address2":"","latitude":"22.7334","longitude":"75.8422","accuracy":"1"},{"address3":"Indore Collectorate","state":"Madhya Pradesh","state_code":"35","district":"Indore","district_code":"439","address1":"Indore","address2":"","latitude":"22.7334","longitude":"75.8422","accuracy":"1"},{"address3":"Indore Siyaganj","state":"Madhya Pradesh","state_code":"35","district":"Indore","district_code":"439","address1":"Indore","address2":"","latitude":"22.7334","longitude":"75.8422","accuracy":"1"},{"address3":"Gurunanak Chauk","state":"Madhya Pradesh","state_code":"35","district":"Indore","district_code":"439","address1":"Indore","address2":"","latitude":"22.7334","longitude":"75.8422","accuracy":"1"},{"address3":"Indore Ram Bagh","state":"Madhya Pradesh","state_code":"35","district":"Indore","district_code":"439","address1":"Indore","address2":"","latitude":"22.7334","longitude":"75.8422","accuracy":"1"}],"452009":[{"address3":"Lokmanya Nagar Indore","state":"Madhya Pradesh","state_code":"35","district":"Indore","district_code":"439","address1":"Indore","address2":"","latitude":"22.7334","longitude":"75.8422","accuracy":"1"},{"address3":"Sudama Nagar","state":"Madhya Pradesh","state_code":"35","district":"Indore","district_code":"439","address1":"Indore","address2":"","latitude":"22.7334","longitude":"75.8422","accuracy":"1"}],"452010":[{"address3":"Indore DDU Nagar","state":"Madhya Pradesh","state_code":"35","district":"Indore","district_code":"439","address1":"Indore","address2":"","latitude":"22.6984","longitude":"75.9292","accuracy":"1"},{"address3":"Vijay Nagar","state":"Madhya Pradesh","state_code":"35","district":"Indore","district_code":"439","address1":"Indore","address2":"","latitude":"22.6984","longitude":"75.9292","accuracy":"1"},{"address3":"Sanwer Link Road Indore","state":"Madhya Pradesh","state_code":"35","district":"Indore","district_code":"439","address1":"Indore","address2":"","latitude":"22.6984","longitude":"75.9292","accuracy":"1"}],"452011":[{"address3":"Nanda Nagar","state":"Madhya Pradesh","state_code":"35","district":"Indore","district_code":"439","address1":"Indore","address2":"","latitude":"22.6984","longitude":"75.9292","accuracy":"1"},{"address3":"Indore R.S.S.Nagar","state":"Madhya Pradesh","state_code":"35","district":"Indore","district_code":"439","address1":"Indore","address2":"","latitude":"22.6984","longitude":"75.9292","accuracy":"1"}],"452012":[{"address3":"Rajendra Nagar (Indore)","state":"Madhya Pradesh","state_code":"35","district":"Indore","district_code":"439","address1":"Indore","address2":"","latitude":"22.6984","longitude":"75.9292","accuracy":"1"}],"452013":[{"address3":"Indore Cat","state":"Madhya Pradesh","state_code":"35","district":"Indore","district_code":"439","address1":"Indore","address2":"","latitude":"22.6984","longitude":"75.9292","accuracy":"1"}],"452014":[{"address3":"Khatiwala Tank","state":"Madhya Pradesh","state_code":"35","district":"Indore","district_code":"439","address1":"Indore","address2":"","latitude":"22.6984","longitude":"75.9292","accuracy":"1"}],"452015":[{"address3":"Industrial Estate (Indore)","state":"Madhya Pradesh","state_code":"35","district":"Indore","district_code":"439","address1":"Indore","address2":"","latitude":"22.6984","longitude":"75.9292","accuracy":"1"},{"address3":"Indore Kumar Khadi","state":"Madhya Pradesh","state_code":"35","district":"Indore","district_code":"439","address1":"Indore","address2":"","latitude":"22.6984","longitude":"75.9292","accuracy":"1"}],"452016":[{"address3":"Dudhia","state":"Madhya Pradesh","state_code":"35","district":"Indore","district_code":"439","address1":"Indore","address2":"","latitude":"22.713","longitude":"75.7822","accuracy":"3"},{"address3":"Bicholi Mardana","state":"Madhya Pradesh","state_code":"35","district":"Indore","district_code":"439","address1":"Indore","address2":"","latitude":"22.6984","longitude":"75.9292","accuracy":"4"},{"address3":"Indore Khajrana","state":"Madhya Pradesh","state_code":"35","district":"Indore","district_code":"439","address1":"Indore","address2":"","latitude":"22.6984","longitude":"75.9292","accuracy":"3"},{"address3":"Jhalaria","state":"Madhya Pradesh","state_code":"35","district":"Indore","district_code":"439","address1":"Indore","address2":"","latitude":"22.6984","longitude":"75.9292","accuracy":"3"},{"address3":"Khudel","state":"Madhya Pradesh","state_code":"35","district":"Indore","district_code":"439","address1":"Indore","address2":"","latitude":"22.6984","longitude":"75.9292","accuracy":"3"},{"address3":"Burankhedi","state":"Madhya Pradesh","state_code":"35","district":"Indore","district_code":"439","address1":"Indore","address2":"","latitude":"22.6984","longitude":"75.9292","accuracy":"3"},{"address3":"Sivani","state":"Madhya Pradesh","state_code":"35","district":"Indore","district_code":"439","address1":"Indore","address2":"","latitude":"22.713","longitude":"75.7822","accuracy":"3"},{"address3":"Baoliakhurd","state":"Madhya Pradesh","state_code":"35","district":"Indore","district_code":"439","address1":"Indore","address2":"","latitude":"22.6984","longitude":"75.9292","accuracy":"3"},{"address3":"Kanadia","state":"Madhya Pradesh","state_code":"35","district":"Indore","district_code":"439","address1":"Indore","address2":"","latitude":"22.6984","longitude":"75.9292","accuracy":"3"},{"address3":"Sanawadia","state":"Madhya Pradesh","state_code":"35","district":"Indore","district_code":"439","address1":"Indore","address2":"","latitude":"22.6984","longitude":"75.9292","accuracy":"3"},{"address3":"Semlia Chau","state":"Madhya Pradesh","state_code":"35","district":"Indore","district_code":"439","address1":"Indore","address2":"","latitude":"22.6984","longitude":"75.9292","accuracy":"3"},{"address3":"Indore Kanadia Road","state":"Madhya Pradesh","state_code":"35","district":"Indore","district_code":"439","address1":"Indore","address2":"","latitude":"22.6984","longitude":"75.9292","accuracy":"3"}],"452018":[{"address3":"Indore Tillaknagar","state":"Madhya Pradesh","state_code":"35","district":"Indore","district_code":"439","address1":"Indore","address2":"","latitude":"22.6984","longitude":"75.9292","accuracy":"1"}],"452020":[{"address3":"Datoda","state":"Madhya Pradesh","state_code":"35","district":"Indore","district_code":"439","address1":"Indore","address2":"","latitude":"22.5713","longitude":"75.8823","accuracy":"4"},{"address3":"Piwdai","state":"Madhya Pradesh","state_code":"35","district":"Indore","district_code":"439","address1":"Indore","address2":"","latitude":"22.6259","longitude":"75.9278","accuracy":"3"},{"address3":"Palda","state":"Madhya Pradesh","state_code":"35","district":"Indore","district_code":"439","address1":"Indore","address2":"","latitude":"22.68","longitude":"75.8939","accuracy":"4"},{"address3":"Tillorbujurg","state":"Madhya Pradesh","state_code":"35","district":"Indore","district_code":"439","address1":"Indore","address2":"","latitude":"22.6259","longitude":"75.9278","accuracy":"3"},{"address3":"Kelodkartal","state":"Madhya Pradesh","state_code":"35","district":"Indore","district_code":"439","address1":"Indore","address2":"","latitude":"22.6445","longitude":"75.881","accuracy":"4"},{"address3":"Pedmi","state":"Madhya Pradesh","state_code":"35","district":"Indore","district_code":"439","address1":"Indore","address2":"","latitude":"22.6259","longitude":"75.9278","accuracy":"3"},{"address3":"Machla","state":"Madhya Pradesh","state_code":"35","district":"Indore","district_code":"439","address1":"Indore","address2":"","latitude":"22.6233","longitude":"75.8561","accuracy":"4"},{"address3":"Joshiguradia","state":"Madhya Pradesh","state_code":"35","district":"Indore","district_code":"439","address1":"Indore","address2":"","latitude":"22.6259","longitude":"75.9278","accuracy":"3"},{"address3":"Kasturbagram","state":"Madhya Pradesh","state_code":"35","district":"Indore","district_code":"439","address1":"Indore","address2":"","latitude":"22.6462","longitude":"75.889","accuracy":"4"},{"address3":"Tillorkhurd","state":"Madhya Pradesh","state_code":"35","district":"Indore","district_code":"439","address1":"Indore","address2":"","latitude":"22.6259","longitude":"75.9278","accuracy":"3"},{"address3":"Pipalda","state":"Madhya Pradesh","state_code":"35","district":"Indore","district_code":"439","address1":"Indore","address2":"","latitude":"22.5973","longitude":"76.0415","accuracy":"4"},{"address3":"Kampel","state":"Madhya Pradesh","state_code":"35","district":"Indore","district_code":"439","address1":"Indore","address2":"","latitude":"22.6186","longitude":"76.0506","accuracy":"4"}],"credits":[{"name":"geonames","url":"https://www.geonames.org"}],"last_update":"2019-03-01T09:01:38.117Z"}