{"460001":[{"address3":"Bhadus","state":"Madhya Pradesh","state_code":"35","district":"Betul","district_code":"447","address1":"Betul","address2":"","latitude":"21.8715","longitude":"77.8525","accuracy":"4"},{"address3":"Sillot","state":"Madhya Pradesh","state_code":"35","district":"Betul","district_code":"447","address1":"Betul","address2":"","latitude":"22.0192","longitude":"77.8107","accuracy":"4"},{"address3":"Betul H.O","state":"Madhya Pradesh","state_code":"35","district":"Betul","district_code":"447","address1":"Betul","address2":"","latitude":"21.9183","longitude":"77.7254","accuracy":"3"},{"address3":"Borgaon","state":"Madhya Pradesh","state_code":"35","district":"Betul","district_code":"447","address1":"Betul","address2":"","latitude":"21.9327","longitude":"77.6903","accuracy":"4"},{"address3":"Chikhali","state":"Madhya Pradesh","state_code":"35","district":"Betul","district_code":"447","address1":"Betul","address2":"","latitude":"21.878","longitude":"77.871","accuracy":"3"},{"address3":"Badora","state":"Madhya Pradesh","state_code":"35","district":"Betul","district_code":"447","address1":"Betul","address2":"","latitude":"21.8818","longitude":"77.8975","accuracy":"4"},{"address3":"Mathani","state":"Madhya Pradesh","state_code":"35","district":"Betul","district_code":"447","address1":"Betul","address2":"","latitude":"21.878","longitude":"77.871","accuracy":"4"},{"address3":"Jogli","state":"Madhya Pradesh","state_code":"35","district":"Betul","district_code":"447","address1":"Betul","address2":"","latitude":"21.9774","longitude":"77.7006","accuracy":"4"},{"address3":"Kolgaon","state":"Madhya Pradesh","state_code":"35","district":"Betul","district_code":"447","address1":"Betul","address2":"","latitude":"21.7695","longitude":"77.8924","accuracy":"4"},{"address3":"Sakadehi","state":"Madhya Pradesh","state_code":"35","district":"Betul","district_code":"447","address1":"Betul","address2":"","latitude":"21.9884","longitude":"77.8552","accuracy":"4"},{"address3":"Betul Ganj","state":"Madhya Pradesh","state_code":"35","district":"Betul","district_code":"447","address1":"Betul","address2":"","latitude":"21.9065","longitude":"77.9139","accuracy":"4"},{"address3":"Garha","state":"Madhya Pradesh","state_code":"35","district":"Betul","district_code":"447","address1":"Betul","address2":"","latitude":"21.7757","longitude":"77.5786","accuracy":"4"},{"address3":"Khandara","state":"Madhya Pradesh","state_code":"35","district":"Betul","district_code":"447","address1":"Betul","address2":"","latitude":"21.9288","longitude":"77.977","accuracy":"4"},{"address3":"Temni","state":"Madhya Pradesh","state_code":"35","district":"Betul","district_code":"447","address1":"Betul","address2":"","latitude":"21.8931","longitude":"77.8485","accuracy":"4"},{"address3":"Vikasnagar Betul","state":"Madhya Pradesh","state_code":"35","district":"Betul","district_code":"447","address1":"Betul","address2":"","latitude":"21.9183","longitude":"77.7254","accuracy":"3"},{"address3":"Sehra","state":"Madhya Pradesh","state_code":"35","district":"Betul","district_code":"447","address1":"Betul","address2":"","latitude":"22.065","longitude":"77.7594","accuracy":"4"},{"address3":"Nimpani Padhar","state":"Madhya Pradesh","state_code":"35","district":"Betul","district_code":"447","address1":"Betul","address2":"","latitude":"21.9183","longitude":"77.7254","accuracy":"3"},{"address3":"Rondha","state":"Madhya Pradesh","state_code":"35","district":"Betul","district_code":"447","address1":"Betul","address2":"","latitude":"21.8447","longitude":"77.8657","accuracy":"4"},{"address3":"Mandai Bujurg","state":"Madhya Pradesh","state_code":"35","district":"Betul","district_code":"447","address1":"Betul","address2":"","latitude":"21.9183","longitude":"77.7254","accuracy":"3"},{"address3":"Jeen","state":"Madhya Pradesh","state_code":"35","district":"Betul","district_code":"447","address1":"Betul","address2":"","latitude":"21.9183","longitude":"77.7254","accuracy":"3"},{"address3":"Chandbaheda","state":"Madhya Pradesh","state_code":"35","district":"Betul","district_code":"447","address1":"Betul","address2":"","latitude":"21.9183","longitude":"77.7254","accuracy":"3"},{"address3":"Bhogiteda","state":"Madhya Pradesh","state_code":"35","district":"Betul","district_code":"447","address1":"Betul","address2":"","latitude":"21.9183","longitude":"77.7254","accuracy":"3"},{"address3":"Bharat Bharti","state":"Madhya Pradesh","state_code":"35","district":"Betul","district_code":"447","address1":"Betul","address2":"","latitude":"21.9183","longitude":"77.7254","accuracy":"3"},{"address3":"Kothi Bazaar","state":"Madhya Pradesh","state_code":"35","district":"Betul","district_code":"447","address1":"Betul","address2":"","latitude":"21.9183","longitude":"77.7254","accuracy":"3"}],"460004":[{"address3":"Jawara","state":"Madhya Pradesh","state_code":"35","district":"Betul","district_code":"447","address1":"Betul","address2":"","latitude":"21.878","longitude":"77.871","accuracy":"4"},{"address3":"Bagholi","state":"Madhya Pradesh","state_code":"35","district":"Betul","district_code":"447","address1":"Betul","address2":"","latitude":"21.8054","longitude":"77.9252","accuracy":"4"},{"address3":"Sohagpur","state":"Madhya Pradesh","state_code":"35","district":"Betul","district_code":"447","address1":"Betul","address2":"","latitude":"21.88","longitude":"77.9815","accuracy":"4"},{"address3":"Bharkawarai","state":"Madhya Pradesh","state_code":"35","district":"Betul","district_code":"447","address1":"Betul","address2":"","latitude":"22.2095","longitude":"78.2014","accuracy":"3"},{"address3":"Baravi","state":"Madhya Pradesh","state_code":"35","district":"Betul","district_code":"447","address1":"Betul","address2":"","latitude":"22.2095","longitude":"78.2014","accuracy":"3"},{"address3":"Gondigoula","state":"Madhya Pradesh","state_code":"35","district":"Betul","district_code":"447","address1":"Betul","address2":"","latitude":"22.2095","longitude":"78.2014","accuracy":"3"},{"address3":"Betul Bazaar","state":"Madhya Pradesh","state_code":"35","district":"Betul","district_code":"447","address1":"Betul","address2":"","latitude":"22.2095","longitude":"78.2014","accuracy":"3"}],"460110":[{"address3":"Jawara","state":"Madhya Pradesh","state_code":"35","district":"Betul","district_code":"447","address1":"Bhainsdehi","address2":"","latitude":"21.878","longitude":"77.871","accuracy":"4"},{"address3":"Dhanora","state":"Madhya Pradesh","state_code":"35","district":"Betul","district_code":"447","address1":"Bhainsdehi","address2":"","latitude":"21.8794","longitude":"77.8731","accuracy":"4"},{"address3":"Hidli","state":"Madhya Pradesh","state_code":"35","district":"Betul","district_code":"447","address1":"Bhainsdehi","address2":"","latitude":"21.932","longitude":"77.568","accuracy":"4"},{"address3":"Dehgud","state":"Madhya Pradesh","state_code":"35","district":"Betul","district_code":"447","address1":"Bhainsdehi","address2":"","latitude":"21.8172","longitude":"77.9974","accuracy":"3"},{"address3":"Mandvi","state":"Madhya Pradesh","state_code":"35","district":"Betul","district_code":"447","address1":"Bhainsdehi","address2":"","latitude":"21.878","longitude":"77.871","accuracy":"4"},{"address3":"Satner","state":"Madhya Pradesh","state_code":"35","district":"Betul","district_code":"447","address1":"Bhainsdehi","address2":"","latitude":"21.5943","longitude":"77.8064","accuracy":"4"},{"address3":"Athanair","state":"Madhya Pradesh","state_code":"35","district":"Betul","district_code":"447","address1":"Bhainsdehi","address2":"","latitude":"21.8172","longitude":"77.9974","accuracy":"3"},{"address3":"Jamthi","state":"Madhya Pradesh","state_code":"35","district":"Betul","district_code":"447","address1":"Bhainsdehi","address2":"","latitude":"21.6183","longitude":"77.8761","accuracy":"4"},{"address3":"Mendha Chhindwad","state":"Madhya Pradesh","state_code":"35","district":"Betul","district_code":"447","address1":"Bhainsdehi","address2":"","latitude":"21.8172","longitude":"77.9974","accuracy":"3"},{"address3":"Pusli","state":"Madhya Pradesh","state_code":"35","district":"Betul","district_code":"447","address1":"Bhainsdehi","address2":"","latitude":"21.6423","longitude":"77.9899","accuracy":"4"},{"address3":"Gargud","state":"Madhya Pradesh","state_code":"35","district":"Betul","district_code":"447","address1":"Bhainsdehi","address2":"","latitude":"21.8172","longitude":"77.9974","accuracy":"3"},{"address3":"Tembhurni","state":"Madhya Pradesh","state_code":"35","district":"Betul","district_code":"447","address1":"Bhainsdehi","address2":"","latitude":"21.7421","longitude":"77.7709","accuracy":"4"},{"address3":"Wadali","state":"Madhya Pradesh","state_code":"35","district":"Betul","district_code":"447","address1":"Bhainsdehi","address2":"","latitude":"21.5457","longitude":"77.8289","accuracy":"4"},{"address3":"Saongi","state":"Madhya Pradesh","state_code":"35","district":"Betul","district_code":"447","address1":"Bhainsdehi","address2":"","latitude":"21.6174","longitude":"78.1614","accuracy":"4"}],"460220":[{"address3":"Badgaon","state":"Madhya Pradesh","state_code":"35","district":"Betul","district_code":"447","address1":"Bhainsdehi","address2":"","latitude":"21.878","longitude":"77.871","accuracy":"4"},{"address3":"Belkund","state":"Madhya Pradesh","state_code":"35","district":"Betul","district_code":"447","address1":"Bhainsdehi","address2":"","latitude":"21.4151","longitude":"77.791","accuracy":"4"},{"address3":"Sawalmendha","state":"Madhya Pradesh","state_code":"35","district":"Betul","district_code":"447","address1":"Bahinsdehi","address2":"","latitude":"21.5092","longitude":"77.6978","accuracy":"4"},{"address3":"Thopoda","state":"Madhya Pradesh","state_code":"35","district":"Betul","district_code":"447","address1":"Bhainsdehi","address2":"","latitude":"21.6365","longitude":"77.7045","accuracy":"3"},{"address3":"Gudgaon","state":"Madhya Pradesh","state_code":"35","district":"Betul","district_code":"447","address1":"Bhainsdehi","address2":"","latitude":"21.6031","longitude":"77.7104","accuracy":"4"},{"address3":"Temni","state":"Madhya Pradesh","state_code":"35","district":"Betul","district_code":"447","address1":"Bhainsdehi","address2":"","latitude":"21.8931","longitude":"77.8485","accuracy":"4"},{"address3":"Seoni","state":"Madhya Pradesh","state_code":"35","district":"Betul","district_code":"447","address1":"Bhainsdehi","address2":"","latitude":"21.878","longitude":"77.871","accuracy":"4"},{"address3":"Bhainsdehi","state":"Madhya Pradesh","state_code":"35","district":"Betul","district_code":"447","address1":"Bhainsdehi","address2":"","latitude":"21.6449","longitude":"77.6302","accuracy":"4"},{"address3":"Bothi","state":"Madhya Pradesh","state_code":"35","district":"Betul","district_code":"447","address1":"Bhainsdehi","address2":"","latitude":"21.5432","longitude":"77.7619","accuracy":"4"},{"address3":"Khomai","state":"Madhya Pradesh","state_code":"35","district":"Betul","district_code":"447","address1":"Bhainsdehi","address2":"","latitude":"21.6365","longitude":"77.7045","accuracy":"3"},{"address3":"Barhapur","state":"Madhya Pradesh","state_code":"35","district":"Betul","district_code":"447","address1":"Bhainsdehi","address2":"","latitude":"21.6585","longitude":"77.6493","accuracy":"4"},{"address3":"Chadu","state":"Madhya Pradesh","state_code":"35","district":"Betul","district_code":"447","address1":"Bhainsdehi","address2":"","latitude":"21.6365","longitude":"77.7045","accuracy":"3"},{"address3":"Kothalkund","state":"Madhya Pradesh","state_code":"35","district":"Betul","district_code":"447","address1":"Bhainsdehi","address2":"","latitude":"21.464","longitude":"77.6572","accuracy":"4"},{"address3":"Bakud","state":"Madhya Pradesh","state_code":"35","district":"Betul","district_code":"447","address1":"Bahinsdehi","address2":"","latitude":"21.6365","longitude":"77.7045","accuracy":"3"},{"address3":"Majarwani","state":"Madhya Pradesh","state_code":"35","district":"Betul","district_code":"447","address1":"Bhainsdehi","address2":"","latitude":"21.7001","longitude":"77.5895","accuracy":"4"},{"address3":"Kunkhedi","state":"Madhya Pradesh","state_code":"35","district":"Betul","district_code":"447","address1":"Bhainsdehi","address2":"","latitude":"21.6365","longitude":"77.7045","accuracy":"3"},{"address3":"Sakli","state":"Madhya Pradesh","state_code":"35","district":"Betul","district_code":"447","address1":"Bhainsdehi","address2":"","latitude":"21.4236","longitude":"77.7222","accuracy":"4"},{"address3":"Palasya","state":"Madhya Pradesh","state_code":"35","district":"Betul","district_code":"447","address1":"Bhainsdehi","address2":"","latitude":"21.6365","longitude":"77.7045","accuracy":"3"},{"address3":"Khamla","state":"Madhya Pradesh","state_code":"35","district":"Betul","district_code":"447","address1":"Bhainsdehi","address2":"","latitude":"21.5097","longitude":"77.5171","accuracy":"4"},{"address3":"Dhamangaon","state":"Madhya Pradesh","state_code":"35","district":"Betul","district_code":"447","address1":"Bhainsdehi","address2":"","latitude":"21.5941","longitude":"77.7569","accuracy":"4"}],"460225":[{"address3":"Borgaon","state":"Madhya Pradesh","state_code":"35","district":"Betul","district_code":"447","address1":"Betul","address2":"","latitude":"21.9327","longitude":"77.6903","accuracy":"4"},{"address3":"Selgaon","state":"Madhya Pradesh","state_code":"35","district":"Betul","district_code":"447","address1":"Betul","address2":"","latitude":"21.8491","longitude":"77.8327","accuracy":"4"},{"address3":"Khedisaoligarh","state":"Madhya Pradesh","state_code":"35","district":"Betul","district_code":"447","address1":"Betul","address2":"","latitude":"21.8367","longitude":"77.7543","accuracy":"3"},{"address3":"Jhallar","state":"Madhya Pradesh","state_code":"35","district":"Betul","district_code":"447","address1":"Betul","address2":"","latitude":"21.7282","longitude":"77.7399","accuracy":"4"},{"address3":"Vijaygaram","state":"Madhya Pradesh","state_code":"35","district":"Betul","district_code":"447","address1":"Betul","address2":"","latitude":"21.8367","longitude":"77.7543","accuracy":"3"},{"address3":"Chunalohna","state":"Madhya Pradesh","state_code":"35","district":"Betul","district_code":"447","address1":"Betul","address2":"","latitude":"21.8367","longitude":"77.7543","accuracy":"3"},{"address3":"Bansnerkala","state":"Madhya Pradesh","state_code":"35","district":"Betul","district_code":"447","address1":"Bhainsdehi","address2":"","latitude":"21.8367","longitude":"77.7543","accuracy":"3"},{"address3":"Amal","state":"Madhya Pradesh","state_code":"35","district":"Betul","district_code":"447","address1":"Betul","address2":"","latitude":"21.8367","longitude":"77.7543","accuracy":"3"}],"460330":[{"address3":"Dodra Mau","state":"Madhya Pradesh","state_code":"35","district":"Betul","district_code":"447","address1":"Betul","address2":"","latitude":"22.1406","longitude":"77.5606","accuracy":"3"},{"address3":"Patri","state":"Madhya Pradesh","state_code":"35","district":"Betul","district_code":"447","address1":"Betul","address2":"","latitude":"21.878","longitude":"77.871","accuracy":"3"},{"address3":"Path","state":"Madhya Pradesh","state_code":"35","district":"Betul","district_code":"447","address1":"Shahpur","address2":"","latitude":"21.8908","longitude":"77.4629","accuracy":"4"},{"address3":"Dabri","state":"Madhya Pradesh","state_code":"35","district":"Betul","district_code":"447","address1":"Betul","address2":"","latitude":"22.2745","longitude":"77.6636","accuracy":"4"},{"address3":"Godhna","state":"Madhya Pradesh","state_code":"35","district":"Betul","district_code":"447","address1":"Betul","address2":"","latitude":"22.1406","longitude":"77.5606","accuracy":"3"},{"address3":"Mohda","state":"Madhya Pradesh","state_code":"35","district":"Betul","district_code":"447","address1":"Betul","address2":"","latitude":"21.8832","longitude":"77.3491","accuracy":"4"},{"address3":"Chikhali","state":"Madhya Pradesh","state_code":"35","district":"Betul","district_code":"447","address1":"Betul","address2":"","latitude":"21.878","longitude":"77.871","accuracy":"3"},{"address3":"Mohta","state":"Madhya Pradesh","state_code":"35","district":"Betul","district_code":"447","address1":"Betul","address2":"","latitude":"21.7467","longitude":"77.2367","accuracy":"4"},{"address3":"Ghisibagla","state":"Madhya Pradesh","state_code":"35","district":"Betul","district_code":"447","address1":"Betul","address2":"","latitude":"22.1406","longitude":"77.5606","accuracy":"3"},{"address3":"Bhimpur","state":"Madhya Pradesh","state_code":"35","district":"Betul","district_code":"447","address1":"Bhainsdehi","address2":"","latitude":"21.9241","longitude":"77.5531","accuracy":"4"},{"address3":"Bijadehi","state":"Madhya Pradesh","state_code":"35","district":"Betul","district_code":"447","address1":"Betul","address2":"","latitude":"22.1688","longitude":"77.6744","accuracy":"4"},{"address3":"Damjipura","state":"Madhya Pradesh","state_code":"35","district":"Betul","district_code":"447","address1":"Betul","address2":"","latitude":"21.7382","longitude":"77.1589","accuracy":"4"},{"address3":"Chirapatla","state":"Madhya Pradesh","state_code":"35","district":"Betul","district_code":"447","address1":"Betul","address2":"","latitude":"22.1092","longitude":"77.4962","accuracy":"4"},{"address3":"Malajpur","state":"Madhya Pradesh","state_code":"35","district":"Betul","district_code":"447","address1":"Betul","address2":"","latitude":"21.878","longitude":"77.871","accuracy":"4"},{"address3":"Dudhiya","state":"Madhya Pradesh","state_code":"35","district":"Betul","district_code":"447","address1":"Betul","address2":"","latitude":"22.0002","longitude":"77.613","accuracy":"4"},{"address3":"Ratanpur","state":"Madhya Pradesh","state_code":"35","district":"Betul","district_code":"447","address1":"Betul","address2":"","latitude":"22.0095","longitude":"77.5764","accuracy":"4"},{"address3":"Jhapal","state":"Madhya Pradesh","state_code":"35","district":"Betul","district_code":"447","address1":"Betul","address2":"","latitude":"22.0088","longitude":"77.5204","accuracy":"4"},{"address3":"Chicholi","state":"Madhya Pradesh","state_code":"35","district":"Betul","district_code":"447","address1":"Betul","address2":"","latitude":"22.0123","longitude":"77.671","accuracy":"4"},{"address3":"Dhanora Adarsh","state":"Madhya Pradesh","state_code":"35","district":"Betul","district_code":"447","address1":"Betul","address2":"","latitude":"22.1406","longitude":"77.5606","accuracy":"3"},{"address3":"Awaria","state":"Madhya Pradesh","state_code":"35","district":"Betul","district_code":"447","address1":"Betul","address2":"","latitude":"21.878","longitude":"77.871","accuracy":"4"},{"address3":"Pipariyagurwa","state":"Madhya Pradesh","state_code":"35","district":"Betul","district_code":"447","address1":"Bhainsdehi","address2":"","latitude":"22.1406","longitude":"77.5606","accuracy":"3"},{"address3":"Pathakheda","state":"Madhya Pradesh","state_code":"35","district":"Betul","district_code":"447","address1":"Bhainsdehi","address2":"","latitude":"22.1406","longitude":"77.5606","accuracy":"3"},{"address3":"Chunahajuri","state":"Madhya Pradesh","state_code":"35","district":"Betul","district_code":"447","address1":"Betul","address2":"","latitude":"22.1406","longitude":"77.5606","accuracy":"3"},{"address3":"Chudia","state":"Madhya Pradesh","state_code":"35","district":"Betul","district_code":"447","address1":"Amal","address2":"","latitude":"22.1406","longitude":"77.5606","accuracy":"3"},{"address3":"Kurasna","state":"Madhya Pradesh","state_code":"35","district":"Betul","district_code":"447","address1":"Betul","address2":"","latitude":"22.1406","longitude":"77.5606","accuracy":"3"},{"address3":"Kesia","state":"Madhya Pradesh","state_code":"35","district":"Betul","district_code":"447","address1":"Betul","address2":"","latitude":"22.1406","longitude":"77.5606","accuracy":"3"}],"460440":[{"address3":"Chopna","state":"Madhya Pradesh","state_code":"35","district":"Betul","district_code":"447","address1":"Shahpur","address2":"","latitude":"22.2326","longitude":"78.0486","accuracy":"4"},{"address3":"Pahawari","state":"Madhya Pradesh","state_code":"35","district":"Betul","district_code":"447","address1":"Shahpur","address2":"","latitude":"22.2259","longitude":"77.8714","accuracy":"4"},{"address3":"Kachhar","state":"Madhya Pradesh","state_code":"35","district":"Betul","district_code":"447","address1":"Shahpur","address2":"","latitude":"22.2941","longitude":"77.804","accuracy":"4"},{"address3":"Badalpur","state":"Madhya Pradesh","state_code":"35","district":"Betul","district_code":"447","address1":"Shahpur","address2":"","latitude":"22.1974","longitude":"78.0905","accuracy":"4"},{"address3":"Pathai","state":"Madhya Pradesh","state_code":"35","district":"Betul","district_code":"447","address1":"Shahpur","address2":"","latitude":"22.1686","longitude":"77.8772","accuracy":"4"},{"address3":"Bhoura","state":"Madhya Pradesh","state_code":"35","district":"Betul","district_code":"447","address1":"Shahpur","address2":"","latitude":"22.2283","longitude":"77.9573","accuracy":"3"},{"address3":"Kundi","state":"Madhya Pradesh","state_code":"35","district":"Betul","district_code":"447","address1":"Shahpur","address2":"","latitude":"22.2376","longitude":"77.9019","accuracy":"4"},{"address3":"Silpati","state":"Madhya Pradesh","state_code":"35","district":"Betul","district_code":"447","address1":"Shahpur","address2":"","latitude":"22.295","longitude":"78.2461","accuracy":"4"},{"address3":"Hirapur","state":"Madhya Pradesh","state_code":"35","district":"Betul","district_code":"447","address1":"Shahpur","address2":"","latitude":"22.2219","longitude":"78.0038","accuracy":"4"},{"address3":"Dhapoda","state":"Madhya Pradesh","state_code":"35","district":"Betul","district_code":"447","address1":"Shahpur","address2":"","latitude":"22.2283","longitude":"77.9573","accuracy":"3"},{"address3":"Desawari","state":"Madhya Pradesh","state_code":"35","district":"Betul","district_code":"447","address1":"Shahpur","address2":"","latitude":"22.1405","longitude":"77.9281","accuracy":"4"},{"address3":"Shahpur (Betul)","state":"Madhya Pradesh","state_code":"35","district":"Betul","district_code":"447","address1":"Shahpur","address2":"","latitude":"22.1953","longitude":"77.9068","accuracy":"4"},{"address3":"Salimet","state":"Madhya Pradesh","state_code":"35","district":"Betul","district_code":"447","address1":"Shahpur","address2":"","latitude":"22.3087","longitude":"77.8399","accuracy":"4"},{"address3":"Batkidoh","state":"Madhya Pradesh","state_code":"35","district":"Betul","district_code":"447","address1":"Shahpur","address2":"","latitude":"22.2283","longitude":"77.9573","accuracy":"3"},{"address3":"Temru","state":"Madhya Pradesh","state_code":"35","district":"Betul","district_code":"447","address1":"Shahpur","address2":"","latitude":"22.2218","longitude":"77.9692","accuracy":"4"},{"address3":"Bhaiyawari","state":"Madhya Pradesh","state_code":"35","district":"Betul","district_code":"447","address1":"Shahpur","address2":"","latitude":"22.2283","longitude":"77.9573","accuracy":"3"},{"address3":"Chikhalpati","state":"Madhya Pradesh","state_code":"35","district":"Betul","district_code":"447","address1":"Shahpur","address2":"","latitude":"22.2283","longitude":"77.9573","accuracy":"3"}],"460443":[{"address3":"Ranipur","state":"Madhya Pradesh","state_code":"35","district":"Betul","district_code":"447","address1":"Shahpur","address2":"","latitude":"22.051","longitude":"78.0255","accuracy":"4"},{"address3":"Sitakamath","state":"Madhya Pradesh","state_code":"35","district":"Betul","district_code":"447","address1":"Shahpur","address2":"","latitude":"22.0707","longitude":"78.0717","accuracy":"4"},{"address3":"Ghoradongari","state":"Madhya Pradesh","state_code":"35","district":"Betul","district_code":"447","address1":"Shahpura","address2":"","latitude":"22.033","longitude":"78.0055","accuracy":"3"},{"address3":"Dharakhoh","state":"Madhya Pradesh","state_code":"35","district":"Betul","district_code":"447","address1":"Shahpur","address2":"","latitude":"21.9772","longitude":"77.9193","accuracy":"4"}],"460447":[{"address3":"Sarni","state":"Madhya Pradesh","state_code":"35","district":"Betul","district_code":"447","address1":"Betul","address2":"","latitude":"22.1032","longitude":"78.1716","accuracy":"4"}],"460449":[{"address3":"Pathakheda","state":"Madhya Pradesh","state_code":"35","district":"Betul","district_code":"447","address1":"Shahpura","address2":"","latitude":"22.0403","longitude":"77.9443","accuracy":"3"},{"address3":"Shabhapur Colloery","state":"Madhya Pradesh","state_code":"35","district":"Betul","district_code":"447","address1":"Betul","address2":"","latitude":"22.0403","longitude":"77.9443","accuracy":"3"},{"address3":"Salaiya","state":"Madhya Pradesh","state_code":"35","district":"Betul","district_code":"447","address1":"Shahpur","address2":"","latitude":"22.1161","longitude":"78.0899","accuracy":"4"},{"address3":"Amdhana","state":"Madhya Pradesh","state_code":"35","district":"Betul","district_code":"447","address1":"Bhainsdehi","address2":"","latitude":"21.8145","longitude":"77.5738","accuracy":"4"},{"address3":"Shaktigarh","state":"Madhya Pradesh","state_code":"35","district":"Betul","district_code":"447","address1":"Shahpur","address2":"","latitude":"22.1901","longitude":"78.1693","accuracy":"4"}],"460551":[{"address3":"Anwaria","state":"Madhya Pradesh","state_code":"35","district":"Betul","district_code":"447","address1":"Amla","address2":"","latitude":"21.878","longitude":"77.871","accuracy":"4"},{"address3":"Ratedkalan","state":"Madhya Pradesh","state_code":"35","district":"Betul","district_code":"447","address1":"Amla","address2":"","latitude":"22.1812","longitude":"77.9185","accuracy":"3"},{"address3":"Khapakhateda","state":"Madhya Pradesh","state_code":"35","district":"Betul","district_code":"447","address1":"Amla","address2":"","latitude":"22.1812","longitude":"77.9185","accuracy":"3"},{"address3":"Umaria","state":"Madhya Pradesh","state_code":"35","district":"Betul","district_code":"447","address1":"Amla","address2":"","latitude":"21.878","longitude":"77.871","accuracy":"4"},{"address3":"Amla","state":"Madhya Pradesh","state_code":"35","district":"Betul","district_code":"447","address1":"Amla","address2":"","latitude":"21.9177","longitude":"77.6979","accuracy":"4"},{"address3":"Toranwara","state":"Madhya Pradesh","state_code":"35","district":"Betul","district_code":"447","address1":"Amla","address2":"","latitude":"21.9474","longitude":"78.1498","accuracy":"4"},{"address3":"Lalawadi","state":"Madhya Pradesh","state_code":"35","district":"Betul","district_code":"447","address1":"Amla","address2":"","latitude":"22.1812","longitude":"77.9185","accuracy":"3"},{"address3":"Kutkhedai","state":"Madhya Pradesh","state_code":"35","district":"Betul","district_code":"447","address1":"Amla","address2":"","latitude":"22.1812","longitude":"77.9185","accuracy":"3"},{"address3":"Andharia","state":"Madhya Pradesh","state_code":"35","district":"Betul","district_code":"447","address1":"Amla","address2":"","latitude":"21.878","longitude":"77.871","accuracy":"4"},{"address3":"Jambada","state":"Madhya Pradesh","state_code":"35","district":"Betul","district_code":"447","address1":"Amla","address2":"","latitude":"22.1812","longitude":"77.9185","accuracy":"3"},{"address3":"Parsodi","state":"Madhya Pradesh","state_code":"35","district":"Betul","district_code":"447","address1":"Amla","address2":"","latitude":"21.6568","longitude":"78.1451","accuracy":"4"},{"address3":"Kanojia","state":"Madhya Pradesh","state_code":"35","district":"Betul","district_code":"447","address1":"Amla","address2":"","latitude":"22.1812","longitude":"77.9185","accuracy":"3"},{"address3":"Ramli","state":"Madhya Pradesh","state_code":"35","district":"Betul","district_code":"447","address1":"Amla","address2":"","latitude":"21.9078","longitude":"78.1376","accuracy":"4"}],"460553":[{"address3":"Lakhapur","state":"Madhya Pradesh","state_code":"35","district":"Betul","district_code":"447","address1":"Betul","address2":"","latitude":"21.9151","longitude":"78.0513","accuracy":"4"},{"address3":"Ambada","state":"Madhya Pradesh","state_code":"35","district":"Betul","district_code":"447","address1":"Amla","address2":"","latitude":"21.878","longitude":"77.871","accuracy":"3"},{"address3":"Nahiya","state":"Madhya Pradesh","state_code":"35","district":"Betul","district_code":"447","address1":"Betul","address2":"","latitude":"21.8838","longitude":"78.0639","accuracy":"4"},{"address3":"Amla Depot","state":"Madhya Pradesh","state_code":"35","district":"Betul","district_code":"447","address1":"Amla","address2":"","latitude":"21.8998","longitude":"78.0636","accuracy":"3"},{"address3":"Morandhana","state":"Madhya Pradesh","state_code":"35","district":"Betul","district_code":"447","address1":"Bhainsdehi","address2":"","latitude":"21.9007","longitude":"78.0755","accuracy":"4"}],"460554":[{"address3":"Chhipanya Pipariya","state":"Madhya Pradesh","state_code":"35","district":"Betul","district_code":"447","address1":"Amla","address2":"","latitude":"21.9667","longitude":"77.5228","accuracy":"3"},{"address3":"Badgaon","state":"Madhya Pradesh","state_code":"35","district":"Betul","district_code":"447","address1":"Amla","address2":"","latitude":"21.878","longitude":"77.871","accuracy":"4"},{"address3":"Kalmeshwara","state":"Madhya Pradesh","state_code":"35","district":"Betul","district_code":"447","address1":"Amla","address2":"","latitude":"21.9667","longitude":"77.5228","accuracy":"3"},{"address3":"Bordehi","state":"Madhya Pradesh","state_code":"35","district":"Betul","district_code":"447","address1":"Amla","address2":"","latitude":"22.0053","longitude":"78.3527","accuracy":"4"},{"address3":"Barangwari","state":"Madhya Pradesh","state_code":"35","district":"Betul","district_code":"447","address1":"Amla","address2":"","latitude":"22.0074","longitude":"77.6511","accuracy":"4"}],"460557":[{"address3":"Sasundra","state":"Madhya Pradesh","state_code":"35","district":"Betul","district_code":"447","address1":"Amla","address2":"","latitude":"21.8481","longitude":"78.092","accuracy":"4"},{"address3":"Sainkheda (Betul)","state":"Madhya Pradesh","state_code":"35","district":"Betul","district_code":"447","address1":"Multai","address2":"","latitude":"21.7511","longitude":"77.9755","accuracy":"3"},{"address3":"Goula","state":"Madhya Pradesh","state_code":"35","district":"Betul","district_code":"447","address1":"Multai","address2":"","latitude":"21.7511","longitude":"77.9755","accuracy":"3"},{"address3":"Yenkheda","state":"Madhya Pradesh","state_code":"35","district":"Betul","district_code":"447","address1":"Multai","address2":"","latitude":"21.7511","longitude":"77.9755","accuracy":"3"},{"address3":"Semjhira","state":"Madhya Pradesh","state_code":"35","district":"Betul","district_code":"447","address1":"Multai","address2":"","latitude":"21.7928","longitude":"78.1583","accuracy":"4"},{"address3":"Khedicourt","state":"Madhya Pradesh","state_code":"35","district":"Betul","district_code":"447","address1":"Multai","address2":"","latitude":"21.7511","longitude":"77.9755","accuracy":"3"},{"address3":"Pohar","state":"Madhya Pradesh","state_code":"35","district":"Betul","district_code":"447","address1":"Bhainsdehi","address2":"","latitude":"21.6124","longitude":"77.6762","accuracy":"4"},{"address3":"Pouni","state":"Madhya Pradesh","state_code":"35","district":"Betul","district_code":"447","address1":"Multai","address2":"","latitude":"21.7511","longitude":"77.9755","accuracy":"3"}],"460661":[{"address3":"Multai","state":"Madhya Pradesh","state_code":"35","district":"Betul","district_code":"447","address1":"Multai","address2":"","latitude":"21.7746","longitude":"78.2576","accuracy":"4"},{"address3":"Parmandal","state":"Madhya Pradesh","state_code":"35","district":"Betul","district_code":"447","address1":"Multai","address2":"","latitude":"21.8062","longitude":"78.2415","accuracy":"4"},{"address3":"Multai Bazaar","state":"Madhya Pradesh","state_code":"35","district":"Betul","district_code":"447","address1":"Multai","address2":"","latitude":"21.818","longitude":"78.1832","accuracy":"3"},{"address3":"Mahatpur","state":"Madhya Pradesh","state_code":"35","district":"Betul","district_code":"447","address1":"Multai","address2":"","latitude":"21.8618","longitude":"78.3322","accuracy":"4"},{"address3":"Sonora","state":"Madhya Pradesh","state_code":"35","district":"Betul","district_code":"447","address1":"Multai","address2":"","latitude":"21.7603","longitude":"78.2026","accuracy":"4"},{"address3":"Chouthia","state":"Madhya Pradesh","state_code":"35","district":"Betul","district_code":"447","address1":"Multai","address2":"","latitude":"21.818","longitude":"78.1832","accuracy":"3"},{"address3":"Mathani","state":"Madhya Pradesh","state_code":"35","district":"Betul","district_code":"447","address1":"Multai","address2":"","latitude":"21.878","longitude":"77.871","accuracy":"4"},{"address3":"Chandora Khurad","state":"Madhya Pradesh","state_code":"35","district":"Betul","district_code":"447","address1":"Multai","address2":"","latitude":"21.818","longitude":"78.1832","accuracy":"3"},{"address3":"Chichanda","state":"Madhya Pradesh","state_code":"35","district":"Betul","district_code":"447","address1":"Multai","address2":"","latitude":"21.718","longitude":"78.3456","accuracy":"4"},{"address3":"Joulkheda","state":"Madhya Pradesh","state_code":"35","district":"Betul","district_code":"447","address1":"Multai","address2":"","latitude":"21.818","longitude":"78.1832","accuracy":"3"},{"address3":"Hathanapur","state":"Madhya Pradesh","state_code":"35","district":"Betul","district_code":"447","address1":"Multai","address2":"","latitude":"21.878","longitude":"77.871","accuracy":"3"},{"address3":"Khedlibazar","state":"Madhya Pradesh","state_code":"35","district":"Betul","district_code":"447","address1":"Multai","address2":"","latitude":"21.818","longitude":"78.1832","accuracy":"3"},{"address3":"Sarra","state":"Madhya Pradesh","state_code":"35","district":"Betul","district_code":"447","address1":"Multai","address2":"","latitude":"21.8404","longitude":"78.2499","accuracy":"4"},{"address3":"Yenus","state":"Madhya Pradesh","state_code":"35","district":"Betul","district_code":"447","address1":"Multai","address2":"","latitude":"21.818","longitude":"78.1832","accuracy":"3"},{"address3":"Barai","state":"Madhya Pradesh","state_code":"35","district":"Betul","district_code":"447","address1":"Multai","address2":"","latitude":"21.8477","longitude":"78.2941","accuracy":"4"},{"address3":"Chilhati","state":"Madhya Pradesh","state_code":"35","district":"Betul","district_code":"447","address1":"Multai","address2":"","latitude":"21.684","longitude":"78.3587","accuracy":"4"},{"address3":"Sandia","state":"Madhya Pradesh","state_code":"35","district":"Betul","district_code":"447","address1":"Multai","address2":"","latitude":"21.736","longitude":"78.1988","accuracy":"4"},{"address3":"Sonegaon","state":"Madhya Pradesh","state_code":"35","district":"Betul","district_code":"447","address1":"Multai","address2":"","latitude":"21.9139","longitude":"78.3081","accuracy":"4"},{"address3":"Karpa","state":"Madhya Pradesh","state_code":"35","district":"Betul","district_code":"447","address1":"Multai","address2":"","latitude":"21.8114","longitude":"78.2999","accuracy":"4"},{"address3":"Kujba","state":"Madhya Pradesh","state_code":"35","district":"Betul","district_code":"447","address1":"Amla","address2":"","latitude":"21.9269","longitude":"78.3512","accuracy":"4"},{"address3":"Mohi","state":"Madhya Pradesh","state_code":"35","district":"Betul","district_code":"447","address1":"Multai","address2":"","latitude":"21.8222","longitude":"78.2029","accuracy":"4"},{"address3":"Morkha","state":"Madhya Pradesh","state_code":"35","district":"Betul","district_code":"447","address1":"Amla","address2":"","latitude":"21.918","longitude":"78.3936","accuracy":"4"},{"address3":"Narkhed","state":"Madhya Pradesh","state_code":"35","district":"Betul","district_code":"447","address1":"Multai","address2":"","latitude":"21.6971","longitude":"78.2543","accuracy":"4"},{"address3":"Paradsinga","state":"Madhya Pradesh","state_code":"35","district":"Betul","district_code":"447","address1":"Multai","address2":"","latitude":"21.7847","longitude":"78.3108","accuracy":"4"}],"460663":[{"address3":"Sipawa","state":"Madhya Pradesh","state_code":"35","district":"Betul","district_code":"447","address1":"Multai","address2":"","latitude":"21.8304","longitude":"78.4616","accuracy":"4"},{"address3":"Khairwani","state":"Madhya Pradesh","state_code":"35","district":"Betul","district_code":"447","address1":"Multai","address2":"","latitude":"22.121","longitude":"78.268","accuracy":"4"},{"address3":"Kathi","state":"Madhya Pradesh","state_code":"35","district":"Betul","district_code":"447","address1":"Multai","address2":"","latitude":"21.8955","longitude":"78.4924","accuracy":"4"},{"address3":"Dahua","state":"Madhya Pradesh","state_code":"35","district":"Betul","district_code":"447","address1":"Multai","address2":"","latitude":"21.7987","longitude":"78.3478","accuracy":"4"},{"address3":"Chikhalikalan","state":"Madhya Pradesh","state_code":"35","district":"Betul","district_code":"447","address1":"Multai","address2":"","latitude":"21.8841","longitude":"78.4444","accuracy":"3"},{"address3":"Ghatpipariya","state":"Madhya Pradesh","state_code":"35","district":"Betul","district_code":"447","address1":"Multai","address2":"","latitude":"21.8823","longitude":"78.519","accuracy":"4"},{"address3":"Lilajhir","state":"Madhya Pradesh","state_code":"35","district":"Betul","district_code":"447","address1":"Multai","address2":"","latitude":"21.9247","longitude":"78.5019","accuracy":"4"},{"address3":"Dunawa","state":"Madhya Pradesh","state_code":"35","district":"Betul","district_code":"447","address1":"Mulati","address2":"","latitude":"21.8654","longitude":"78.4932","accuracy":"4"},{"address3":"Barkhed","state":"Madhya Pradesh","state_code":"35","district":"Betul","district_code":"447","address1":"Multai","address2":"","latitude":"21.8841","longitude":"78.4444","accuracy":"3"},{"address3":"Chhindi","state":"Madhya Pradesh","state_code":"35","district":"Betul","district_code":"447","address1":"Multai","address2":"","latitude":"21.8731","longitude":"78.3928","accuracy":"4"},{"address3":"Gubrel","state":"Madhya Pradesh","state_code":"35","district":"Betul","district_code":"447","address1":"Multai","address2":"","latitude":"21.9124","longitude":"78.4725","accuracy":"4"},{"address3":"Ghatbiroli","state":"Madhya Pradesh","state_code":"35","district":"Betul","district_code":"447","address1":"Multai","address2":"","latitude":"21.8841","longitude":"78.4444","accuracy":"3"},{"address3":"Sarai","state":"Madhya Pradesh","state_code":"35","district":"Betul","district_code":"447","address1":"Multai","address2":"","latitude":"21.8409","longitude":"78.5127","accuracy":"4"},{"address3":"Jam","state":"Madhya Pradesh","state_code":"35","district":"Betul","district_code":"447","address1":"Multai","address2":"","latitude":"21.781","longitude":"78.4264","accuracy":"4"},{"address3":"Hirawadi","state":"Madhya Pradesh","state_code":"35","district":"Chhindwara","district_code":"455","address1":"Parasia","address2":"","latitude":"21.8841","longitude":"78.4444","accuracy":"3"}],"460665":[{"address3":"Magonakalan","state":"Madhya Pradesh","state_code":"35","district":"Betul","district_code":"447","address1":"Multai","address2":"","latitude":"21.6407","longitude":"78.2722","accuracy":"3"},{"address3":"Umari","state":"Madhya Pradesh","state_code":"35","district":"Betul","district_code":"447","address1":"Multai","address2":"","latitude":"21.878","longitude":"77.871","accuracy":"3"},{"address3":"Tiwarkhed","state":"Madhya Pradesh","state_code":"35","district":"Betul","district_code":"447","address1":"Multai","address2":"","latitude":"21.6407","longitude":"78.2722","accuracy":"3"},{"address3":"Magnonakhurd","state":"Madhya Pradesh","state_code":"35","district":"Betul","district_code":"447","address1":"Multai","address2":"","latitude":"21.6407","longitude":"78.2722","accuracy":"3"},{"address3":"Prabhat Pattan","state":"Madhya Pradesh","state_code":"35","district":"Betul","district_code":"447","address1":"Multai","address2":"","latitude":"21.6407","longitude":"78.2722","accuracy":"4"},{"address3":"Bandli","state":"Madhya Pradesh","state_code":"35","district":"Betul","district_code":"447","address1":"Multai","address2":"","latitude":"21.6407","longitude":"78.2722","accuracy":"3"},{"address3":"Amraoti Ghat","state":"Madhya Pradesh","state_code":"35","district":"Betul","district_code":"447","address1":"Multai","address2":"","latitude":"21.6407","longitude":"78.2722","accuracy":"3"}],"460666":[{"address3":"Bihargaon","state":"Madhya Pradesh","state_code":"35","district":"Betul","district_code":"447","address1":"Multai","address2":"","latitude":"21.7086","longitude":"78.0875","accuracy":"4"},{"address3":"Rai Amla","state":"Madhya Pradesh","state_code":"35","district":"Betul","district_code":"447","address1":"Multai","address2":"","latitude":"21.69","longitude":"78.1082","accuracy":"3"},{"address3":"Chhindkheda","state":"Madhya Pradesh","state_code":"35","district":"Betul","district_code":"447","address1":"Multai","address2":"","latitude":"21.69","longitude":"78.1082","accuracy":"3"},{"address3":"Ashta","state":"Madhya Pradesh","state_code":"35","district":"Betul","district_code":"447","address1":"Multai","address2":"","latitude":"21.69","longitude":"78.1082","accuracy":"3"},{"address3":"Bhagoda","state":"Madhya Pradesh","state_code":"35","district":"Betul","district_code":"447","address1":"Multai","address2":"","latitude":"21.878","longitude":"77.871","accuracy":"3"},{"address3":"Birul Bazar","state":"Madhya Pradesh","state_code":"35","district":"Betul","district_code":"447","address1":"Multai","address2":"","latitude":"21.69","longitude":"78.1082","accuracy":"3"},{"address3":"Dhabla","state":"Madhya Pradesh","state_code":"35","district":"Betul","district_code":"447","address1":"Multai","address2":"","latitude":"21.6911","longitude":"78.1252","accuracy":"4"},{"address3":"Dhatora","state":"Madhya Pradesh","state_code":"35","district":"Betul","district_code":"447","address1":"Multai","address2":"","latitude":"21.69","longitude":"78.1082","accuracy":"3"},{"address3":"Hirdi","state":"Madhya Pradesh","state_code":"35","district":"Betul","district_code":"447","address1":"Multai","address2":"","latitude":"21.6703","longitude":"78.1118","accuracy":"4"},{"address3":"Taikheda","state":"Madhya Pradesh","state_code":"35","district":"Betul","district_code":"447","address1":"Multai","address2":"","latitude":"21.69","longitude":"78.1082","accuracy":"3"}],"460668":[{"address3":"Saongi","state":"Madhya Pradesh","state_code":"35","district":"Betul","district_code":"447","address1":"Multai","address2":"","latitude":"21.6174","longitude":"78.1614","accuracy":"4"},{"address3":"Gehubarsa","state":"Madhya Pradesh","state_code":"35","district":"Betul","district_code":"447","address1":"Multai","address2":"","latitude":"21.7124","longitude":"78.1944","accuracy":"3"},{"address3":"Hiwarkhed","state":"Madhya Pradesh","state_code":"35","district":"Betul","district_code":"447","address1":"Multai","address2":"","latitude":"21.6364","longitude":"78.124","accuracy":"4"},{"address3":"Etawa","state":"Madhya Pradesh","state_code":"35","district":"Betul","district_code":"447","address1":"Multai","address2":"","latitude":"21.9952","longitude":"78.3688","accuracy":"4"},{"address3":"Shirdi","state":"Madhya Pradesh","state_code":"35","district":"Betul","district_code":"447","address1":"Multai","address2":"","latitude":"21.7124","longitude":"78.1944","accuracy":"3"},{"address3":"Masod","state":"Madhya Pradesh","state_code":"35","district":"Betul","district_code":"447","address1":"Multai","address2":"","latitude":"21.6007","longitude":"78.1235","accuracy":"4"},{"address3":"Sehangaon","state":"Madhya Pradesh","state_code":"35","district":"Betul","district_code":"447","address1":"Multai","address2":"","latitude":"21.7124","longitude":"78.1944","accuracy":"3"},{"address3":"Bisnoor","state":"Madhya Pradesh","state_code":"35","district":"Betul","district_code":"447","address1":"Multai","address2":"","latitude":"21.7124","longitude":"78.1944","accuracy":"3"},{"address3":"Ragadgaon","state":"Madhya Pradesh","state_code":"35","district":"Betul","district_code":"447","address1":"Multai","address2":"","latitude":"21.7124","longitude":"78.1944","accuracy":"3"}],"credits":[{"name":"geonames","url":"https://www.geonames.org"}],"last_update":"2019-03-01T09:01:38.205Z"}