{"470001":[{"address3":"Shyampura","state":"Madhya Pradesh","state_code":"35","district":"Sagar","district_code":"427","address1":"Sagar","address2":"","latitude":"23.9042","longitude":"78.7659","accuracy":"4"},{"address3":"Baroda Sagar","state":"Madhya Pradesh","state_code":"35","district":"Sagar","district_code":"427","address1":"Sagar","address2":"","latitude":"23.7199","longitude":"78.7039","accuracy":"4"},{"address3":"Sironja","state":"Madhya Pradesh","state_code":"35","district":"Sagar","district_code":"427","address1":"Sagar","address2":"","latitude":"23.8151","longitude":"78.7961","accuracy":"4"},{"address3":"Sagar Gopalganj","state":"Madhya Pradesh","state_code":"35","district":"Sagar","district_code":"427","address1":"Sagar","address2":"","latitude":"23.8414","longitude":"78.6908","accuracy":"3"},{"address3":"Baheriya Sahani","state":"Madhya Pradesh","state_code":"35","district":"Sagar","district_code":"427","address1":"Sagar","address2":"","latitude":"23.8414","longitude":"78.6908","accuracy":"3"},{"address3":"Bararu","state":"Madhya Pradesh","state_code":"35","district":"Sagar","district_code":"427","address1":"Sagar","address2":"","latitude":"23.879","longitude":"78.7747","accuracy":"4"},{"address3":"Rajuya","state":"Madhya Pradesh","state_code":"35","district":"Sagar","district_code":"427","address1":"Sagar","address2":"","latitude":"23.8414","longitude":"78.6908","accuracy":"3"},{"address3":"Sagar Tilli","state":"Madhya Pradesh","state_code":"35","district":"Sagar","district_code":"427","address1":"Sagar","address2":"","latitude":"23.8414","longitude":"78.6908","accuracy":"3"},{"address3":"Sothiya","state":"Madhya Pradesh","state_code":"35","district":"Sagar","district_code":"427","address1":"Sagar","address2":"","latitude":"23.8886","longitude":"78.4135","accuracy":"4"},{"address3":"Sagar Cavlari Hill","state":"Madhya Pradesh","state_code":"35","district":"Sagar","district_code":"427","address1":"Sagar","address2":"","latitude":"23.8414","longitude":"78.6908","accuracy":"3"},{"address3":"Sagar Collectrate","state":"Madhya Pradesh","state_code":"35","district":"Sagar","district_code":"427","address1":"Sagar","address2":"","latitude":"23.8414","longitude":"78.6908","accuracy":"3"},{"address3":"Sagar Cantt H.O","state":"Madhya Pradesh","state_code":"35","district":"Sagar","district_code":"427","address1":"Sagar","address2":"","latitude":"23.8414","longitude":"78.6908","accuracy":"3"},{"address3":"Sagar B I Bazar","state":"Madhya Pradesh","state_code":"35","district":"Sagar","district_code":"427","address1":"Sagar","address2":"","latitude":"23.8414","longitude":"78.6908","accuracy":"3"}],"470002":[{"address3":"Sagar Bada Bazar","state":"Madhya Pradesh","state_code":"35","district":"Sagar","district_code":"427","address1":"Sagar","address2":"","latitude":"23.8414","longitude":"78.6908","accuracy":"1"},{"address3":"Sagar Luxmipura","state":"Madhya Pradesh","state_code":"35","district":"Sagar","district_code":"427","address1":"Sagar","address2":"","latitude":"23.8414","longitude":"78.6908","accuracy":"1"},{"address3":"Sagar Subhash Nagar","state":"Madhya Pradesh","state_code":"35","district":"Sagar","district_code":"427","address1":"Sagar","address2":"","latitude":"23.8414","longitude":"78.6908","accuracy":"1"},{"address3":"Sagar Jnpa","state":"Madhya Pradesh","state_code":"35","district":"Sagar","district_code":"427","address1":"Sagar","address2":"","latitude":"23.8414","longitude":"78.6908","accuracy":"1"},{"address3":"Sagar Sadar Bazar","state":"Madhya Pradesh","state_code":"35","district":"Sagar","district_code":"427","address1":"Sagar","address2":"","latitude":"23.8414","longitude":"78.6908","accuracy":"1"},{"address3":"Sagar City","state":"Madhya Pradesh","state_code":"35","district":"Sagar","district_code":"427","address1":"Sagar","address2":"","latitude":"23.8414","longitude":"78.6908","accuracy":"1"}],"470003":[{"address3":"Sagar University","state":"Madhya Pradesh","state_code":"35","district":"Sagar","district_code":"427","address1":"Sagar","address2":"","latitude":"23.8414","longitude":"78.6908","accuracy":"1"}],"470004":[{"address3":"Gambhiriyia","state":"Madhya Pradesh","state_code":"35","district":"Sagar","district_code":"427","address1":"Banda","address2":"","latitude":"23.8414","longitude":"78.6908","accuracy":"1"},{"address3":"Sidguya","state":"Madhya Pradesh","state_code":"35","district":"Sagar","district_code":"427","address1":"Sagar","address2":"","latitude":"23.8414","longitude":"78.6908","accuracy":"1"},{"address3":"Pamakhedi","state":"Madhya Pradesh","state_code":"35","district":"Sagar","district_code":"427","address1":"Sagar","address2":"","latitude":"23.8414","longitude":"78.6908","accuracy":"1"},{"address3":"Sagar Rajakhedi","state":"Madhya Pradesh","state_code":"35","district":"Sagar","district_code":"427","address1":"Sagar","address2":"","latitude":"23.8414","longitude":"78.6908","accuracy":"1"},{"address3":"Sagar Makronia Camp","state":"Madhya Pradesh","state_code":"35","district":"Sagar","district_code":"427","address1":"Sagar","address2":"","latitude":"23.8414","longitude":"78.6908","accuracy":"1"}],"470021":[{"address3":"Bamora","state":"Madhya Pradesh","state_code":"35","district":"Sagar","district_code":"427","address1":"Sagar","address2":"","latitude":"23.8816","longitude":"78.8021","accuracy":"4"},{"address3":"Sanodha","state":"Madhya Pradesh","state_code":"35","district":"Sagar","district_code":"427","address1":"Sagar","address2":"","latitude":"24.3314","longitude":"79.0069","accuracy":"4"},{"address3":"Parsoriya","state":"Madhya Pradesh","state_code":"35","district":"Sagar","district_code":"427","address1":"Sagar","address2":"","latitude":"23.8481","longitude":"78.7589","accuracy":"4"},{"address3":"Padaria","state":"Madhya Pradesh","state_code":"35","district":"Sagar","district_code":"427","address1":"Sagar","address2":"","latitude":"23.791","longitude":"78.5166","accuracy":"4"},{"address3":"Girwar","state":"Madhya Pradesh","state_code":"35","district":"Sagar","district_code":"427","address1":"Sagar","address2":"","latitude":"23.8235","longitude":"78.9557","accuracy":"4"},{"address3":"Dugasara","state":"Madhya Pradesh","state_code":"35","district":"Sagar","district_code":"427","address1":"Sagar","address2":"","latitude":"23.9186","longitude":"78.9078","accuracy":"3"}],"470051":[{"address3":"Mahuyakheda","state":"Madhya Pradesh","state_code":"35","district":"Sagar","district_code":"427","address1":"Sagar","address2":"","latitude":"23.4685","longitude":"78.0749","accuracy":"3"},{"address3":"Samnapur","state":"Madhya Pradesh","state_code":"35","district":"Sagar","district_code":"427","address1":"Sagar","address2":"","latitude":"23.3248","longitude":"78.8461","accuracy":"4"},{"address3":"Chitora","state":"Madhya Pradesh","state_code":"35","district":"Sagar","district_code":"427","address1":"Sagar","address2":"","latitude":"23.8481","longitude":"78.7589","accuracy":"4"},{"address3":"Bilahra Raja","state":"Madhya Pradesh","state_code":"35","district":"Sagar","district_code":"427","address1":"Sagar","address2":"","latitude":"23.4685","longitude":"78.0749","accuracy":"3"},{"address3":"Katangi","state":"Madhya Pradesh","state_code":"35","district":"Sagar","district_code":"427","address1":"Sagar","address2":"","latitude":"23.6396","longitude":"78.6676","accuracy":"4"},{"address3":"Baxwaha","state":"Madhya Pradesh","state_code":"35","district":"Sagar","district_code":"427","address1":"Sagar","address2":"","latitude":"23.4685","longitude":"78.0749","accuracy":"3"},{"address3":"Khurai Thawari","state":"Madhya Pradesh","state_code":"35","district":"Sagar","district_code":"427","address1":"Sagar","address2":"","latitude":"23.4685","longitude":"78.0749","accuracy":"3"}],"470113":[{"address3":"Bina","state":"Madhya Pradesh","state_code":"35","district":"Sagar","district_code":"427","address1":"Bina","address2":"","latitude":"24.2122","longitude":"78.3007","accuracy":"3"},{"address3":"Dewal","state":"Madhya Pradesh","state_code":"35","district":"Sagar","district_code":"427","address1":"Sagar","address2":"","latitude":"24.3602","longitude":"78.3159","accuracy":"4"},{"address3":"Korja","state":"Madhya Pradesh","state_code":"35","district":"Sagar","district_code":"427","address1":"Sagar","address2":"","latitude":"23.7445","longitude":"78.4743","accuracy":"4"},{"address3":"Bildho","state":"Madhya Pradesh","state_code":"35","district":"Sagar","district_code":"427","address1":"Sagar","address2":"","latitude":"24.2122","longitude":"78.3007","accuracy":"3"},{"address3":"Bardha","state":"Madhya Pradesh","state_code":"35","district":"Sagar","district_code":"427","address1":"Bina","address2":"","latitude":"24.1409","longitude":"78.2506","accuracy":"4"},{"address3":"Karo R.S.","state":"Madhya Pradesh","state_code":"35","district":"Sagar","district_code":"427","address1":"Sagar","address2":"","latitude":"24.2122","longitude":"78.3007","accuracy":"3"},{"address3":"Dehri","state":"Madhya Pradesh","state_code":"35","district":"Sagar","district_code":"427","address1":"Sagar","address2":"","latitude":"23.8481","longitude":"78.7589","accuracy":"3"},{"address3":"Kanjiya","state":"Madhya Pradesh","state_code":"35","district":"Sagar","district_code":"427","address1":"Sagar","address2":"","latitude":"24.3923","longitude":"78.1967","accuracy":"4"},{"address3":"Bina Bazaria","state":"Madhya Pradesh","state_code":"35","district":"Sagar","district_code":"427","address1":"Bina","address2":"","latitude":"24.2122","longitude":"78.3007","accuracy":"3"},{"address3":"Piprasar","state":"Madhya Pradesh","state_code":"35","district":"Sagar","district_code":"427","address1":"Sagar","address2":"","latitude":"24.423","longitude":"78.266","accuracy":"4"},{"address3":"Bhangarh","state":"Madhya Pradesh","state_code":"35","district":"Sagar","district_code":"427","address1":"Sagar","address2":"","latitude":"23.8481","longitude":"78.7589","accuracy":"3"},{"address3":"Agasaud","state":"Madhya Pradesh","state_code":"35","district":"Sagar","district_code":"427","address1":"Bina","address2":"","latitude":"24.2122","longitude":"78.3007","accuracy":"3"}],"470115":[{"address3":"Jerai","state":"Madhya Pradesh","state_code":"35","district":"Sagar","district_code":"427","address1":"Khurai","address2":"","latitude":"23.8676","longitude":"78.6085","accuracy":"4"},{"address3":"Chandamau","state":"Madhya Pradesh","state_code":"35","district":"Sagar","district_code":"427","address1":"Sagar","address2":"","latitude":"23.9489","longitude":"78.4844","accuracy":"4"},{"address3":"Dhana Naryaoli","state":"Madhya Pradesh","state_code":"35","district":"Sagar","district_code":"427","address1":"Bina","address2":"","latitude":"23.9062","longitude":"78.5137","accuracy":"3"},{"address3":"Bidwasan","state":"Madhya Pradesh","state_code":"35","district":"Sagar","district_code":"427","address1":"Khurai","address2":"","latitude":"23.9062","longitude":"78.5137","accuracy":"3"},{"address3":"Peepra","state":"Madhya Pradesh","state_code":"35","district":"Sagar","district_code":"427","address1":"Rahatgarh","address2":"","latitude":"23.9062","longitude":"78.5137","accuracy":"3"},{"address3":"Jalandhar","state":"Madhya Pradesh","state_code":"35","district":"Sagar","district_code":"427","address1":"Rahatgarh","address2":"","latitude":"23.902","longitude":"78.4481","accuracy":"4"},{"address3":"Kanera Neekhar","state":"Madhya Pradesh","state_code":"35","district":"Sagar","district_code":"427","address1":"Rahatgarh","address2":"","latitude":"23.9062","longitude":"78.5137","accuracy":"3"},{"address3":"Jaruakheda","state":"Madhya Pradesh","state_code":"35","district":"Sagar","district_code":"427","address1":"Sagar","address2":"","latitude":"23.9062","longitude":"78.5137","accuracy":"3"},{"address3":"Isurwara","state":"Madhya Pradesh","state_code":"35","district":"Sagar","district_code":"427","address1":"Khurai","address2":"","latitude":"23.9062","longitude":"78.5137","accuracy":"3"},{"address3":"Naryaoliedso","state":"Madhya Pradesh","state_code":"35","district":"Sagar","district_code":"427","address1":"Sagar","address2":"","latitude":"23.9062","longitude":"78.5137","accuracy":"3"}],"470117":[{"address3":"Gadola Jageer","state":"Madhya Pradesh","state_code":"35","district":"Sagar","district_code":"427","address1":"Khurai","address2":"","latitude":"24.0538","longitude":"78.3345","accuracy":"3"},{"address3":"Khurai","state":"Madhya Pradesh","state_code":"35","district":"Sagar","district_code":"427","address1":"Khurai","address2":"","latitude":"24.0437","longitude":"78.3301","accuracy":"4"},{"address3":"Khaijra Harchand","state":"Madhya Pradesh","state_code":"35","district":"Sagar","district_code":"427","address1":"Khurai","address2":"","latitude":"24.0538","longitude":"78.3345","accuracy":"3"},{"address3":"Khurai City","state":"Madhya Pradesh","state_code":"35","district":"Sagar","district_code":"427","address1":"Khurai","address2":"","latitude":"24.0538","longitude":"78.3345","accuracy":"3"},{"address3":"Barodiya Nongar","state":"Madhya Pradesh","state_code":"35","district":"Sagar","district_code":"427","address1":"Khurai","address2":"","latitude":"24.0538","longitude":"78.3345","accuracy":"3"},{"address3":"Satnai","state":"Madhya Pradesh","state_code":"35","district":"Sagar","district_code":"427","address1":"Khurai","address2":"","latitude":"24.0246","longitude":"78.3041","accuracy":"4"},{"address3":"Dhanora","state":"Madhya Pradesh","state_code":"35","district":"Sagar","district_code":"427","address1":"Khurai","address2":"","latitude":"24.0681","longitude":"78.4127","accuracy":"4"},{"address3":"Teora","state":"Madhya Pradesh","state_code":"35","district":"Sagar","district_code":"427","address1":"Khurai","address2":"","latitude":"24.1153","longitude":"78.3389","accuracy":"4"},{"address3":"Silodha","state":"Madhya Pradesh","state_code":"35","district":"Sagar","district_code":"427","address1":"Khurai","address2":"","latitude":"24.0145","longitude":"78.3744","accuracy":"4"},{"address3":"Mukarampur","state":"Madhya Pradesh","state_code":"35","district":"Sagar","district_code":"427","address1":"Khurai","address2":"","latitude":"23.9943","longitude":"78.3419","accuracy":"4"},{"address3":"Khaira","state":"Madhya Pradesh","state_code":"35","district":"Sagar","district_code":"427","address1":"Khurai","address2":"","latitude":"24.0766","longitude":"78.3579","accuracy":"4"},{"address3":"Nirtala","state":"Madhya Pradesh","state_code":"35","district":"Sagar","district_code":"427","address1":"Khurai","address2":"","latitude":"24.0724","longitude":"78.2952","accuracy":"4"},{"address3":"Sarkhadi","state":"Madhya Pradesh","state_code":"35","district":"Sagar","district_code":"427","address1":"Khurai","address2":"","latitude":"24.0749","longitude":"78.2555","accuracy":"4"}],"470118":[{"address3":"Basari","state":"Madhya Pradesh","state_code":"35","district":"Sagar","district_code":"427","address1":"Khurai","address2":"","latitude":"24.2167","longitude":"78.2985","accuracy":"4"},{"address3":"Bamnora","state":"Madhya Pradesh","state_code":"35","district":"Sagar","district_code":"427","address1":"Banda","address2":"","latitude":"23.995","longitude":"78.6201","accuracy":"4"},{"address3":"Pathariya Jogan","state":"Madhya Pradesh","state_code":"35","district":"Sagar","district_code":"427","address1":"Khurai","address2":"","latitude":"24.1392","longitude":"78.4275","accuracy":"3"},{"address3":"Khimlasa","state":"Madhya Pradesh","state_code":"35","district":"Sagar","district_code":"427","address1":"Sagar","address2":"","latitude":"24.2058","longitude":"78.3639","accuracy":"4"},{"address3":"Bharchha","state":"Madhya Pradesh","state_code":"35","district":"Sagar","district_code":"427","address1":"Sagar","address2":"","latitude":"24.1392","longitude":"78.4275","accuracy":"3"},{"address3":"Gadola Jawahar","state":"Madhya Pradesh","state_code":"35","district":"Sagar","district_code":"427","address1":"Sagar","address2":"","latitude":"24.1392","longitude":"78.4275","accuracy":"3"},{"address3":"Naukheda","state":"Madhya Pradesh","state_code":"35","district":"Sagar","district_code":"427","address1":"Khurai","address2":"","latitude":"24.1392","longitude":"78.4275","accuracy":"3"}],"470119":[{"address3":"Parasari Kalan","state":"Madhya Pradesh","state_code":"35","district":"Sagar","district_code":"427","address1":"Sagar","address2":"","latitude":"23.7116","longitude":"78.3977","accuracy":"4"},{"address3":"Manki Salaiya","state":"Madhya Pradesh","state_code":"35","district":"Sagar","district_code":"427","address1":"Sagar","address2":"","latitude":"23.6734","longitude":"78.3848","accuracy":"4"},{"address3":"Jhila","state":"Madhya Pradesh","state_code":"35","district":"Sagar","district_code":"427","address1":"Sagar","address2":"","latitude":"23.8481","longitude":"78.7589","accuracy":"4"},{"address3":"Khaijra Mafi","state":"Madhya Pradesh","state_code":"35","district":"Sagar","district_code":"427","address1":"Sagar","address2":"","latitude":"23.8703","longitude":"78.2294","accuracy":"3"},{"address3":"Chandrapur","state":"Madhya Pradesh","state_code":"35","district":"Sagar","district_code":"427","address1":"Sagar","address2":"","latitude":"23.8184","longitude":"78.3603","accuracy":"4"},{"address3":"Meerkhedi","state":"Madhya Pradesh","state_code":"35","district":"Sagar","district_code":"427","address1":"Sagar","address2":"","latitude":"23.8703","longitude":"78.2294","accuracy":"3"},{"address3":"Rahatgarh","state":"Madhya Pradesh","state_code":"35","district":"Sagar","district_code":"427","address1":"Sagar","address2":"","latitude":"23.7897","longitude":"78.3947","accuracy":"4"},{"address3":"Hirankheda","state":"Madhya Pradesh","state_code":"35","district":"Sagar","district_code":"427","address1":"Sagar","address2":"","latitude":"23.8703","longitude":"78.2294","accuracy":"3"},{"address3":"Mahuna Gujar","state":"Madhya Pradesh","state_code":"35","district":"Sagar","district_code":"427","address1":"Sagar","address2":"","latitude":"23.6686","longitude":"78.3395","accuracy":"4"}],"470120":[{"address3":"Ratona","state":"Madhya Pradesh","state_code":"35","district":"Sagar","district_code":"427","address1":"Sagar","address2":"","latitude":"23.8196","longitude":"78.6735","accuracy":"4"},{"address3":"Sihora (Sagar)","state":"Madhya Pradesh","state_code":"35","district":"Sagar","district_code":"427","address1":"Sagar","address2":"","latitude":"23.7964","longitude":"78.576","accuracy":"4"},{"address3":"Sattadhana","state":"Madhya Pradesh","state_code":"35","district":"Sagar","district_code":"427","address1":"Sagar","address2":"","latitude":"23.757","longitude":"78.6175","accuracy":"4"},{"address3":"Tila Buzurg","state":"Madhya Pradesh","state_code":"35","district":"Sagar","district_code":"427","address1":"Rahatgarh","address2":"","latitude":"23.8588","longitude":"78.5111","accuracy":"4"},{"address3":"Mardanpur","state":"Madhya Pradesh","state_code":"35","district":"Sagar","district_code":"427","address1":"Sagar","address2":"","latitude":"23.803","longitude":"78.4888","accuracy":"4"},{"address3":"Thikari","state":"Madhya Pradesh","state_code":"35","district":"Sagar","district_code":"427","address1":"Rahatgarh","address2":"","latitude":"23.8022","longitude":"78.5642","accuracy":"3"},{"address3":"Masurhai","state":"Madhya Pradesh","state_code":"35","district":"Sagar","district_code":"427","address1":"Sagar","address2":"","latitude":"23.7785","longitude":"78.5185","accuracy":"4"},{"address3":"Ghambhiriyahat","state":"Madhya Pradesh","state_code":"35","district":"Sagar","district_code":"427","address1":"Sagar","address2":"","latitude":"23.8022","longitude":"78.5642","accuracy":"3"},{"address3":"Kanera Gaund","state":"Madhya Pradesh","state_code":"35","district":"Sagar","district_code":"427","address1":"Sagar","address2":"","latitude":"23.8022","longitude":"78.5642","accuracy":"3"},{"address3":"Bhaisa","state":"Madhya Pradesh","state_code":"35","district":"Sagar","district_code":"427","address1":"Sagar","address2":"","latitude":"23.8022","longitude":"78.5642","accuracy":"3"},{"address3":"Bhapel","state":"Madhya Pradesh","state_code":"35","district":"Sagar","district_code":"427","address1":"Sagar","address2":"","latitude":"23.8022","longitude":"78.5642","accuracy":"3"}],"470124":[{"address3":"Bina BORL","state":"Madhya Pradesh","state_code":"35","district":"Sagar","district_code":"427","address1":"Bina","address2":"","latitude":"23.6878","longitude":"78.6696","accuracy":"1"}],"470125":[{"address3":"Dungariya","state":"Madhya Pradesh","state_code":"35","district":"Sagar","district_code":"427","address1":"Sagar","address2":"","latitude":"23.5053","longitude":"79.1247","accuracy":"4"},{"address3":"Jaisinagar","state":"Madhya Pradesh","state_code":"35","district":"Sagar","district_code":"427","address1":"Sagar","address2":"","latitude":"23.626","longitude":"78.5726","accuracy":"4"},{"address3":"Gehuras","state":"Madhya Pradesh","state_code":"35","district":"Sagar","district_code":"427","address1":"Sagar","address2":"","latitude":"23.5734","longitude":"78.775","accuracy":"3"},{"address3":"Padarai","state":"Madhya Pradesh","state_code":"35","district":"Sagar","district_code":"427","address1":"Sagar","address2":"","latitude":"23.8481","longitude":"78.7589","accuracy":"3"},{"address3":"Karaiya","state":"Madhya Pradesh","state_code":"35","district":"Sagar","district_code":"427","address1":"Sagar","address2":"","latitude":"23.646","longitude":"78.8413","accuracy":"4"},{"address3":"Agariya","state":"Madhya Pradesh","state_code":"35","district":"Sagar","district_code":"427","address1":"Sagar","address2":"","latitude":"23.8481","longitude":"78.7589","accuracy":"4"},{"address3":"Toda Tarafdar","state":"Madhya Pradesh","state_code":"35","district":"Sagar","district_code":"427","address1":"Sagar","address2":"","latitude":"23.5734","longitude":"78.775","accuracy":"3"},{"address3":"Sarkhadi","state":"Madhya Pradesh","state_code":"35","district":"Sagar","district_code":"427","address1":"Sagar","address2":"","latitude":"24.0749","longitude":"78.2555","accuracy":"4"},{"address3":"Bansa","state":"Madhya Pradesh","state_code":"35","district":"Sagar","district_code":"427","address1":"Sagar","address2":"","latitude":"23.7042","longitude":"78.5482","accuracy":"4"}],"470221":[{"address3":"Mokalpur","state":"Madhya Pradesh","state_code":"35","district":"Sagar","district_code":"427","address1":"Sagar","address2":"","latitude":"23.6327","longitude":"78.8346","accuracy":"3"},{"address3":"Bidwas","state":"Madhya Pradesh","state_code":"35","district":"Sagar","district_code":"427","address1":"Sagar","address2":"","latitude":"23.6327","longitude":"78.8346","accuracy":"3"},{"address3":"Udaypura Tiwari","state":"Madhya Pradesh","state_code":"35","district":"Sagar","district_code":"427","address1":"Sagar","address2":"","latitude":"23.6327","longitude":"78.8346","accuracy":"3"},{"address3":"Surkhi","state":"Madhya Pradesh","state_code":"35","district":"Sagar","district_code":"427","address1":"Sagar","address2":"","latitude":"23.6327","longitude":"78.8346","accuracy":"4"},{"address3":"Chatubhata","state":"Madhya Pradesh","state_code":"35","district":"Sagar","district_code":"427","address1":"Sagar","address2":"","latitude":"23.6327","longitude":"78.8346","accuracy":"3"},{"address3":"Deori Naharmau","state":"Madhya Pradesh","state_code":"35","district":"Sagar","district_code":"427","address1":"Kesli","address2":"","latitude":"23.6327","longitude":"78.8346","accuracy":"3"}],"470223":[{"address3":"Gaurjhamar","state":"Madhya Pradesh","state_code":"35","district":"Sagar","district_code":"427","address1":"Deori","address2":"","latitude":"23.5934","longitude":"78.9389","accuracy":"3"},{"address3":"Patna Khurai","state":"Madhya Pradesh","state_code":"35","district":"Sagar","district_code":"427","address1":"Sagar","address2":"","latitude":"23.5934","longitude":"78.9389","accuracy":"3"},{"address3":"Rampur","state":"Madhya Pradesh","state_code":"35","district":"Sagar","district_code":"427","address1":"Rehli","address2":"","latitude":"23.5934","longitude":"78.9389","accuracy":"4"},{"address3":"Jaitpur Kachya","state":"Madhya Pradesh","state_code":"35","district":"Sagar","district_code":"427","address1":"Sagar","address2":"","latitude":"23.5934","longitude":"78.9389","accuracy":"3"},{"address3":"Jaitpur Doga","state":"Madhya Pradesh","state_code":"35","district":"Sagar","district_code":"427","address1":"Kesli","address2":"","latitude":"23.5934","longitude":"78.9389","accuracy":"3"},{"address3":"Madi Jamuniya","state":"Madhya Pradesh","state_code":"35","district":"Sagar","district_code":"427","address1":"Sagar","address2":"","latitude":"23.5934","longitude":"78.9389","accuracy":"3"},{"address3":"Baheriya Kalan","state":"Madhya Pradesh","state_code":"35","district":"Sagar","district_code":"427","address1":"Sagar","address2":"","latitude":"23.5934","longitude":"78.9389","accuracy":"3"}],"470226":[{"address3":"Barha","state":"Madhya Pradesh","state_code":"35","district":"Sagar","district_code":"427","address1":"Deori","address2":"","latitude":"23.8481","longitude":"78.7589","accuracy":"4"},{"address3":"Simariya","state":"Madhya Pradesh","state_code":"35","district":"Sagar","district_code":"427","address1":"Deori","address2":"","latitude":"23.72","longitude":"79.2599","accuracy":"4"},{"address3":"Maharajpur","state":"Madhya Pradesh","state_code":"35","district":"Sagar","district_code":"427","address1":"Deori","address2":"","latitude":"23.2833","longitude":"79.0529","accuracy":"4"},{"address3":"Beldhana","state":"Madhya Pradesh","state_code":"35","district":"Sagar","district_code":"427","address1":"Deori","address2":"","latitude":"23.4032","longitude":"78.9959","accuracy":"4"},{"address3":"Deori Nadipar","state":"Madhya Pradesh","state_code":"35","district":"Sagar","district_code":"427","address1":"Deori","address2":"","latitude":"23.3537","longitude":"79.1275","accuracy":"3"},{"address3":"Bina Deori","state":"Madhya Pradesh","state_code":"35","district":"Sagar","district_code":"427","address1":"Deori","address2":"","latitude":"23.3537","longitude":"79.1275","accuracy":"3"},{"address3":"Singpur","state":"Madhya Pradesh","state_code":"35","district":"Sagar","district_code":"427","address1":"Deori","address2":"","latitude":"23.3487","longitude":"78.9143","accuracy":"4"},{"address3":"Jhamra","state":"Madhya Pradesh","state_code":"35","district":"Sagar","district_code":"427","address1":"Deori","address2":"","latitude":"23.2189","longitude":"79.1515","accuracy":"4"},{"address3":"Deori (Sagar)","state":"Madhya Pradesh","state_code":"35","district":"Sagar","district_code":"427","address1":"Deori","address2":"","latitude":"23.3537","longitude":"79.1275","accuracy":"3"},{"address3":"Bijora","state":"Madhya Pradesh","state_code":"35","district":"Sagar","district_code":"427","address1":"Deori","address2":"","latitude":"23.3455","longitude":"79.0298","accuracy":"4"},{"address3":"Rasena","state":"Madhya Pradesh","state_code":"35","district":"Sagar","district_code":"427","address1":"Deori","address2":"","latitude":"23.3013","longitude":"78.9706","accuracy":"4"},{"address3":"Singpur Sadguya","state":"Madhya Pradesh","state_code":"35","district":"Sagar","district_code":"427","address1":"Deori","address2":"","latitude":"23.3537","longitude":"79.1275","accuracy":"3"},{"address3":"Jaitpur","state":"Madhya Pradesh","state_code":"35","district":"Sagar","district_code":"427","address1":"Kesli","address2":"","latitude":"23.4494","longitude":"78.8523","accuracy":"4"},{"address3":"Muyarkhas","state":"Madhya Pradesh","state_code":"35","district":"Sagar","district_code":"427","address1":"Deori","address2":"","latitude":"23.3537","longitude":"79.1275","accuracy":"3"},{"address3":"Dongar Salaiya","state":"Madhya Pradesh","state_code":"35","district":"Sagar","district_code":"427","address1":"Deori","address2":"","latitude":"23.4237","longitude":"79.061","accuracy":"4"},{"address3":"Padarai Buzurg","state":"Madhya Pradesh","state_code":"35","district":"Sagar","district_code":"427","address1":"Deori","address2":"","latitude":"23.3537","longitude":"79.1275","accuracy":"3"}],"470227":[{"address3":"Anantpura","state":"Madhya Pradesh","state_code":"35","district":"Sagar","district_code":"427","address1":"Rehli","address2":"","latitude":"23.52","longitude":"79.1096","accuracy":"4"},{"address3":"Kasal Pipariya","state":"Madhya Pradesh","state_code":"35","district":"Sagar","district_code":"427","address1":"Rehli","address2":"","latitude":"23.6546","longitude":"78.8899","accuracy":"3"},{"address3":"Khairana","state":"Madhya Pradesh","state_code":"35","district":"Sagar","district_code":"427","address1":"Deori","address2":"","latitude":"23.5686","longitude":"78.9862","accuracy":"4"},{"address3":"Rehli","state":"Madhya Pradesh","state_code":"35","district":"Sagar","district_code":"427","address1":"Rehli","address2":"","latitude":"23.6372","longitude":"79.0628","accuracy":"4"},{"address3":"Chandpur","state":"Madhya Pradesh","state_code":"35","district":"Sagar","district_code":"427","address1":"Rehli","address2":"","latitude":"23.5532","longitude":"79.0919","accuracy":"4"},{"address3":"Sawal Khiriya","state":"Madhya Pradesh","state_code":"35","district":"Sagar","district_code":"427","address1":"Rehli","address2":"","latitude":"23.6546","longitude":"78.8899","accuracy":"3"},{"address3":"Pipariya Kachhi","state":"Madhya Pradesh","state_code":"35","district":"Sagar","district_code":"427","address1":"Deori","address2":"","latitude":"23.8481","longitude":"78.7589","accuracy":"4"},{"address3":"Barkheda Sikandar","state":"Madhya Pradesh","state_code":"35","district":"Sagar","district_code":"427","address1":"Rehli","address2":"","latitude":"23.6546","longitude":"78.8899","accuracy":"3"},{"address3":"Muhli","state":"Madhya Pradesh","state_code":"35","district":"Sagar","district_code":"427","address1":"Banda","address2":"","latitude":"23.2964","longitude":"78.8916","accuracy":"4"},{"address3":"Baleh","state":"Madhya Pradesh","state_code":"35","district":"Sagar","district_code":"427","address1":"Garhakota","address2":"","latitude":"23.6461","longitude":"79.2142","accuracy":"4"},{"address3":"Chhirari","state":"Madhya Pradesh","state_code":"35","district":"Sagar","district_code":"427","address1":"Rehli","address2":"","latitude":"23.5844","longitude":"79.1459","accuracy":"4"}],"470228":[{"address3":"Patna Buzurg","state":"Madhya Pradesh","state_code":"35","district":"Sagar","district_code":"427","address1":"Rehli","address2":"","latitude":"23.8481","longitude":"78.7589","accuracy":"4"},{"address3":"Baroda Rehli","state":"Madhya Pradesh","state_code":"35","district":"Sagar","district_code":"427","address1":"Sagar","address2":"","latitude":"23.7256","longitude":"79.0579","accuracy":"3"},{"address3":"Dhana","state":"Madhya Pradesh","state_code":"35","district":"Sagar","district_code":"427","address1":"Sagar","address2":"","latitude":"23.747","longitude":"78.8623","accuracy":"4"},{"address3":"Bamori Bika","state":"Madhya Pradesh","state_code":"35","district":"Sagar","district_code":"427","address1":"Sagar","address2":"","latitude":"23.7256","longitude":"79.0579","accuracy":"3"},{"address3":"Tinsi","state":"Madhya Pradesh","state_code":"35","district":"Sagar","district_code":"427","address1":"Rehli","address2":"","latitude":"23.7209","longitude":"79.0012","accuracy":"4"},{"address3":"Hilgan","state":"Madhya Pradesh","state_code":"35","district":"Sagar","district_code":"427","address1":"Sagar","address2":"","latitude":"23.7709","longitude":"78.9042","accuracy":"4"}],"470229":[{"address3":"Garhakota","state":"Madhya Pradesh","state_code":"35","district":"Sagar","district_code":"427","address1":"Garhakota","address2":"","latitude":"23.7791","longitude":"79.1432","accuracy":"4"}],"470232":[{"address3":"Chanauya Buzurg","state":"Madhya Pradesh","state_code":"35","district":"Sagar","district_code":"427","address1":"Garhakota","address2":"","latitude":"23.6589","longitude":"78.7177","accuracy":"3"},{"address3":"Chapra","state":"Madhya Pradesh","state_code":"35","district":"Sagar","district_code":"427","address1":"Deori","address2":"","latitude":"23.8481","longitude":"78.7589","accuracy":"4"},{"address3":"Udaypura","state":"Madhya Pradesh","state_code":"35","district":"Sagar","district_code":"427","address1":"Garhakota","address2":"","latitude":"23.8481","longitude":"78.7589","accuracy":"4"},{"address3":"Garhakota Nadipar","state":"Madhya Pradesh","state_code":"35","district":"Sagar","district_code":"427","address1":"Garhakota","address2":"","latitude":"23.6589","longitude":"78.7177","accuracy":"3"},{"address3":"Chulla","state":"Madhya Pradesh","state_code":"35","district":"Sagar","district_code":"427","address1":"Garhakota","address2":"","latitude":"23.6589","longitude":"78.7177","accuracy":"3"},{"address3":"Umra","state":"Madhya Pradesh","state_code":"35","district":"Sagar","district_code":"427","address1":"Garhakota","address2":"","latitude":"23.8524","longitude":"79.0887","accuracy":"4"},{"address3":"Basari","state":"Madhya Pradesh","state_code":"35","district":"Sagar","district_code":"427","address1":"Garhakota","address2":"","latitude":"24.2167","longitude":"78.2985","accuracy":"4"},{"address3":"Bichiya","state":"Madhya Pradesh","state_code":"35","district":"Sagar","district_code":"427","address1":"Garhakota","address2":"","latitude":"23.6589","longitude":"78.7177","accuracy":"3"},{"address3":"Kumarai","state":"Madhya Pradesh","state_code":"35","district":"Sagar","district_code":"427","address1":"Garhakota","address2":"","latitude":"23.6589","longitude":"78.7177","accuracy":"3"},{"address3":"Haldi","state":"Madhya Pradesh","state_code":"35","district":"Sagar","district_code":"427","address1":"Garhakota","address2":"","latitude":"23.8481","longitude":"78.7589","accuracy":"3"},{"address3":"Pipariaya Pachara","state":"Madhya Pradesh","state_code":"35","district":"Sagar","district_code":"427","address1":"Garhakota","address2":"","latitude":"23.6589","longitude":"78.7177","accuracy":"3"},{"address3":"Sewas","state":"Madhya Pradesh","state_code":"35","district":"Sagar","district_code":"427","address1":"Garhakota","address2":"","latitude":"23.6589","longitude":"78.7177","accuracy":"3"},{"address3":"Gunjora","state":"Madhya Pradesh","state_code":"35","district":"Sagar","district_code":"427","address1":"Rehli","address2":"","latitude":"23.8481","longitude":"78.7589","accuracy":"3"}],"470235":[{"address3":"Kevlari Kalan","state":"Madhya Pradesh","state_code":"35","district":"Sagar","district_code":"427","address1":"Kesli","address2":"","latitude":"23.4508","longitude":"78.7023","accuracy":"4"},{"address3":"Kesli","state":"Madhya Pradesh","state_code":"35","district":"Sagar","district_code":"427","address1":"Kesli","address2":"","latitude":"23.4183","longitude":"78.8062","accuracy":"4"},{"address3":"Chauka","state":"Madhya Pradesh","state_code":"35","district":"Sagar","district_code":"427","address1":"Kesli","address2":"","latitude":"23.3395","longitude":"78.8118","accuracy":"4"},{"address3":"Gutori Pana","state":"Madhya Pradesh","state_code":"35","district":"Sagar","district_code":"427","address1":"Kesli","address2":"","latitude":"23.4067","longitude":"78.7867","accuracy":"3"},{"address3":"Ghana","state":"Madhya Pradesh","state_code":"35","district":"Sagar","district_code":"427","address1":"Garhakota","address2":"","latitude":"23.6266","longitude":"78.6282","accuracy":"4"},{"address3":"Jhiriya Adharpur","state":"Madhya Pradesh","state_code":"35","district":"Sagar","district_code":"427","address1":"Kesli","address2":"","latitude":"23.4067","longitude":"78.7867","accuracy":"3"},{"address3":"Sahajpur","state":"Madhya Pradesh","state_code":"35","district":"Sagar","district_code":"427","address1":"Sagar","address2":"","latitude":"23.3029","longitude":"78.8353","accuracy":"4"},{"address3":"Muhli","state":"Madhya Pradesh","state_code":"35","district":"Sagar","district_code":"427","address1":"Rehli","address2":"","latitude":"23.2964","longitude":"78.8916","accuracy":"4"},{"address3":"Tada","state":"Madhya Pradesh","state_code":"35","district":"Sagar","district_code":"427","address1":"Kesli","address2":"","latitude":"23.4067","longitude":"78.7867","accuracy":"3"},{"address3":"Patha","state":"Madhya Pradesh","state_code":"35","district":"Sagar","district_code":"427","address1":"Kesli","address2":"","latitude":"23.4127","longitude":"78.8317","accuracy":"4"}],"470335":[{"address3":"Mahuna","state":"Madhya Pradesh","state_code":"35","district":"Sagar","district_code":"427","address1":"Sagar","address2":"","latitude":"23.6211","longitude":"79.1495","accuracy":"4"},{"address3":"Bara","state":"Madhya Pradesh","state_code":"35","district":"Sagar","district_code":"427","address1":"Sagar","address2":"","latitude":"24.0318","longitude":"79.1514","accuracy":"4"},{"address3":"Uldan","state":"Madhya Pradesh","state_code":"35","district":"Sagar","district_code":"427","address1":"Sagar","address2":"","latitude":"24.0583","longitude":"78.7772","accuracy":"4"},{"address3":"Baretha","state":"Madhya Pradesh","state_code":"35","district":"Sagar","district_code":"427","address1":"Sagar","address2":"","latitude":"23.8481","longitude":"78.7589","accuracy":"3"},{"address3":"Neemon","state":"Madhya Pradesh","state_code":"35","district":"Sagar","district_code":"427","address1":"Sagar","address2":"","latitude":"24.012","longitude":"79.0368","accuracy":"3"},{"address3":"Gugra","state":"Madhya Pradesh","state_code":"35","district":"Sagar","district_code":"427","address1":"Sagar","address2":"","latitude":"24.1407","longitude":"78.929","accuracy":"4"},{"address3":"Naindhara","state":"Madhya Pradesh","state_code":"35","district":"Sagar","district_code":"427","address1":"Sagar","address2":"","latitude":"24.0146","longitude":"79.0902","accuracy":"4"},{"address3":"Jagthar","state":"Madhya Pradesh","state_code":"35","district":"Sagar","district_code":"427","address1":"Sagar","address2":"","latitude":"24.0768","longitude":"78.9339","accuracy":"4"},{"address3":"Bhaisakhas","state":"Madhya Pradesh","state_code":"35","district":"Sagar","district_code":"427","address1":"Banda","address2":"","latitude":"24.012","longitude":"79.0368","accuracy":"3"},{"address3":"Banda Belai","state":"Madhya Pradesh","state_code":"35","district":"Sagar","district_code":"427","address1":"Sagar","address2":"","latitude":"24.012","longitude":"79.0368","accuracy":"3"},{"address3":"Kandwa","state":"Madhya Pradesh","state_code":"35","district":"Sagar","district_code":"427","address1":"Sagar","address2":"","latitude":"24.0119","longitude":"79.1276","accuracy":"4"},{"address3":"Magardha","state":"Madhya Pradesh","state_code":"35","district":"Sagar","district_code":"427","address1":"Sagar","address2":"","latitude":"23.7961","longitude":"79.146","accuracy":"4"},{"address3":"Binaka","state":"Madhya Pradesh","state_code":"35","district":"Sagar","district_code":"427","address1":"Sagar","address2":"","latitude":"24.012","longitude":"79.0368","accuracy":"3"},{"address3":"Baraj","state":"Madhya Pradesh","state_code":"35","district":"Sagar","district_code":"427","address1":"Sagar","address2":"","latitude":"24.3564","longitude":"79.0269","accuracy":"4"},{"address3":"Ghoghra Khurd","state":"Madhya Pradesh","state_code":"35","district":"Sagar","district_code":"427","address1":"Sagar","address2":"","latitude":"24.012","longitude":"79.0368","accuracy":"3"},{"address3":"Banda Nagar","state":"Madhya Pradesh","state_code":"35","district":"Sagar","district_code":"427","address1":"Sagar","address2":"","latitude":"24.012","longitude":"79.0368","accuracy":"3"},{"address3":"Barayatha","state":"Madhya Pradesh","state_code":"35","district":"Sagar","district_code":"427","address1":"Sagar","address2":"","latitude":"24.012","longitude":"79.0368","accuracy":"3"},{"address3":"Patauya","state":"Madhya Pradesh","state_code":"35","district":"Sagar","district_code":"427","address1":"Sagar","address2":"","latitude":"24.012","longitude":"79.0368","accuracy":"3"}],"470337":[{"address3":"Chhapri","state":"Madhya Pradesh","state_code":"35","district":"Sagar","district_code":"427","address1":"Banda","address2":"","latitude":"23.9584","longitude":"78.9114","accuracy":"4"},{"address3":"Kerwana","state":"Madhya Pradesh","state_code":"35","district":"Sagar","district_code":"427","address1":"Banda","address2":"","latitude":"23.9165","longitude":"78.8501","accuracy":"4"},{"address3":"Karrapur","state":"Madhya Pradesh","state_code":"35","district":"Sagar","district_code":"427","address1":"Banda","address2":"","latitude":"23.9489","longitude":"78.8658","accuracy":"4"},{"address3":"Chakeri Bineka","state":"Madhya Pradesh","state_code":"35","district":"Sagar","district_code":"427","address1":"Banda","address2":"","latitude":"23.9398","longitude":"78.8969","accuracy":"3"},{"address3":"Sahawan","state":"Madhya Pradesh","state_code":"35","district":"Sagar","district_code":"427","address1":"Banda","address2":"","latitude":"23.9355","longitude":"78.9601","accuracy":"4"}],"470339":[{"address3":"Hirapur","state":"Madhya Pradesh","state_code":"35","district":"Sagar","district_code":"427","address1":"Banda","address2":"","latitude":"24.3676","longitude":"79.2117","accuracy":"4"},{"address3":"Narwa","state":"Madhya Pradesh","state_code":"35","district":"Sagar","district_code":"427","address1":"Banda","address2":"","latitude":"23.8481","longitude":"78.7589","accuracy":"4"},{"address3":"Bilagram","state":"Madhya Pradesh","state_code":"35","district":"Sagar","district_code":"427","address1":"Banda","address2":"","latitude":"24.2657","longitude":"79.0694","accuracy":"4"},{"address3":"Khataura Kalan","state":"Madhya Pradesh","state_code":"35","district":"Sagar","district_code":"427","address1":"Banda","address2":"","latitude":"24.2842","longitude":"79.3313","accuracy":"3"},{"address3":"Rurawan","state":"Madhya Pradesh","state_code":"35","district":"Sagar","district_code":"427","address1":"Banda","address2":"","latitude":"24.1813","longitude":"79.0164","accuracy":"4"},{"address3":"Dalppatpur","state":"Madhya Pradesh","state_code":"35","district":"Sagar","district_code":"427","address1":"Banda","address2":"","latitude":"24.2842","longitude":"79.3313","accuracy":"3"},{"address3":"Shahgarh (Sagar)","state":"Madhya Pradesh","state_code":"35","district":"Sagar","district_code":"427","address1":"Banda","address2":"","latitude":"24.3137","longitude":"79.1181","accuracy":"4"},{"address3":"Tigoda","state":"Madhya Pradesh","state_code":"35","district":"Sagar","district_code":"427","address1":"Banda","address2":"","latitude":"24.3879","longitude":"79.1857","accuracy":"4"},{"address3":"Papet","state":"Madhya Pradesh","state_code":"35","district":"Sagar","district_code":"427","address1":"Banda","address2":"","latitude":"24.1716","longitude":"78.9888","accuracy":"4"},{"address3":"Amarmau","state":"Madhya Pradesh","state_code":"35","district":"Sagar","district_code":"427","address1":"Banda","address2":"","latitude":"24.3285","longitude":"79.1438","accuracy":"4"}],"470441":[{"address3":"Besra","state":"Madhya Pradesh","state_code":"35","district":"Sagar","district_code":"427","address1":"Sagar","address2":"","latitude":"24.2954","longitude":"78.1111","accuracy":"4"},{"address3":"Barodia Kala","state":"Madhya Pradesh","state_code":"35","district":"Sagar","district_code":"427","address1":"Sagar","address2":"","latitude":"24.1699","longitude":"78.7161","accuracy":"3"},{"address3":"Atta","state":"Madhya Pradesh","state_code":"35","district":"Sagar","district_code":"427","address1":"Khurai","address2":"","latitude":"24.3606","longitude":"78.5301","accuracy":"4"},{"address3":"Malthone","state":"Madhya Pradesh","state_code":"35","district":"Sagar","district_code":"427","address1":"Sagar","address2":"","latitude":"24.3055","longitude":"78.5283","accuracy":"4"},{"address3":"Rond","state":"Madhya Pradesh","state_code":"35","district":"Sagar","district_code":"427","address1":"Sagar","address2":"","latitude":"23.8481","longitude":"78.7589","accuracy":"4"},{"address3":"Parsone","state":"Madhya Pradesh","state_code":"35","district":"Sagar","district_code":"427","address1":"Sagar","address2":"","latitude":"24.1699","longitude":"78.7161","accuracy":"3"},{"address3":"Khiriya Kala","state":"Madhya Pradesh","state_code":"35","district":"Sagar","district_code":"427","address1":"Sagar","address2":"","latitude":"24.1699","longitude":"78.7161","accuracy":"3"},{"address3":"Sesai Saji","state":"Madhya Pradesh","state_code":"35","district":"Sagar","district_code":"427","address1":"Banda","address2":"","latitude":"24.1699","longitude":"78.7161","accuracy":"3"},{"address3":"Semra Lodhi","state":"Madhya Pradesh","state_code":"35","district":"Sagar","district_code":"427","address1":"Sagar","address2":"","latitude":"24.1699","longitude":"78.7161","accuracy":"3"}],"470442":[{"address3":"Newtna","state":"Madhya Pradesh","state_code":"35","district":"Sagar","district_code":"427","address1":"Sagar","address2":"","latitude":"23.9053","longitude":"78.5981","accuracy":"3"},{"address3":"Semrahat","state":"Madhya Pradesh","state_code":"35","district":"Sagar","district_code":"427","address1":"Khurai","address2":"","latitude":"23.926","longitude":"78.659","accuracy":"4"},{"address3":"Mehar","state":"Madhya Pradesh","state_code":"35","district":"Sagar","district_code":"427","address1":"Sagar","address2":"","latitude":"23.9867","longitude":"78.6588","accuracy":"4"},{"address3":"Bahrol","state":"Madhya Pradesh","state_code":"35","district":"Sagar","district_code":"427","address1":"Sagar","address2":"","latitude":"23.8906","longitude":"78.4731","accuracy":"4"},{"address3":"Laloai","state":"Madhya Pradesh","state_code":"35","district":"Sagar","district_code":"427","address1":"Sagar","address2":"","latitude":"23.9053","longitude":"78.5981","accuracy":"3"},{"address3":"Rajwas","state":"Madhya Pradesh","state_code":"35","district":"Sagar","district_code":"427","address1":"Sagar","address2":"","latitude":"23.9053","longitude":"78.5981","accuracy":"3"},{"address3":"Pidruya","state":"Madhya Pradesh","state_code":"35","district":"Sagar","district_code":"427","address1":"Sagar","address2":"","latitude":"23.9053","longitude":"78.5981","accuracy":"3"},{"address3":"Sagoni","state":"Madhya Pradesh","state_code":"35","district":"Sagar","district_code":"427","address1":"Sagar","address2":"","latitude":"23.6822","longitude":"78.5647","accuracy":"4"},{"address3":"Bandri","state":"Madhya Pradesh","state_code":"35","district":"Sagar","district_code":"427","address1":"Sagar","address2":"","latitude":"24.0409","longitude":"78.6351","accuracy":"4"},{"address3":"Pithoriya","state":"Madhya Pradesh","state_code":"35","district":"Sagar","district_code":"427","address1":"Sagar","address2":"","latitude":"23.9053","longitude":"78.5981","accuracy":"3"}],"470661":[{"address3":"Damoh Bazaria","state":"Madhya Pradesh","state_code":"35","district":"Damoh","district_code":"428","address1":"Damoh","address2":"","latitude":"23.8191","longitude":"79.684","accuracy":"3"},{"address3":"Mudia","state":"Madhya Pradesh","state_code":"35","district":"Damoh","district_code":"428","address1":"Damoh","address2":"","latitude":"23.8127","longitude":"79.5273","accuracy":"4"},{"address3":"Jortala","state":"Madhya Pradesh","state_code":"35","district":"Damoh","district_code":"428","address1":"Damoh","address2":"","latitude":"23.8753","longitude":"79.3635","accuracy":"4"},{"address3":"Bhuri","state":"Madhya Pradesh","state_code":"35","district":"Damoh","district_code":"428","address1":"Damoh","address2":"","latitude":"23.731","longitude":"79.4402","accuracy":"4"},{"address3":"Belai","state":"Madhya Pradesh","state_code":"35","district":"Damoh","district_code":"428","address1":"Damoh","address2":"","latitude":"23.8127","longitude":"79.5273","accuracy":"4"},{"address3":"Marutal","state":"Madhya Pradesh","state_code":"35","district":"Damoh","district_code":"428","address1":"Damoh","address2":"","latitude":"23.7898","longitude":"79.458","accuracy":"4"},{"address3":"Khajari","state":"Madhya Pradesh","state_code":"35","district":"Damoh","district_code":"428","address1":"Damoh","address2":"","latitude":"23.8127","longitude":"79.5273","accuracy":"4"},{"address3":"Umari","state":"Madhya Pradesh","state_code":"35","district":"Damoh","district_code":"428","address1":"Damoh","address2":"","latitude":"23.8127","longitude":"79.5273","accuracy":"4"},{"address3":"Damoh H.O","state":"Madhya Pradesh","state_code":"35","district":"Damoh","district_code":"428","address1":"Damoh","address2":"","latitude":"23.8191","longitude":"79.684","accuracy":"3"},{"address3":"Bakeni","state":"Madhya Pradesh","state_code":"35","district":"Damoh","district_code":"428","address1":"Damoh","address2":"","latitude":"23.9013","longitude":"79.3073","accuracy":"4"},{"address3":"Badagaon","state":"Madhya Pradesh","state_code":"35","district":"Damoh","district_code":"428","address1":"Patharia","address2":"","latitude":"23.8127","longitude":"79.5273","accuracy":"4"},{"address3":"Bangaon","state":"Madhya Pradesh","state_code":"35","district":"Damoh","district_code":"428","address1":"Patera","address2":"","latitude":"24.0088","longitude":"79.511","accuracy":"4"},{"address3":"Damoh City","state":"Madhya Pradesh","state_code":"35","district":"Damoh","district_code":"428","address1":"Damoh","address2":"","latitude":"23.8191","longitude":"79.684","accuracy":"3"},{"address3":"Abhana","state":"Madhya Pradesh","state_code":"35","district":"Damoh","district_code":"428","address1":"Damoh","address2":"","latitude":"23.7024","longitude":"79.5334","accuracy":"4"},{"address3":"Damoh Civil Ward","state":"Madhya Pradesh","state_code":"35","district":"Damoh","district_code":"428","address1":"Damoh","address2":"","latitude":"23.8191","longitude":"79.684","accuracy":"3"},{"address3":"Damoh R S","state":"Madhya Pradesh","state_code":"35","district":"Damoh","district_code":"428","address1":"Damoh","address2":"","latitude":"23.8191","longitude":"79.684","accuracy":"3"},{"address3":"Damoh Phutera Ward","state":"Madhya Pradesh","state_code":"35","district":"Damoh","district_code":"428","address1":"Damoh","address2":"","latitude":"23.8191","longitude":"79.684","accuracy":"3"},{"address3":"Damoh Collectrate","state":"Madhya Pradesh","state_code":"35","district":"Damoh","district_code":"428","address1":"Damoh","address2":"","latitude":"23.8191","longitude":"79.684","accuracy":"3"},{"address3":"Emlai","state":"Madhya Pradesh","state_code":"35","district":"Damoh","district_code":"428","address1":"Damoh","address2":"","latitude":"23.8191","longitude":"79.684","accuracy":"3"},{"address3":"Bijadongary","state":"Madhya Pradesh","state_code":"35","district":"Damoh","district_code":"428","address1":"Damoh","address2":"","latitude":"23.8191","longitude":"79.684","accuracy":"3"},{"address3":"Bisnakheda","state":"Madhya Pradesh","state_code":"35","district":"Damoh","district_code":"428","address1":"Damoh","address2":"","latitude":"23.8191","longitude":"79.684","accuracy":"3"},{"address3":"Kuakheda","state":"Madhya Pradesh","state_code":"35","district":"Damoh","district_code":"428","address1":"Damoh","address2":"","latitude":"23.8191","longitude":"79.684","accuracy":"3"},{"address3":"Khojakhedi","state":"Madhya Pradesh","state_code":"35","district":"Damoh","district_code":"428","address1":"Damoh","address2":"","latitude":"23.8191","longitude":"79.684","accuracy":"3"},{"address3":"Khamriya Mojilal","state":"Madhya Pradesh","state_code":"35","district":"Damoh","district_code":"428","address1":"Damoh","address2":"","latitude":"23.8191","longitude":"79.684","accuracy":"3"},{"address3":"Semra Madia","state":"Madhya Pradesh","state_code":"35","district":"Damoh","district_code":"428","address1":"Damoh","address2":"","latitude":"23.8191","longitude":"79.684","accuracy":"3"},{"address3":"Sadguya","state":"Madhya Pradesh","state_code":"35","district":"Damoh","district_code":"428","address1":"Patharia","address2":"","latitude":"23.8191","longitude":"79.684","accuracy":"3"}],"470663":[{"address3":"Lakhni","state":"Madhya Pradesh","state_code":"35","district":"Damoh","district_code":"428","address1":"Damoh","address2":"","latitude":"23.7067","longitude":"79.657","accuracy":"4"},{"address3":"Harduya Sadak","state":"Madhya Pradesh","state_code":"35","district":"Damoh","district_code":"428","address1":"Damoh","address2":"","latitude":"23.7442","longitude":"79.5706","accuracy":"3"},{"address3":"Chaupra","state":"Madhya Pradesh","state_code":"35","district":"Damoh","district_code":"428","address1":"Jabera","address2":"","latitude":"23.8017","longitude":"79.4521","accuracy":"4"},{"address3":"Kalehrakheda","state":"Madhya Pradesh","state_code":"35","district":"Damoh","district_code":"428","address1":"Damoh","address2":"","latitude":"23.7442","longitude":"79.5706","accuracy":"3"},{"address3":"Sakha","state":"Madhya Pradesh","state_code":"35","district":"Damoh","district_code":"428","address1":"Jabera","address2":"","latitude":"23.7242","longitude":"79.6027","accuracy":"4"},{"address3":"Nohata","state":"Madhya Pradesh","state_code":"35","district":"Damoh","district_code":"428","address1":"Jabera","address2":"","latitude":"23.7442","longitude":"79.5706","accuracy":"3"},{"address3":"Mojipura","state":"Madhya Pradesh","state_code":"35","district":"Damoh","district_code":"428","address1":"Jabera","address2":"","latitude":"23.7442","longitude":"79.5706","accuracy":"3"},{"address3":"Road","state":"Madhya Pradesh","state_code":"35","district":"Damoh","district_code":"428","address1":"Jabera","address2":"","latitude":"23.7442","longitude":"79.5706","accuracy":"3"},{"address3":"Bamorimala","state":"Madhya Pradesh","state_code":"35","district":"Damoh","district_code":"428","address1":"Batiyagarh","address2":"","latitude":"23.7442","longitude":"79.5706","accuracy":"3"}],"470664":[{"address3":"Ghat Pipariya","state":"Madhya Pradesh","state_code":"35","district":"Damoh","district_code":"428","address1":"Damoh","address2":"","latitude":"23.6796","longitude":"79.8665","accuracy":"3"},{"address3":"Hardua Mangarh","state":"Madhya Pradesh","state_code":"35","district":"Damoh","district_code":"428","address1":"Damoh","address2":"","latitude":"23.6796","longitude":"79.8665","accuracy":"3"},{"address3":"Salaiya","state":"Madhya Pradesh","state_code":"35","district":"Damoh","district_code":"428","address1":"Damoh","address2":"","latitude":"23.7848","longitude":"79.5438","accuracy":"4"},{"address3":"Majhguya Hansraj","state":"Madhya Pradesh","state_code":"35","district":"Damoh","district_code":"428","address1":"Patera","address2":"","latitude":"23.6796","longitude":"79.8665","accuracy":"3"},{"address3":"Ballarpur","state":"Madhya Pradesh","state_code":"35","district":"Damoh","district_code":"428","address1":"Damoh","address2":"","latitude":"23.8127","longitude":"79.5273","accuracy":"4"},{"address3":"Ghatera","state":"Madhya Pradesh","state_code":"35","district":"Damoh","district_code":"428","address1":"Jabera","address2":"","latitude":"23.8278","longitude":"79.6693","accuracy":"4"},{"address3":"Pipariya Tikari","state":"Madhya Pradesh","state_code":"35","district":"Damoh","district_code":"428","address1":"Jabera","address2":"","latitude":"23.6796","longitude":"79.8665","accuracy":"3"},{"address3":"Jujhar","state":"Madhya Pradesh","state_code":"35","district":"Damoh","district_code":"428","address1":"Damoh","address2":"","latitude":"23.7633","longitude":"79.6033","accuracy":"4"},{"address3":"Pateriya","state":"Madhya Pradesh","state_code":"35","district":"Damoh","district_code":"428","address1":"Damoh","address2":"","latitude":"23.6796","longitude":"79.8665","accuracy":"3"},{"address3":"Bandakpur","state":"Madhya Pradesh","state_code":"35","district":"Damoh","district_code":"428","address1":"Damoh","address2":"","latitude":"23.8272","longitude":"79.5744","accuracy":"4"},{"address3":"Banwar","state":"Madhya Pradesh","state_code":"35","district":"Damoh","district_code":"428","address1":"Jabera","address2":"","latitude":"23.7834","longitude":"79.6911","accuracy":"4"},{"address3":"Kumhari","state":"Madhya Pradesh","state_code":"35","district":"Damoh","district_code":"428","address1":"Patera","address2":"","latitude":"23.894","longitude":"79.8168","accuracy":"4"},{"address3":"Patna Bhangarh","state":"Madhya Pradesh","state_code":"35","district":"Damoh","district_code":"428","address1":"Damoh","address2":"","latitude":"23.6796","longitude":"79.8665","accuracy":"3"},{"address3":"Pashwaha","state":"Madhya Pradesh","state_code":"35","district":"Damoh","district_code":"428","address1":"Jabera","address2":"","latitude":"23.6796","longitude":"79.8665","accuracy":"3"}],"470666":[{"address3":"Bansa Kalan","state":"Madhya Pradesh","state_code":"35","district":"Damoh","district_code":"428","address1":"Patharia","address2":"","latitude":"23.8688","longitude":"79.1942","accuracy":"4"},{"address3":"Satpara","state":"Madhya Pradesh","state_code":"35","district":"Damoh","district_code":"428","address1":"Pathariya","address2":"","latitude":"23.9872","longitude":"79.1785","accuracy":"4"},{"address3":"Bilani","state":"Madhya Pradesh","state_code":"35","district":"Damoh","district_code":"428","address1":"Pathariya","address2":"","latitude":"23.9569","longitude":"79.2624","accuracy":"4"},{"address3":"Jerath","state":"Madhya Pradesh","state_code":"35","district":"Damoh","district_code":"428","address1":"Pathariya","address2":"","latitude":"23.8709","longitude":"79.2694","accuracy":"3"},{"address3":"Nandrai","state":"Madhya Pradesh","state_code":"35","district":"Damoh","district_code":"428","address1":"Pathariya","address2":"","latitude":"23.8582","longitude":"79.1603","accuracy":"4"},{"address3":"Sukha","state":"Madhya Pradesh","state_code":"35","district":"Damoh","district_code":"428","address1":"Pathariya","address2":"","latitude":"23.9667","longitude":"79.2221","accuracy":"4"},{"address3":"Botrai","state":"Madhya Pradesh","state_code":"35","district":"Damoh","district_code":"428","address1":"Pathariya","address2":"","latitude":"23.9329","longitude":"79.1502","accuracy":"4"},{"address3":"Kindroh","state":"Madhya Pradesh","state_code":"35","district":"Damoh","district_code":"428","address1":"Pathariya","address2":"","latitude":"23.8709","longitude":"79.2694","accuracy":"3"},{"address3":"Kevlari","state":"Madhya Pradesh","state_code":"35","district":"Damoh","district_code":"428","address1":"Pathariya","address2":"","latitude":"23.5846","longitude":"79.4923","accuracy":"4"},{"address3":"Lakhroni","state":"Madhya Pradesh","state_code":"35","district":"Damoh","district_code":"428","address1":"Pathariya","address2":"","latitude":"23.8709","longitude":"79.2694","accuracy":"3"},{"address3":"Pathariya","state":"Madhya Pradesh","state_code":"35","district":"Damoh","district_code":"428","address1":"Damoh","address2":"","latitude":"23.8115","longitude":"79.4954","accuracy":"4"}],"470669":[{"address3":"Shahpur Magrone","state":"Madhya Pradesh","state_code":"35","district":"Sagar","district_code":"427","address1":"Sagar","address2":"","latitude":"23.792","longitude":"79.6019","accuracy":"1"},{"address3":"Khera Udaet","state":"Madhya Pradesh","state_code":"35","district":"Sagar","district_code":"427","address1":"Sagar","address2":"","latitude":"23.792","longitude":"79.6019","accuracy":"1"},{"address3":"Tada","state":"Madhya Pradesh","state_code":"35","district":"Sagar","district_code":"427","address1":"Garhakota","address2":"","latitude":"23.792","longitude":"79.6019","accuracy":"1"},{"address3":"Manjala","state":"Madhya Pradesh","state_code":"35","district":"Sagar","district_code":"427","address1":"Banda","address2":"","latitude":"23.792","longitude":"79.6019","accuracy":"1"},{"address3":"Gorakhurd","state":"Madhya Pradesh","state_code":"35","district":"Sagar","district_code":"427","address1":"Sagar","address2":"","latitude":"23.792","longitude":"79.6019","accuracy":"1"}],"470672":[{"address3":"Bansa Tarkheda","state":"Madhya Pradesh","state_code":"35","district":"Damoh","district_code":"428","address1":"Damoh","address2":"","latitude":"23.8491","longitude":"78.9518","accuracy":"3"},{"address3":"Hathana","state":"Madhya Pradesh","state_code":"35","district":"Damoh","district_code":"428","address1":"Damoh","address2":"","latitude":"23.8491","longitude":"78.9518","accuracy":"3"},{"address3":"Sarkhadi","state":"Madhya Pradesh","state_code":"35","district":"Damoh","district_code":"428","address1":"Patharia","address2":"","latitude":"23.8127","longitude":"79.5273","accuracy":"4"},{"address3":"Emaliya Lanji","state":"Madhya Pradesh","state_code":"35","district":"Damoh","district_code":"428","address1":"Damoh","address2":"","latitude":"23.8491","longitude":"78.9518","accuracy":"3"},{"address3":"Balakot","state":"Madhya Pradesh","state_code":"35","district":"Damoh","district_code":"428","address1":"Damoh","address2":"","latitude":"23.6954","longitude":"79.3399","accuracy":"4"},{"address3":"Kumeriya","state":"Madhya Pradesh","state_code":"35","district":"Damoh","district_code":"428","address1":"Damoh","address2":"","latitude":"23.777","longitude":"79.2601","accuracy":"4"}],"470673":[{"address3":"Agara","state":"Madhya Pradesh","state_code":"35","district":"Damoh","district_code":"428","address1":"Damoh","address2":"","latitude":"24.1022","longitude":"79.4114","accuracy":"4"},{"address3":"Khaderi","state":"Madhya Pradesh","state_code":"35","district":"Damoh","district_code":"428","address1":"Damoh","address2":"","latitude":"23.8127","longitude":"79.5273","accuracy":"3"},{"address3":"Batiagarh","state":"Madhya Pradesh","state_code":"35","district":"Damoh","district_code":"428","address1":"Batiyagarh","address2":"","latitude":"24.1134","longitude":"79.349","accuracy":"4"},{"address3":"Kerwana","state":"Madhya Pradesh","state_code":"35","district":"Damoh","district_code":"428","address1":"Damoh","address2":"","latitude":"23.8127","longitude":"79.5273","accuracy":"4"},{"address3":"Bakayan","state":"Madhya Pradesh","state_code":"35","district":"Damoh","district_code":"428","address1":"Damoh","address2":"","latitude":"24.0415","longitude":"79.3813","accuracy":"4"},{"address3":"Ajni","state":"Madhya Pradesh","state_code":"35","district":"Damoh","district_code":"428","address1":"Damoh","address2":"","latitude":"23.8611","longitude":"79.3959","accuracy":"3"},{"address3":"Phutera Kalan","state":"Madhya Pradesh","state_code":"35","district":"Damoh","district_code":"428","address1":"Batiyagarh","address2":"","latitude":"24.0753","longitude":"79.401","accuracy":"4"},{"address3":"Tindua","state":"Madhya Pradesh","state_code":"35","district":"Damoh","district_code":"428","address1":"Damoh","address2":"","latitude":"23.8127","longitude":"79.5273","accuracy":"4"},{"address3":"Mangola","state":"Madhya Pradesh","state_code":"35","district":"Damoh","district_code":"428","address1":"Damoh","address2":"","latitude":"24.0855","longitude":"79.4557","accuracy":"4"},{"address3":"Kaithora","state":"Madhya Pradesh","state_code":"35","district":"Damoh","district_code":"428","address1":"Damoh","address2":"","latitude":"24.0579","longitude":"79.2941","accuracy":"4"}],"470675":[{"address3":"Kishangarh","state":"Madhya Pradesh","state_code":"35","district":"Damoh","district_code":"428","address1":"Damoh","address2":"","latitude":"23.8127","longitude":"79.5273","accuracy":"4"},{"address3":"Aslana","state":"Madhya Pradesh","state_code":"35","district":"Damoh","district_code":"428","address1":"Damoh","address2":"","latitude":"23.9356","longitude":"79.3113","accuracy":"4"},{"address3":"Narsingarh","state":"Madhya Pradesh","state_code":"35","district":"Damoh","district_code":"428","address1":"Patharia","address2":"","latitude":"23.8683","longitude":"79.2933","accuracy":"3"},{"address3":"Sitanagar","state":"Madhya Pradesh","state_code":"35","district":"Damoh","district_code":"428","address1":"Damoh","address2":"","latitude":"24.0174","longitude":"79.4914","accuracy":"4"},{"address3":"Mankaura","state":"Madhya Pradesh","state_code":"35","district":"Damoh","district_code":"428","address1":"Damoh","address2":"","latitude":"23.8683","longitude":"79.2933","accuracy":"3"},{"address3":"Chirola","state":"Madhya Pradesh","state_code":"35","district":"Damoh","district_code":"428","address1":"Damoh","address2":"","latitude":"23.9466","longitude":"79.3381","accuracy":"4"},{"address3":"Piparia Champat","state":"Madhya Pradesh","state_code":"35","district":"Damoh","district_code":"428","address1":"Damoh","address2":"","latitude":"23.8683","longitude":"79.2933","accuracy":"3"}],"470771":[{"address3":"Gunji","state":"Madhya Pradesh","state_code":"35","district":"Damoh","district_code":"428","address1":"Damoh","address2":"","latitude":"23.861","longitude":"79.5654","accuracy":"4"},{"address3":"Anu","state":"Madhya Pradesh","state_code":"35","district":"Damoh","district_code":"428","address1":"Damoh","address2":"","latitude":"23.8495","longitude":"79.5357","accuracy":"4"},{"address3":"Hindoriya","state":"Madhya Pradesh","state_code":"35","district":"Damoh","district_code":"428","address1":"Damoh","address2":"","latitude":"23.8127","longitude":"79.5273","accuracy":"4"},{"address3":"Kandipur","state":"Madhya Pradesh","state_code":"35","district":"Damoh","district_code":"428","address1":"Damoh","address2":"","latitude":"23.9295","longitude":"79.3247","accuracy":"3"},{"address3":"Amakheda","state":"Madhya Pradesh","state_code":"35","district":"Damoh","district_code":"428","address1":"Damoh","address2":"","latitude":"23.9295","longitude":"79.3247","accuracy":"3"}],"470772":[{"address3":"Bhartala","state":"Madhya Pradesh","state_code":"35","district":"Damoh","district_code":"428","address1":"Hatta","address2":"","latitude":"23.9476","longitude":"79.6116","accuracy":"4"},{"address3":"Kudai","state":"Madhya Pradesh","state_code":"35","district":"Damoh","district_code":"428","address1":"Damoh","address2":"","latitude":"23.8127","longitude":"79.5273","accuracy":"4"},{"address3":"Deodongra","state":"Madhya Pradesh","state_code":"35","district":"Damoh","district_code":"428","address1":"Damoh","address2":"","latitude":"23.8127","longitude":"79.5273","accuracy":"4"},{"address3":"Chewala","state":"Madhya Pradesh","state_code":"35","district":"Damoh","district_code":"428","address1":"Damoh","address2":"","latitude":"23.9273","longitude":"79.6714","accuracy":"3"},{"address3":"Patera","state":"Madhya Pradesh","state_code":"35","district":"Damoh","district_code":"428","address1":"Hatta","address2":"","latitude":"23.996","longitude":"79.6837","accuracy":"4"},{"address3":"Barkhera Bais","state":"Madhya Pradesh","state_code":"35","district":"Damoh","district_code":"428","address1":"Hatta","address2":"","latitude":"23.9273","longitude":"79.6714","accuracy":"3"},{"address3":"Kundalpur","state":"Madhya Pradesh","state_code":"35","district":"Damoh","district_code":"428","address1":"Damoh","address2":"","latitude":"23.9888","longitude":"79.7191","accuracy":"4"},{"address3":"Bamanpura","state":"Madhya Pradesh","state_code":"35","district":"Damoh","district_code":"428","address1":"Patera","address2":"","latitude":"23.9821","longitude":"79.6547","accuracy":"4"},{"address3":"Padrai","state":"Madhya Pradesh","state_code":"35","district":"Damoh","district_code":"428","address1":"Damoh","address2":"","latitude":"23.9658","longitude":"79.4542","accuracy":"4"}],"470775":[{"address3":"Hatta Bazariya","state":"Madhya Pradesh","state_code":"35","district":"Damoh","district_code":"428","address1":"Damoh","address2":"","latitude":"24.2073","longitude":"79.6601","accuracy":"3"},{"address3":"Bardha","state":"Madhya Pradesh","state_code":"35","district":"Damoh","district_code":"428","address1":"Hatta","address2":"","latitude":"24.3382","longitude":"79.7882","accuracy":"4"},{"address3":"Muraj","state":"Madhya Pradesh","state_code":"35","district":"Damoh","district_code":"428","address1":"Hatta","address2":"","latitude":"24.2073","longitude":"79.6601","accuracy":"3"},{"address3":"Hatta (Damoh)","state":"Madhya Pradesh","state_code":"35","district":"Damoh","district_code":"428","address1":"Hatta","address2":"","latitude":"24.2073","longitude":"79.6601","accuracy":"3"},{"address3":"Kuarpur","state":"Madhya Pradesh","state_code":"35","district":"Damoh","district_code":"428","address1":"Hatta","address2":"","latitude":"23.8127","longitude":"79.5273","accuracy":"4"},{"address3":"Pandajhir","state":"Madhya Pradesh","state_code":"35","district":"Damoh","district_code":"428","address1":"Batiyagarh","address2":"","latitude":"23.8127","longitude":"79.5273","accuracy":"4"},{"address3":"Magron","state":"Madhya Pradesh","state_code":"35","district":"Damoh","district_code":"428","address1":"Batiyagarh","address2":"","latitude":"24.1444","longitude":"79.4846","accuracy":"4"},{"address3":"Teoriya","state":"Madhya Pradesh","state_code":"35","district":"Damoh","district_code":"428","address1":"Hatta","address2":"","latitude":"24.2073","longitude":"79.6601","accuracy":"3"},{"address3":"Rasilpur","state":"Madhya Pradesh","state_code":"35","district":"Damoh","district_code":"428","address1":"Damoh","address2":"","latitude":"24.0943","longitude":"79.6516","accuracy":"4"},{"address3":"Hinota Kalan","state":"Madhya Pradesh","state_code":"35","district":"Damoh","district_code":"428","address1":"Hatta","address2":"","latitude":"24.2106","longitude":"79.7329","accuracy":"4"},{"address3":"Kanti","state":"Madhya Pradesh","state_code":"35","district":"Damoh","district_code":"428","address1":"Hatta","address2":"","latitude":"24.2264","longitude":"79.6502","accuracy":"4"},{"address3":"Madiyado","state":"Madhya Pradesh","state_code":"35","district":"Damoh","district_code":"428","address1":"Hatta","address2":"","latitude":"24.2073","longitude":"79.6601","accuracy":"3"},{"address3":"Bhaisa","state":"Madhya Pradesh","state_code":"35","district":"Damoh","district_code":"428","address1":"Hatta","address2":"","latitude":"24.2073","longitude":"79.6601","accuracy":"3"},{"address3":"Bhatia","state":"Madhya Pradesh","state_code":"35","district":"Damoh","district_code":"428","address1":"Patera","address2":"","latitude":"23.8127","longitude":"79.5273","accuracy":"4"},{"address3":"Baroda Kalan","state":"Madhya Pradesh","state_code":"35","district":"Damoh","district_code":"428","address1":"Batiyagarh","address2":"","latitude":"24.1394","longitude":"79.5305","accuracy":"4"},{"address3":"Muharai","state":"Madhya Pradesh","state_code":"35","district":"Damoh","district_code":"428","address1":"Hatta","address2":"","latitude":"24.2073","longitude":"79.6601","accuracy":"3"},{"address3":"Bari Kanora","state":"Madhya Pradesh","state_code":"35","district":"Damoh","district_code":"428","address1":"Batiyagarh","address2":"","latitude":"24.2073","longitude":"79.6601","accuracy":"3"},{"address3":"Binti","state":"Madhya Pradesh","state_code":"35","district":"Damoh","district_code":"428","address1":"Hatta","address2":"","latitude":"24.1596","longitude":"79.6331","accuracy":"4"},{"address3":"Kuakheda Bazi","state":"Madhya Pradesh","state_code":"35","district":"Damoh","district_code":"428","address1":"Patera","address2":"","latitude":"24.2073","longitude":"79.6601","accuracy":"3"},{"address3":"Ludhora","state":"Madhya Pradesh","state_code":"35","district":"Damoh","district_code":"428","address1":"Hatta","address2":"","latitude":"24.1824","longitude":"79.5647","accuracy":"4"},{"address3":"Kaikheda","state":"Madhya Pradesh","state_code":"35","district":"Damoh","district_code":"428","address1":"Hatta","address2":"","latitude":"24.2073","longitude":"79.6601","accuracy":"3"},{"address3":"Luhari","state":"Madhya Pradesh","state_code":"35","district":"Damoh","district_code":"428","address1":"Hatta","address2":"","latitude":"24.0739","longitude":"79.5556","accuracy":"4"},{"address3":"Deori Fatehpur","state":"Madhya Pradesh","state_code":"35","district":"Damoh","district_code":"428","address1":"Hatta","address2":"","latitude":"24.2073","longitude":"79.6601","accuracy":"3"},{"address3":"Rajpura","state":"Madhya Pradesh","state_code":"35","district":"Damoh","district_code":"428","address1":"Hatta","address2":"","latitude":"24.3472","longitude":"79.457","accuracy":"4"},{"address3":"Bhiloni","state":"Madhya Pradesh","state_code":"35","district":"Damoh","district_code":"428","address1":"Batiyagarh","address2":"","latitude":"24.2073","longitude":"79.6601","accuracy":"3"},{"address3":"Raneh","state":"Madhya Pradesh","state_code":"35","district":"Damoh","district_code":"428","address1":"Hatta","address2":"","latitude":"24.1344","longitude":"79.722","accuracy":"4"},{"address3":"Sankuiya ","state":"Madhya Pradesh","state_code":"35","district":"Damoh","district_code":"428","address1":"Hatta","address2":"","latitude":"24.1948","longitude":"79.6624","accuracy":"4"},{"address3":"Sadpur","state":"Madhya Pradesh","state_code":"35","district":"Damoh","district_code":"428","address1":"Batiyagarh","address2":"","latitude":"24.2505","longitude":"79.4025","accuracy":"4"},{"address3":"Sojna","state":"Madhya Pradesh","state_code":"35","district":"Damoh","district_code":"428","address1":"Patera","address2":"","latitude":"24.0365","longitude":"79.5975","accuracy":"4"},{"address3":"Gaisabad","state":"Madhya Pradesh","state_code":"35","district":"Damoh","district_code":"428","address1":"Hatta","address2":"","latitude":"24.2375","longitude":"79.8269","accuracy":"4"},{"address3":"Bandha","state":"Madhya Pradesh","state_code":"35","district":"Damoh","district_code":"428","address1":"Hatta","address2":"","latitude":"24.1173","longitude":"79.7652","accuracy":"4"},{"address3":"Fatehpur","state":"Madhya Pradesh","state_code":"35","district":"Damoh","district_code":"428","address1":"Batiyagarh","address2":"","latitude":"24.1918","longitude":"79.5208","accuracy":"4"}],"470880":[{"address3":"Pura","state":"Madhya Pradesh","state_code":"35","district":"Damoh","district_code":"428","address1":"Damoh","address2":"","latitude":"23.8976","longitude":"79.3768","accuracy":"4"},{"address3":"Madankheda","state":"Madhya Pradesh","state_code":"35","district":"Damoh","district_code":"428","address1":"Damoh","address2":"","latitude":"23.5127","longitude":"79.4249","accuracy":"3"},{"address3":"Ramgarh","state":"Madhya Pradesh","state_code":"35","district":"Damoh","district_code":"428","address1":"Damoh","address2":"","latitude":"23.5675","longitude":"79.4034","accuracy":"4"},{"address3":"Sanga","state":"Madhya Pradesh","state_code":"35","district":"Damoh","district_code":"428","address1":"Damoh","address2":"","latitude":"23.5017","longitude":"79.5308","accuracy":"4"},{"address3":"Sarra","state":"Madhya Pradesh","state_code":"35","district":"Damoh","district_code":"428","address1":"Damoh","address2":"","latitude":"23.3847","longitude":"79.2814","accuracy":"4"},{"address3":"Patnaraja","state":"Madhya Pradesh","state_code":"35","district":"Damoh","district_code":"428","address1":"Damoh","address2":"","latitude":"23.5127","longitude":"79.4249","accuracy":"3"},{"address3":"Dinari","state":"Madhya Pradesh","state_code":"35","district":"Damoh","district_code":"428","address1":"Damoh","address2":"","latitude":"23.6171","longitude":"79.4751","accuracy":"4"},{"address3":"Suhela","state":"Madhya Pradesh","state_code":"35","district":"Damoh","district_code":"428","address1":"Damoh","address2":"","latitude":"23.5863","longitude":"79.3558","accuracy":"4"},{"address3":"Hinoti Putrighat","state":"Madhya Pradesh","state_code":"35","district":"Damoh","district_code":"428","address1":"Damoh","address2":"","latitude":"23.5127","longitude":"79.4249","accuracy":"3"},{"address3":"Salwada","state":"Madhya Pradesh","state_code":"35","district":"Damoh","district_code":"428","address1":"Damoh","address2":"","latitude":"23.5127","longitude":"79.4249","accuracy":"3"},{"address3":"Deori Jmadar","state":"Madhya Pradesh","state_code":"35","district":"Damoh","district_code":"428","address1":"Damoh","address2":"","latitude":"23.5127","longitude":"79.4249","accuracy":"3"},{"address3":"Tendukheda","state":"Madhya Pradesh","state_code":"35","district":"Damoh","district_code":"428","address1":"Damoh","address2":"","latitude":"23.3962","longitude":"79.5395","accuracy":"4"},{"address3":"Dhangaur Kalan","state":"Madhya Pradesh","state_code":"35","district":"Damoh","district_code":"428","address1":"Damoh","address2":"","latitude":"23.5127","longitude":"79.4249","accuracy":"3"},{"address3":"Sarsawagali","state":"Madhya Pradesh","state_code":"35","district":"Damoh","district_code":"428","address1":"Damoh","address2":"","latitude":"23.5127","longitude":"79.4249","accuracy":"3"},{"address3":"Jhlaun","state":"Madhya Pradesh","state_code":"35","district":"Damoh","district_code":"428","address1":"Damoh","address2":"","latitude":"23.5127","longitude":"79.4249","accuracy":"3"},{"address3":"Samnapur","state":"Madhya Pradesh","state_code":"35","district":"Damoh","district_code":"428","address1":"Damoh","address2":"","latitude":"23.3164","longitude":"79.4","accuracy":"4"},{"address3":"Khamriya Ajitpur","state":"Madhya Pradesh","state_code":"35","district":"Damoh","district_code":"428","address1":"Damoh","address2":"","latitude":"23.5127","longitude":"79.4249","accuracy":"3"},{"address3":"Muharai","state":"Madhya Pradesh","state_code":"35","district":"Damoh","district_code":"428","address1":"Damoh","address2":"","latitude":"23.5127","longitude":"79.4249","accuracy":"3"},{"address3":"Taradehi","state":"Madhya Pradesh","state_code":"35","district":"Damoh","district_code":"428","address1":"Damoh","address2":"","latitude":"23.2876","longitude":"79.3469","accuracy":"4"},{"address3":"Tejgarh","state":"Madhya Pradesh","state_code":"35","district":"Damoh","district_code":"428","address1":"Damoh","address2":"","latitude":"23.5715","longitude":"79.539","accuracy":"4"}],"470881":[{"address3":"Kodakalan","state":"Madhya Pradesh","state_code":"35","district":"Damoh","district_code":"428","address1":"Damoh","address2":"","latitude":"23.5844","longitude":"79.6847","accuracy":"3"},{"address3":"Jabera","state":"Madhya Pradesh","state_code":"35","district":"Damoh","district_code":"428","address1":"Damoh","address2":"","latitude":"23.5582","longitude":"79.678","accuracy":"4"},{"address3":"Korta","state":"Madhya Pradesh","state_code":"35","district":"Damoh","district_code":"428","address1":"Damoh","address2":"","latitude":"23.8127","longitude":"79.5273","accuracy":"3"},{"address3":"Sigrampur","state":"Madhya Pradesh","state_code":"35","district":"Damoh","district_code":"428","address1":"Damoh","address2":"","latitude":"23.5844","longitude":"79.6847","accuracy":"3"},{"address3":"Chaurai Kalumar","state":"Madhya Pradesh","state_code":"35","district":"Damoh","district_code":"428","address1":"Damoh","address2":"","latitude":"23.5844","longitude":"79.6847","accuracy":"3"},{"address3":"Gubra Kalan","state":"Madhya Pradesh","state_code":"35","district":"Damoh","district_code":"428","address1":"Damoh","address2":"","latitude":"23.8127","longitude":"79.5273","accuracy":"4"},{"address3":"Kusmi Mangarh","state":"Madhya Pradesh","state_code":"35","district":"Damoh","district_code":"428","address1":"Damoh","address2":"","latitude":"23.5844","longitude":"79.6847","accuracy":"3"},{"address3":"Singpur","state":"Madhya Pradesh","state_code":"35","district":"Damoh","district_code":"428","address1":"Damoh","address2":"","latitude":"24.0051","longitude":"79.722","accuracy":"4"},{"address3":"Patnakuya","state":"Madhya Pradesh","state_code":"35","district":"Damoh","district_code":"428","address1":"Damoh","address2":"","latitude":"23.5844","longitude":"79.6847","accuracy":"3"},{"address3":"Karanpura","state":"Madhya Pradesh","state_code":"35","district":"Damoh","district_code":"428","address1":"Damoh","address2":"","latitude":"23.5189","longitude":"79.6708","accuracy":"4"},{"address3":"Podimangarh","state":"Madhya Pradesh","state_code":"35","district":"Damoh","district_code":"428","address1":"Damoh","address2":"","latitude":"23.5844","longitude":"79.6847","accuracy":"3"},{"address3":"Bhajiya","state":"Madhya Pradesh","state_code":"35","district":"Damoh","district_code":"428","address1":"Damoh","address2":"","latitude":"23.6401","longitude":"79.8719","accuracy":"4"}],"credits":[{"name":"geonames","url":"https://www.geonames.org"}],"last_update":"2019-03-01T09:01:37.909Z"}