{"473001":[{"address3":"Khejra","state":"Madhya Pradesh","state_code":"35","district":"Guna","district_code":"458","address1":"Guna","address2":"","latitude":"24.6168","longitude":"77.3754","accuracy":"4"},{"address3":"Haripur","state":"Madhya Pradesh","state_code":"35","district":"Guna","district_code":"458","address1":"Guna","address2":"","latitude":"24.3318","longitude":"77.6158","accuracy":"4"},{"address3":"Pagara","state":"Madhya Pradesh","state_code":"35","district":"Guna","district_code":"458","address1":"Guna","address2":"","latitude":"24.6527","longitude":"77.436","accuracy":"4"},{"address3":"Mawan","state":"Madhya Pradesh","state_code":"35","district":"Guna","district_code":"458","address1":"Guna","address2":"","latitude":"24.5546","longitude":"77.2008","accuracy":"4"},{"address3":"Guna H.O","state":"Madhya Pradesh","state_code":"35","district":"Guna","district_code":"458","address1":"Guna","address2":"","latitude":"24.4181","longitude":"77.4432","accuracy":"3"},{"address3":"Guna Collectorate","state":"Madhya Pradesh","state_code":"35","district":"Guna","district_code":"458","address1":"Guna","address2":"","latitude":"24.4181","longitude":"77.4432","accuracy":"3"},{"address3":"Guna City","state":"Madhya Pradesh","state_code":"35","district":"Guna","district_code":"458","address1":"Guna","address2":"","latitude":"24.4181","longitude":"77.4432","accuracy":"3"},{"address3":"Guna Bazar","state":"Madhya Pradesh","state_code":"35","district":"Guna","district_code":"458","address1":"Guna","address2":"","latitude":"24.4181","longitude":"77.4432","accuracy":"3"},{"address3":"Guna Cantt","state":"Madhya Pradesh","state_code":"35","district":"Guna","district_code":"458","address1":"Guna","address2":"","latitude":"24.4181","longitude":"77.4432","accuracy":"3"}],"473101":[{"address3":"Bhador","state":"Madhya Pradesh","state_code":"35","district":"Guna","district_code":"458","address1":"Aroun","address2":"","latitude":"24.4942","longitude":"77.4309","accuracy":"4"},{"address3":"Masidpur","state":"Madhya Pradesh","state_code":"35","district":"Guna","district_code":"458","address1":"Aroun","address2":"","latitude":"24.5546","longitude":"77.2008","accuracy":"4"},{"address3":"Rampur","state":"Madhya Pradesh","state_code":"35","district":"Guna","district_code":"458","address1":"Aroun","address2":"","latitude":"24.0252","longitude":"77.2132","accuracy":"4"},{"address3":"Khamkheda","state":"Madhya Pradesh","state_code":"35","district":"Guna","district_code":"458","address1":"Aroun","address2":"","latitude":"24.5546","longitude":"77.2008","accuracy":"3"},{"address3":"Mudra Khurd","state":"Madhya Pradesh","state_code":"35","district":"Guna","district_code":"458","address1":"Guna","address2":"","latitude":"24.5546","longitude":"77.2008","accuracy":"4"},{"address3":"Barkhrda Hat","state":"Madhya Pradesh","state_code":"35","district":"Guna","district_code":"458","address1":"Aroun","address2":"","latitude":"24.348","longitude":"77.5222","accuracy":"3"},{"address3":"Saleh","state":"Madhya Pradesh","state_code":"35","district":"Guna","district_code":"458","address1":"Aroun","address2":"","latitude":"24.5546","longitude":"77.2008","accuracy":"3"},{"address3":"Ghatavda","state":"Madhya Pradesh","state_code":"35","district":"Guna","district_code":"458","address1":"Aroun","address2":"","latitude":"24.348","longitude":"77.5222","accuracy":"3"},{"address3":"Ramgir Kala","state":"Madhya Pradesh","state_code":"35","district":"Guna","district_code":"458","address1":"Aroun","address2":"","latitude":"24.348","longitude":"77.5222","accuracy":"3"},{"address3":"Sehrog","state":"Madhya Pradesh","state_code":"35","district":"Guna","district_code":"458","address1":"Aroun","address2":"","latitude":"24.348","longitude":"77.5222","accuracy":"3"},{"address3":"Panwari Hat","state":"Madhya Pradesh","state_code":"35","district":"Guna","district_code":"458","address1":"Aroun","address2":"","latitude":"24.348","longitude":"77.5222","accuracy":"3"},{"address3":"Jhajhon","state":"Madhya Pradesh","state_code":"35","district":"Guna","district_code":"458","address1":"Aroun","address2":"","latitude":"24.348","longitude":"77.5222","accuracy":"3"},{"address3":"Khiriya Dangi","state":"Madhya Pradesh","state_code":"35","district":"Guna","district_code":"458","address1":"Aroun","address2":"","latitude":"24.348","longitude":"77.5222","accuracy":"3"},{"address3":"Dehri Kala","state":"Madhya Pradesh","state_code":"35","district":"Guna","district_code":"458","address1":"Aroun","address2":"","latitude":"24.348","longitude":"77.5222","accuracy":"3"},{"address3":"Mudra Mata","state":"Madhya Pradesh","state_code":"35","district":"Guna","district_code":"458","address1":"Aroun","address2":"","latitude":"24.348","longitude":"77.5222","accuracy":"3"},{"address3":"Aroun","state":"Madhya Pradesh","state_code":"35","district":"Guna","district_code":"458","address1":"Guna","address2":"","latitude":"24.348","longitude":"77.5222","accuracy":"3"}],"473105":[{"address3":"Baneh","state":"Madhya Pradesh","state_code":"35","district":"Guna","district_code":"458","address1":"Bamori","address2":"","latitude":"24.6944","longitude":"77.121","accuracy":"3"},{"address3":"Rampur","state":"Madhya Pradesh","state_code":"35","district":"Guna","district_code":"458","address1":"Bamori","address2":"","latitude":"24.3308","longitude":"77.15","accuracy":"4"},{"address3":"Sirsi","state":"Madhya Pradesh","state_code":"35","district":"Guna","district_code":"458","address1":"Bamori","address2":"","latitude":"24.3761","longitude":"77.4457","accuracy":"4"},{"address3":"Magroda","state":"Madhya Pradesh","state_code":"35","district":"Guna","district_code":"458","address1":"Bamori","address2":"","latitude":"24.6944","longitude":"77.121","accuracy":"3"},{"address3":"Ramnagar","state":"Madhya Pradesh","state_code":"35","district":"Guna","district_code":"458","address1":"Bamori","address2":"","latitude":"24.3777","longitude":"77.1914","accuracy":"4"},{"address3":"Markimahu","state":"Madhya Pradesh","state_code":"35","district":"Guna","district_code":"458","address1":"Bamori","address2":"","latitude":"24.6944","longitude":"77.121","accuracy":"3"},{"address3":"Fatehgarh","state":"Madhya Pradesh","state_code":"35","district":"Guna","district_code":"458","address1":"Bamori","address2":"","latitude":"24.7967","longitude":"76.9642","accuracy":"4"},{"address3":"Bamori","state":"Madhya Pradesh","state_code":"35","district":"Guna","district_code":"458","address1":"Bamori","address2":"","latitude":"24.6322","longitude":"77.267","accuracy":"4"},{"address3":"Hamirpur","state":"Madhya Pradesh","state_code":"35","district":"Guna","district_code":"458","address1":"Bamori","address2":"","latitude":"24.7619","longitude":"76.8591","accuracy":"4"},{"address3":"Garha","state":"Madhya Pradesh","state_code":"35","district":"Guna","district_code":"458","address1":"Bamori","address2":"","latitude":"24.5546","longitude":"77.2008","accuracy":"4"},{"address3":"Jhagar","state":"Madhya Pradesh","state_code":"35","district":"Guna","district_code":"458","address1":"Bamori","address2":"","latitude":"24.6786","longitude":"77.1334","accuracy":"4"},{"address3":"Sonkhara","state":"Madhya Pradesh","state_code":"35","district":"Guna","district_code":"458","address1":"Bamori","address2":"","latitude":"24.6944","longitude":"77.121","accuracy":"3"},{"address3":"Kapasi","state":"Madhya Pradesh","state_code":"35","district":"Guna","district_code":"458","address1":"Bamori","address2":"","latitude":"24.9087","longitude":"76.9379","accuracy":"4"},{"address3":"Rampurcolony","state":"Madhya Pradesh","state_code":"35","district":"Guna","district_code":"458","address1":"Bamori","address2":"","latitude":"24.6944","longitude":"77.121","accuracy":"3"},{"address3":"Parwah","state":"Madhya Pradesh","state_code":"35","district":"Guna","district_code":"458","address1":"Bamori","address2":"","latitude":"24.6944","longitude":"77.121","accuracy":"3"},{"address3":"Padon","state":"Madhya Pradesh","state_code":"35","district":"Guna","district_code":"458","address1":"Bamori","address2":"","latitude":"24.6944","longitude":"77.121","accuracy":"3"},{"address3":"Paranth","state":"Madhya Pradesh","state_code":"35","district":"Guna","district_code":"458","address1":"Bamori","address2":"","latitude":"24.6944","longitude":"77.121","accuracy":"3"},{"address3":"Kushepur","state":"Madhya Pradesh","state_code":"35","district":"Guna","district_code":"458","address1":"Bamori","address2":"","latitude":"24.6944","longitude":"77.121","accuracy":"3"},{"address3":"Johri","state":"Madhya Pradesh","state_code":"35","district":"Guna","district_code":"458","address1":"Bamori","address2":"","latitude":"24.6944","longitude":"77.121","accuracy":"3"},{"address3":"Bishanwada","state":"Madhya Pradesh","state_code":"35","district":"Guna","district_code":"458","address1":"Bamori","address2":"","latitude":"24.6944","longitude":"77.121","accuracy":"3"},{"address3":"Babrikheda","state":"Madhya Pradesh","state_code":"35","district":"Guna","district_code":"458","address1":"Bamori","address2":"","latitude":"24.6944","longitude":"77.121","accuracy":"3"}],"473110":[{"address3":"Dorana","state":"Madhya Pradesh","state_code":"35","district":"Guna","district_code":"458","address1":"Raghogarh","address2":"","latitude":"24.4809","longitude":"77.1829","accuracy":"4"},{"address3":"Muradpur","state":"Madhya Pradesh","state_code":"35","district":"Guna","district_code":"458","address1":"Raghogarh","address2":"","latitude":"24.5546","longitude":"77.2008","accuracy":"4"},{"address3":"Ruthiyai","state":"Madhya Pradesh","state_code":"35","district":"Guna","district_code":"458","address1":"Raghogarh","address2":"","latitude":"24.2624","longitude":"77.4108","accuracy":"3"},{"address3":"Dharnawda","state":"Madhya Pradesh","state_code":"35","district":"Guna","district_code":"458","address1":"Raghogarh","address2":"","latitude":"24.2624","longitude":"77.4108","accuracy":"3"}],"473111":[{"address3":"Bhamawad","state":"Madhya Pradesh","state_code":"35","district":"Guna","district_code":"458","address1":"Raghogarh","address2":"","latitude":"24.4724","longitude":"77.0973","accuracy":"4"},{"address3":"Vijaypur","state":"Madhya Pradesh","state_code":"35","district":"Guna","district_code":"458","address1":"Raghogarh","address2":"","latitude":"24.5546","longitude":"77.2008","accuracy":"4"},{"address3":"Dongar Vijaypur","state":"Madhya Pradesh","state_code":"35","district":"Guna","district_code":"458","address1":"Raghogarh","address2":"","latitude":"24.6015","longitude":"78.3381","accuracy":"3"},{"address3":"N.F.L.Vijaipur","state":"Madhya Pradesh","state_code":"35","district":"Guna","district_code":"458","address1":"Raghogarh","address2":"","latitude":"24.6015","longitude":"78.3381","accuracy":"3"}],"473112":[{"address3":"Gail Complex","state":"Madhya Pradesh","state_code":"35","district":"Guna","district_code":"458","address1":"Raghogarh","address2":"","latitude":"24.3493","longitude":"77.3036","accuracy":"1"}],"473113":[{"address3":"Hinotia","state":"Madhya Pradesh","state_code":"35","district":"Guna","district_code":"458","address1":"Guna","address2":"","latitude":"24.7362","longitude":"77.4623","accuracy":"4"},{"address3":"Ukawad","state":"Madhya Pradesh","state_code":"35","district":"Guna","district_code":"458","address1":"Guna","address2":"","latitude":"24.7601","longitude":"77.528","accuracy":"4"},{"address3":"Magrana","state":"Madhya Pradesh","state_code":"35","district":"Guna","district_code":"458","address1":"Guna","address2":"","latitude":"24.7055","longitude":"77.5","accuracy":"4"},{"address3":"Bhadora","state":"Madhya Pradesh","state_code":"35","district":"Guna","district_code":"458","address1":"Guna","address2":"","latitude":"24.5546","longitude":"77.2008","accuracy":"4"},{"address3":"Umri","state":"Madhya Pradesh","state_code":"35","district":"Guna","district_code":"458","address1":"Guna","address2":"","latitude":"24.7526","longitude":"77.3135","accuracy":"4"},{"address3":"Dhamnar","state":"Madhya Pradesh","state_code":"35","district":"Guna","district_code":"458","address1":"Guna","address2":"","latitude":"24.5546","longitude":"77.2008","accuracy":"4"},{"address3":"Myana","state":"Madhya Pradesh","state_code":"35","district":"Guna","district_code":"458","address1":"Guna","address2":"","latitude":"24.6231","longitude":"77.3863","accuracy":"3"},{"address3":"Khutiyawad","state":"Madhya Pradesh","state_code":"35","district":"Guna","district_code":"458","address1":"Guna","address2":"","latitude":"24.6231","longitude":"77.3863","accuracy":"3"},{"address3":"Nehgawa","state":"Madhya Pradesh","state_code":"35","district":"Guna","district_code":"458","address1":"Guna","address2":"","latitude":"24.6231","longitude":"77.3863","accuracy":"3"}],"473115":[{"address3":"Konya Kala","state":"Madhya Pradesh","state_code":"35","district":"Guna","district_code":"458","address1":"Chacauda","address2":"","latitude":"24.0697","longitude":"77.1708","accuracy":"3"},{"address3":"Kotra","state":"Madhya Pradesh","state_code":"35","district":"Guna","district_code":"458","address1":"Chacauda","address2":"","latitude":"24.5546","longitude":"77.2008","accuracy":"4"},{"address3":"Teligaon","state":"Madhya Pradesh","state_code":"35","district":"Guna","district_code":"458","address1":"Chacauda","address2":"","latitude":"24.121","longitude":"77.1078","accuracy":"4"},{"address3":"Barkheda Khurd","state":"Madhya Pradesh","state_code":"35","district":"Guna","district_code":"458","address1":"Chacauda","address2":"","latitude":"24.0697","longitude":"77.1708","accuracy":"3"},{"address3":"Lakhanwas","state":"Madhya Pradesh","state_code":"35","district":"Guna","district_code":"458","address1":"Chacauda","address2":"","latitude":"24.1466","longitude":"77.1038","accuracy":"4"},{"address3":"Ramdi","state":"Madhya Pradesh","state_code":"35","district":"Guna","district_code":"458","address1":"Chacauda","address2":"","latitude":"24.0697","longitude":"77.1708","accuracy":"3"},{"address3":"Murela","state":"Madhya Pradesh","state_code":"35","district":"Guna","district_code":"458","address1":"Chacauda","address2":"","latitude":"24.0697","longitude":"77.1708","accuracy":"3"},{"address3":"Patondi","state":"Madhya Pradesh","state_code":"35","district":"Guna","district_code":"458","address1":"Chacauda","address2":"","latitude":"24.223","longitude":"77.0672","accuracy":"4"},{"address3":"Penchi","state":"Madhya Pradesh","state_code":"35","district":"Guna","district_code":"458","address1":"Chacauda","address2":"","latitude":"24.1346","longitude":"77.011","accuracy":"4"},{"address3":"Bapcha Lahriya","state":"Madhya Pradesh","state_code":"35","district":"Guna","district_code":"458","address1":"Chacauda","address2":"","latitude":"24.0697","longitude":"77.1708","accuracy":"3"},{"address3":"Rani Khejra","state":"Madhya Pradesh","state_code":"35","district":"Guna","district_code":"458","address1":"Chacauda","address2":"","latitude":"24.2851","longitude":"77.0908","accuracy":"4"},{"address3":"Binaganj","state":"Madhya Pradesh","state_code":"35","district":"Guna","district_code":"458","address1":"Chachoda","address2":"","latitude":"24.1894","longitude":"77.0321","accuracy":"4"}],"473118":[{"address3":"Umarthana","state":"Madhya Pradesh","state_code":"35","district":"Guna","district_code":"458","address1":"Chacauda","address2":"","latitude":"24.3327","longitude":"75.4546","accuracy":"3"},{"address3":"Chachauda","state":"Madhya Pradesh","state_code":"35","district":"Guna","district_code":"458","address1":"Chachauda","address2":"","latitude":"24.5546","longitude":"77.2008","accuracy":"4"}],"473222":[{"address3":"Sanai","state":"Madhya Pradesh","state_code":"35","district":"Guna","district_code":"458","address1":"Kumbhraj","address2":"","latitude":"24.3863","longitude":"76.928","accuracy":"4"},{"address3":"Mrigwas","state":"Madhya Pradesh","state_code":"35","district":"Guna","district_code":"458","address1":"Kumbhraj","address2":"","latitude":"24.3642","longitude":"76.9694","accuracy":"3"},{"address3":"Barod","state":"Madhya Pradesh","state_code":"35","district":"Guna","district_code":"458","address1":"Kumbhraj","address2":"","latitude":"24.4188","longitude":"76.9849","accuracy":"4"},{"address3":"Bataoda","state":"Madhya Pradesh","state_code":"35","district":"Guna","district_code":"458","address1":"Kumbhraj","address2":"","latitude":"24.2782","longitude":"76.9164","accuracy":"4"},{"address3":"Kumbhraj","state":"Madhya Pradesh","state_code":"35","district":"Guna","district_code":"458","address1":"Kumbhraj","address2":"","latitude":"24.3734","longitude":"77.0484","accuracy":"4"}],"473226":[{"address3":"Kherai","state":"Madhya Pradesh","state_code":"35","district":"Guna","district_code":"458","address1":"Raghogarh","address2":"","latitude":"24.5546","longitude":"77.2008","accuracy":"4"},{"address3":"Ramnagar","state":"Madhya Pradesh","state_code":"35","district":"Guna","district_code":"458","address1":"Raghogarh","address2":"","latitude":"24.3777","longitude":"77.1914","accuracy":"4"},{"address3":"Awan","state":"Madhya Pradesh","state_code":"35","district":"Guna","district_code":"458","address1":"Raghogarh","address2":"","latitude":"24.4073","longitude":"77.1364","accuracy":"4"},{"address3":"Raghogarh","state":"Madhya Pradesh","state_code":"35","district":"Guna","district_code":"458","address1":"Raghogarh","address2":"","latitude":"24.4432","longitude":"77.1977","accuracy":"4"}],"473249":[{"address3":"Barkheda Gird","state":"Madhya Pradesh","state_code":"35","district":"Guna","district_code":"458","address1":"Guna","address2":"","latitude":"24.559","longitude":"77.3331","accuracy":"3"},{"address3":"Bajranggarh","state":"Madhya Pradesh","state_code":"35","district":"Guna","district_code":"458","address1":"Guna","address2":"","latitude":"24.5828","longitude":"77.2871","accuracy":"4"},{"address3":"Gehunkheda","state":"Madhya Pradesh","state_code":"35","district":"Guna","district_code":"458","address1":"Guna","address2":"","latitude":"24.559","longitude":"77.3331","accuracy":"3"},{"address3":"Satanpur","state":"Madhya Pradesh","state_code":"35","district":"Guna","district_code":"458","address1":"Guna","address2":"","latitude":"24.5353","longitude":"77.3791","accuracy":"4"},{"address3":"Muhalpur","state":"Madhya Pradesh","state_code":"35","district":"Guna","district_code":"458","address1":"Guna","address2":"","latitude":"24.559","longitude":"77.3331","accuracy":"3"}],"473287":[{"address3":"Parkana","state":"Madhya Pradesh","state_code":"35","district":"Guna","district_code":"458","address1":"Maksudangarh","address2":"","latitude":"24.5546","longitude":"77.2008","accuracy":"4"},{"address3":"Badi Ukawad","state":"Madhya Pradesh","state_code":"35","district":"Guna","district_code":"458","address1":"Maksudangarh","address2":"","latitude":"24.181","longitude":"77.2072","accuracy":"3"},{"address3":"Jangru","state":"Madhya Pradesh","state_code":"35","district":"Guna","district_code":"458","address1":"Maksudangarh","address2":"","latitude":"24.1424","longitude":"77.2035","accuracy":"4"},{"address3":"Nasirpur","state":"Madhya Pradesh","state_code":"35","district":"Guna","district_code":"458","address1":"Maksudangarh","address2":"","latitude":"24.181","longitude":"77.2072","accuracy":"3"},{"address3":"Jamner","state":"Madhya Pradesh","state_code":"35","district":"Guna","district_code":"458","address1":"Maksudangarh","address2":"","latitude":"24.1821","longitude":"77.2066","accuracy":"4"},{"address3":"Dongar Motipur","state":"Madhya Pradesh","state_code":"35","district":"Guna","district_code":"458","address1":"Maksudangarh","address2":"","latitude":"24.181","longitude":"77.2072","accuracy":"3"},{"address3":"Shahpur","state":"Madhya Pradesh","state_code":"35","district":"Guna","district_code":"458","address1":"Maksudangarh","address2":"","latitude":"24.8757","longitude":"77.5459","accuracy":"4"},{"address3":"Todra","state":"Madhya Pradesh","state_code":"35","district":"Guna","district_code":"458","address1":"Maksudangarh","address2":"","latitude":"24.181","longitude":"77.2072","accuracy":"3"},{"address3":"Barsat","state":"Madhya Pradesh","state_code":"35","district":"Guna","district_code":"458","address1":"Maksudangarh","address2":"","latitude":"24.268","longitude":"77.1522","accuracy":"4"},{"address3":"Maksudangarh","state":"Madhya Pradesh","state_code":"35","district":"Guna","district_code":"458","address1":"Maksudangarh","address2":"","latitude":"24.0616","longitude":"77.2537","accuracy":"4"},{"address3":"Torai","state":"Madhya Pradesh","state_code":"35","district":"Guna","district_code":"458","address1":"Maksudangarh","address2":"","latitude":"24.0809","longitude":"77.2375","accuracy":"4"},{"address3":"Gaori","state":"Madhya Pradesh","state_code":"35","district":"Guna","district_code":"458","address1":"Maksudangarh","address2":"","latitude":"24.5546","longitude":"77.2008","accuracy":"4"}],"473330":[{"address3":"Renjha","state":"Madhya Pradesh","state_code":"35","district":"Ashok Nagar","district_code":"459","address1":"Ashoknagar","address2":"","latitude":"24.6094","longitude":"77.8752","accuracy":"4"},{"address3":"Jalalpur","state":"Madhya Pradesh","state_code":"35","district":"Ashok Nagar","district_code":"459","address1":"Ashoknagar","address2":"","latitude":"24.5117","longitude":"77.6938","accuracy":"4"},{"address3":"Shadora","state":"Madhya Pradesh","state_code":"35","district":"Ashok Nagar","district_code":"459","address1":"Ashoknagar","address2":"","latitude":"24.6925","longitude":"77.588","accuracy":"3"},{"address3":"Jheela","state":"Madhya Pradesh","state_code":"35","district":"Ashok Nagar","district_code":"459","address1":"Ashoknagar","address2":"","latitude":"24.6925","longitude":"77.588","accuracy":"3"},{"address3":"Mathner","state":"Madhya Pradesh","state_code":"35","district":"Ashok Nagar","district_code":"459","address1":"Ashoknagar","address2":"","latitude":"24.5406","longitude":"77.5768","accuracy":"4"},{"address3":"Raje Bamora","state":"Madhya Pradesh","state_code":"35","district":"Ashok Nagar","district_code":"459","address1":"Ashoknagar","address2":"","latitude":"24.6925","longitude":"77.588","accuracy":"3"},{"address3":"Pipri","state":"Madhya Pradesh","state_code":"35","district":"Ashok Nagar","district_code":"459","address1":"Ashoknagar","address2":"","latitude":"24.7401","longitude":"77.6272","accuracy":"4"},{"address3":"Pilighata","state":"Madhya Pradesh","state_code":"35","district":"Ashok Nagar","district_code":"459","address1":"Ashoknagar","address2":"","latitude":"24.6925","longitude":"77.588","accuracy":"3"},{"address3":"Seji","state":"Madhya Pradesh","state_code":"35","district":"Ashok Nagar","district_code":"459","address1":"Ashoknagar","address2":"","latitude":"24.6295","longitude":"77.535","accuracy":"4"},{"address3":"Bagulya","state":"Madhya Pradesh","state_code":"35","district":"Ashok Nagar","district_code":"459","address1":"Ashoknagar","address2":"","latitude":"24.6925","longitude":"77.588","accuracy":"3"}],"473331":[{"address3":"Ashoknagar H.O","state":"Madhya Pradesh","state_code":"35","district":"Guna","district_code":"458","address1":"Ashoknagar","address2":"","latitude":"24.5528","longitude":"77.9975","accuracy":"3"},{"address3":"Kachnar","state":"Madhya Pradesh","state_code":"35","district":"Ashok Nagar","district_code":"459","address1":"Ashoknagar","address2":"","latitude":"24.4356","longitude":"77.6336","accuracy":"4"},{"address3":"Rijoda","state":"Madhya Pradesh","state_code":"35","district":"Ashok Nagar","district_code":"459","address1":"Ashoknagar","address2":"","latitude":"24.6094","longitude":"77.8752","accuracy":"4"},{"address3":"Semrahat","state":"Madhya Pradesh","state_code":"35","district":"Ashok Nagar","district_code":"459","address1":"Ashoknagar","address2":"","latitude":"24.6094","longitude":"77.8752","accuracy":"4"},{"address3":"Narayanpur","state":"Madhya Pradesh","state_code":"35","district":"Ashok Nagar","district_code":"459","address1":"Ashoknagar","address2":"","latitude":"24.6094","longitude":"77.8752","accuracy":"4"},{"address3":"Subash Ganj Ashoknagar","state":"Madhya Pradesh","state_code":"35","district":"Ashok Nagar","district_code":"459","address1":"Ashoknagar","address2":"","latitude":"24.5528","longitude":"77.9975","accuracy":"3"},{"address3":"Ratikheda","state":"Madhya Pradesh","state_code":"35","district":"Ashok Nagar","district_code":"459","address1":"Ashoknagar","address2":"","latitude":"24.5528","longitude":"77.9975","accuracy":"3"},{"address3":"Ashoknagar Collectorate","state":"Madhya Pradesh","state_code":"35","district":"Ashok Nagar","district_code":"459","address1":"Ashok Nagar","address2":"","latitude":"24.5528","longitude":"77.9975","accuracy":"3"},{"address3":"Kukretha","state":"Madhya Pradesh","state_code":"35","district":"Ashok Nagar","district_code":"459","address1":"Ashoknagar","address2":"","latitude":"24.7636","longitude":"77.6886","accuracy":"4"},{"address3":"Patkheda","state":"Madhya Pradesh","state_code":"35","district":"Ashok Nagar","district_code":"459","address1":"Ashoknagar","address2":"","latitude":"24.5528","longitude":"77.9975","accuracy":"3"},{"address3":"Barodia","state":"Madhya Pradesh","state_code":"35","district":"Ashok Nagar","district_code":"459","address1":"Ashoknagar","address2":"","latitude":"24.6856","longitude":"78.0084","accuracy":"4"},{"address3":"Mudra Bhadra","state":"Madhya Pradesh","state_code":"35","district":"Ashok Nagar","district_code":"459","address1":"Ashoknagar","address2":"","latitude":"24.5528","longitude":"77.9975","accuracy":"3"},{"address3":"Dhekan","state":"Madhya Pradesh","state_code":"35","district":"Ashok Nagar","district_code":"459","address1":"Ashoknagar","address2":"","latitude":"24.4233","longitude":"77.7853","accuracy":"4"},{"address3":"Tumen","state":"Madhya Pradesh","state_code":"35","district":"Ashok Nagar","district_code":"459","address1":"Ashoknagar","address2":"","latitude":"24.5528","longitude":"77.9975","accuracy":"3"},{"address3":"Rajpur","state":"Madhya Pradesh","state_code":"35","district":"Ashok Nagar","district_code":"459","address1":"Ashoknagar","address2":"","latitude":"24.3804","longitude":"77.6901","accuracy":"4"},{"address3":"Raosar","state":"Madhya Pradesh","state_code":"35","district":"Ashok Nagar","district_code":"459","address1":"Ashoknagar","address2":"","latitude":"24.5528","longitude":"77.9975","accuracy":"3"},{"address3":"Hyder","state":"Madhya Pradesh","state_code":"35","district":"Ashok Nagar","district_code":"459","address1":"Ashoknagar","address2":"","latitude":"24.5528","longitude":"77.9975","accuracy":"3"},{"address3":"Shri Anandpur","state":"Madhya Pradesh","state_code":"35","district":"Ashok Nagar","district_code":"459","address1":"Ashoknagar","address2":"","latitude":"24.5528","longitude":"77.9975","accuracy":"3"},{"address3":"Berkhedi Tumen","state":"Madhya Pradesh","state_code":"35","district":"Ashok Nagar","district_code":"459","address1":"Ashoknagar","address2":"","latitude":"24.5528","longitude":"77.9975","accuracy":"3"},{"address3":"Athaikheda","state":"Madhya Pradesh","state_code":"35","district":"Ashok Nagar","district_code":"459","address1":"Ashoknagar","address2":"","latitude":"24.5528","longitude":"77.9975","accuracy":"3"},{"address3":"Dangora Foot","state":"Madhya Pradesh","state_code":"35","district":"Ashok Nagar","district_code":"459","address1":"Ashoknagar","address2":"","latitude":"24.5528","longitude":"77.9975","accuracy":"3"},{"address3":"Bhesarwas","state":"Madhya Pradesh","state_code":"35","district":"Ashok Nagar","district_code":"459","address1":"Ashoknagar","address2":"","latitude":"24.5528","longitude":"77.9975","accuracy":"3"},{"address3":"Bilakhedi","state":"Madhya Pradesh","state_code":"35","district":"Ashok Nagar","district_code":"459","address1":"Ashoknagar","address2":"","latitude":"24.5528","longitude":"77.9975","accuracy":"3"},{"address3":"Kariyya Rai","state":"Madhya Pradesh","state_code":"35","district":"Ashok Nagar","district_code":"459","address1":"Ashoknagar","address2":"","latitude":"24.5528","longitude":"77.9975","accuracy":"3"},{"address3":"Kjajuriya Kala","state":"Madhya Pradesh","state_code":"35","district":"Ashok Nagar","district_code":"459","address1":"Ashoknagar","address2":"","latitude":"24.5528","longitude":"77.9975","accuracy":"3"},{"address3":"Garroli","state":"Madhya Pradesh","state_code":"35","district":"Ashok Nagar","district_code":"459","address1":"Ashoknagar","address2":"","latitude":"24.6094","longitude":"77.8752","accuracy":"4"},{"address3":"Taraoli","state":"Madhya Pradesh","state_code":"35","district":"Ashok Nagar","district_code":"459","address1":"Ashoknagar","address2":"","latitude":"24.5528","longitude":"77.9975","accuracy":"3"}],"473332":[{"address3":"Chhapar","state":"Madhya Pradesh","state_code":"35","district":"Ashok Nagar","district_code":"459","address1":"Ashoknagar","address2":"","latitude":"24.8218","longitude":"77.5554","accuracy":"4"},{"address3":"Amrod","state":"Madhya Pradesh","state_code":"35","district":"Ashok Nagar","district_code":"459","address1":"Ashoknagar","address2":"","latitude":"24.8158","longitude":"77.6173","accuracy":"3"},{"address3":"Naisarai","state":"Madhya Pradesh","state_code":"35","district":"Ashok Nagar","district_code":"459","address1":"Esagarh","address2":"","latitude":"24.8158","longitude":"77.6173","accuracy":"3"},{"address3":"Depalkhedi","state":"Madhya Pradesh","state_code":"35","district":"Ashok Nagar","district_code":"459","address1":"Ashoknagar","address2":"","latitude":"24.8158","longitude":"77.6173","accuracy":"3"},{"address3":"Jaleshwar","state":"Madhya Pradesh","state_code":"35","district":"Ashok Nagar","district_code":"459","address1":"Ashoknagar","address2":"","latitude":"24.8098","longitude":"77.6792","accuracy":"4"},{"address3":"Dungasara","state":"Madhya Pradesh","state_code":"35","district":"Ashok Nagar","district_code":"459","address1":"Ashoknagar","address2":"","latitude":"24.8158","longitude":"77.6173","accuracy":"3"}],"473335":[{"address3":"Mahuan","state":"Madhya Pradesh","state_code":"35","district":"Ashok Nagar","district_code":"459","address1":"Esagarh","address2":"","latitude":"24.6094","longitude":"77.8752","accuracy":"4"},{"address3":"Parsol","state":"Madhya Pradesh","state_code":"35","district":"Ashok Nagar","district_code":"459","address1":"Esagarh","address2":"","latitude":"24.8871","longitude":"77.7781","accuracy":"4"},{"address3":"Bamnawar","state":"Madhya Pradesh","state_code":"35","district":"Ashok Nagar","district_code":"459","address1":"Esagarh","address2":"","latitude":"24.8006","longitude":"77.8187","accuracy":"4"},{"address3":"Esagarh","state":"Madhya Pradesh","state_code":"35","district":"Ashok Nagar","district_code":"459","address1":"Esagarh","address2":"","latitude":"25.0777","longitude":"77.9784","accuracy":"3"},{"address3":"Rajtala","state":"Madhya Pradesh","state_code":"35","district":"Ashok Nagar","district_code":"459","address1":"Esagarh","address2":"","latitude":"25.0777","longitude":"77.9784","accuracy":"3"},{"address3":"Chhapra","state":"Madhya Pradesh","state_code":"35","district":"Ashok Nagar","district_code":"459","address1":"Esagarh","address2":"","latitude":"24.9249","longitude":"77.8487","accuracy":"4"},{"address3":"Mahidpur","state":"Madhya Pradesh","state_code":"35","district":"Ashok Nagar","district_code":"459","address1":"Esagarh","address2":"","latitude":"25.0777","longitude":"77.9784","accuracy":"3"},{"address3":"Derkha","state":"Madhya Pradesh","state_code":"35","district":"Ashok Nagar","district_code":"459","address1":"Esagarh","address2":"","latitude":"24.712","longitude":"77.7039","accuracy":"4"},{"address3":"Khiriyadewat","state":"Madhya Pradesh","state_code":"35","district":"Ashok Nagar","district_code":"459","address1":"Esagarh","address2":"","latitude":"25.0777","longitude":"77.9784","accuracy":"3"},{"address3":"Dhakoni","state":"Madhya Pradesh","state_code":"35","district":"Ashok Nagar","district_code":"459","address1":"Esagarh","address2":"","latitude":"25.0777","longitude":"77.9784","accuracy":"3"},{"address3":"Gahora","state":"Madhya Pradesh","state_code":"35","district":"Ashok Nagar","district_code":"459","address1":"Esagarh","address2":"","latitude":"25.0777","longitude":"77.9784","accuracy":"3"},{"address3":"Dhurra","state":"Madhya Pradesh","state_code":"35","district":"Ashok Nagar","district_code":"459","address1":"Esagarh","address2":"","latitude":"24.7039","longitude":"77.7339","accuracy":"4"},{"address3":"Kadwaya","state":"Madhya Pradesh","state_code":"35","district":"Ashok Nagar","district_code":"459","address1":"Esagarh","address2":"","latitude":"25.0777","longitude":"77.9784","accuracy":"3"},{"address3":"Saraskhedi","state":"Madhya Pradesh","state_code":"35","district":"Ashok Nagar","district_code":"459","address1":"Esagarh","address2":"","latitude":"25.0777","longitude":"77.9784","accuracy":"3"},{"address3":"Endore","state":"Madhya Pradesh","state_code":"35","district":"Ashok Nagar","district_code":"459","address1":"Esagarh","address2":"","latitude":"25.0777","longitude":"77.9784","accuracy":"3"},{"address3":"Janghar","state":"Madhya Pradesh","state_code":"35","district":"Ashok Nagar","district_code":"459","address1":"Esagarh","address2":"","latitude":"25.0777","longitude":"77.9784","accuracy":"3"},{"address3":"Pipresra","state":"Madhya Pradesh","state_code":"35","district":"Ashok Nagar","district_code":"459","address1":"Esagarh","address2":"","latitude":"25.0777","longitude":"77.9784","accuracy":"3"}],"473440":[{"address3":"Sigon","state":"Madhya Pradesh","state_code":"35","district":"Ashok Nagar","district_code":"459","address1":"Mungaoli","address2":"","latitude":"24.6094","longitude":"77.8752","accuracy":"4"},{"address3":"Tamasha","state":"Madhya Pradesh","state_code":"35","district":"Ashok Nagar","district_code":"459","address1":"Mungaoli","address2":"","latitude":"24.4477","longitude":"77.9658","accuracy":"4"},{"address3":"Keshopur","state":"Madhya Pradesh","state_code":"35","district":"Ashok Nagar","district_code":"459","address1":"Mungaoli","address2":"","latitude":"24.4873","longitude":"77.9255","accuracy":"4"},{"address3":"Garenthi","state":"Madhya Pradesh","state_code":"35","district":"Ashok Nagar","district_code":"459","address1":"Mungaoli","address2":"","latitude":"24.5756","longitude":"78.306","accuracy":"3"},{"address3":"Piprai","state":"Madhya Pradesh","state_code":"35","district":"Ashok Nagar","district_code":"459","address1":"Mungaoli","address2":"","latitude":"24.5097","longitude":"77.9642","accuracy":"4"},{"address3":"Singhada","state":"Madhya Pradesh","state_code":"35","district":"Ashok Nagar","district_code":"459","address1":"Mungaoli","address2":"","latitude":"24.5756","longitude":"78.306","accuracy":"3"}],"473443":[{"address3":"Madaukhedi","state":"Madhya Pradesh","state_code":"35","district":"Ashok Nagar","district_code":"459","address1":"Mungaoli","address2":"","latitude":"24.3679","longitude":"78.1148","accuracy":"3"},{"address3":"Mungaoli","state":"Madhya Pradesh","state_code":"35","district":"Ashok Nagar","district_code":"459","address1":"Mungaoli","address2":"","latitude":"24.4084","longitude":"78.0959","accuracy":"4"},{"address3":"Malhargarh","state":"Madhya Pradesh","state_code":"35","district":"Ashok Nagar","district_code":"459","address1":"Mungaoli","address2":"","latitude":"24.2756","longitude":"78.0663","accuracy":"4"},{"address3":"Kasbarenj","state":"Madhya Pradesh","state_code":"35","district":"Ashok Nagar","district_code":"459","address1":"Mungaoli","address2":"","latitude":"24.3679","longitude":"78.1148","accuracy":"3"},{"address3":"Bilheru","state":"Madhya Pradesh","state_code":"35","district":"Ashok Nagar","district_code":"459","address1":"Mungaoli","address2":"","latitude":"24.3679","longitude":"78.1148","accuracy":"3"},{"address3":"Kirola","state":"Madhya Pradesh","state_code":"35","district":"Ashok Nagar","district_code":"459","address1":"Mungaoli","address2":"","latitude":"24.4196","longitude":"78.1822","accuracy":"4"}],"473444":[{"address3":"Sehrai","state":"Madhya Pradesh","state_code":"35","district":"Ashok Nagar","district_code":"459","address1":"Mungaoli","address2":"","latitude":"24.6094","longitude":"77.8752","accuracy":"4"},{"address3":"Parkana","state":"Madhya Pradesh","state_code":"35","district":"Ashok Nagar","district_code":"459","address1":"Mungaoli","address2":"","latitude":"24.4965","longitude":"78.0517","accuracy":"4"},{"address3":"Achalgarh","state":"Madhya Pradesh","state_code":"35","district":"Ashok Nagar","district_code":"459","address1":"Mungaoli","address2":"","latitude":"24.5462","longitude":"78.0639","accuracy":"4"},{"address3":"Dongra","state":"Madhya Pradesh","state_code":"35","district":"Ashok Nagar","district_code":"459","address1":"Mungaoli","address2":"","latitude":"24.5021","longitude":"78.1872","accuracy":"4"},{"address3":"Pathari","state":"Madhya Pradesh","state_code":"35","district":"Ashok Nagar","district_code":"459","address1":"Mungaoli","address2":"","latitude":"24.4664","longitude":"77.6096","accuracy":"4"}],"473445":[{"address3":"Gaduli","state":"Madhya Pradesh","state_code":"35","district":"Ashok Nagar","district_code":"459","address1":"Mungaoli","address2":"","latitude":"24.3259","longitude":"77.9409","accuracy":"3"},{"address3":"Damdama","state":"Madhya Pradesh","state_code":"35","district":"Ashok Nagar","district_code":"459","address1":"Mungaoli","address2":"","latitude":"24.3718","longitude":"77.8808","accuracy":"4"},{"address3":"Babrod","state":"Madhya Pradesh","state_code":"35","district":"Ashok Nagar","district_code":"459","address1":"Mungaoli","address2":"","latitude":"24.29","longitude":"77.9875","accuracy":"4"},{"address3":"Bahadurpur","state":"Madhya Pradesh","state_code":"35","district":"Ashok Nagar","district_code":"459","address1":"Mungaoli","address2":"","latitude":"24.3408","longitude":"77.9646","accuracy":"4"},{"address3":"Onder","state":"Madhya Pradesh","state_code":"35","district":"Ashok Nagar","district_code":"459","address1":"Mungaoli","address2":"","latitude":"24.3011","longitude":"77.9308","accuracy":"4"}],"473446":[{"address3":"Mohanpur","state":"Madhya Pradesh","state_code":"35","district":"Ashok Nagar","district_code":"459","address1":"Chanderi","address2":"","latitude":"24.7136","longitude":"78.0649","accuracy":"4"},{"address3":"Khirkatanka","state":"Madhya Pradesh","state_code":"35","district":"Ashok Nagar","district_code":"459","address1":"Chanderi","address2":"","latitude":"24.3499","longitude":"78.1497","accuracy":"3"},{"address3":"Vikrampur","state":"Madhya Pradesh","state_code":"35","district":"Ashok Nagar","district_code":"459","address1":"Chanderi","address2":"","latitude":"24.6094","longitude":"77.8752","accuracy":"3"},{"address3":"Naoli","state":"Madhya Pradesh","state_code":"35","district":"Ashok Nagar","district_code":"459","address1":"Chanderi","address2":"","latitude":"24.6094","longitude":"77.8752","accuracy":"4"},{"address3":"Maholi","state":"Madhya Pradesh","state_code":"35","district":"Ashok Nagar","district_code":"459","address1":"Chanderi","address2":"","latitude":"24.6094","longitude":"77.8752","accuracy":"4"},{"address3":"Thubon","state":"Madhya Pradesh","state_code":"35","district":"Ashok Nagar","district_code":"459","address1":"Chanderi","address2":"","latitude":"24.3499","longitude":"78.1497","accuracy":"3"},{"address3":"Dungasara","state":"Madhya Pradesh","state_code":"35","district":"Ashok Nagar","district_code":"459","address1":"Chanderi","address2":"","latitude":"24.3499","longitude":"78.1497","accuracy":"3"},{"address3":"Nayakheda","state":"Madhya Pradesh","state_code":"35","district":"Ashok Nagar","district_code":"459","address1":"Chanderi","address2":"","latitude":"24.6094","longitude":"77.8752","accuracy":"4"},{"address3":"Pranpura","state":"Madhya Pradesh","state_code":"35","district":"Ashok Nagar","district_code":"459","address1":"Chanderi","address2":"","latitude":"24.6094","longitude":"77.8752","accuracy":"4"},{"address3":"Hansari","state":"Madhya Pradesh","state_code":"35","district":"Ashok Nagar","district_code":"459","address1":"Chanderi","address2":"","latitude":"24.3499","longitude":"78.1497","accuracy":"3"},{"address3":"Tarai","state":"Madhya Pradesh","state_code":"35","district":"Ashok Nagar","district_code":"459","address1":"Chanderi","address2":"","latitude":"24.4656","longitude":"78.0321","accuracy":"4"},{"address3":"Chanderi","state":"Madhya Pradesh","state_code":"35","district":"Ashok Nagar","district_code":"459","address1":"Chanderi","address2":"","latitude":"24.7131","longitude":"78.1381","accuracy":"4"},{"address3":"Badera","state":"Madhya Pradesh","state_code":"35","district":"Ashok Nagar","district_code":"459","address1":"Chanderi","address2":"","latitude":"24.7637","longitude":"78.1993","accuracy":"4"}],"473551":[{"address3":"Bhangarh","state":"Madhya Pradesh","state_code":"35","district":"Shivpuri","district_code":"423","address1":"Shivpuri","address2":"","latitude":"25.4971","longitude":"77.3934","accuracy":"4"},{"address3":"Satanwada","state":"Madhya Pradesh","state_code":"35","district":"Shivpuri","district_code":"423","address1":"Shivpuri","address2":"","latitude":"25.495","longitude":"77.7065","accuracy":"3"},{"address3":"Gangora","state":"Madhya Pradesh","state_code":"35","district":"Shivpuri","district_code":"423","address1":"Shivpuri","address2":"","latitude":"25.3627","longitude":"77.8125","accuracy":"3"},{"address3":"Theh","state":"Madhya Pradesh","state_code":"35","district":"Shivpuri","district_code":"423","address1":"Shivpuri","address2":"","latitude":"25.3505","longitude":"77.5482","accuracy":"4"},{"address3":"Khandi","state":"Madhya Pradesh","state_code":"35","district":"Shivpuri","district_code":"423","address1":"Shivpuri","address2":"","latitude":"25.2398","longitude":"78.2895","accuracy":"4"},{"address3":"Bara","state":"Madhya Pradesh","state_code":"35","district":"Shivpuri","district_code":"423","address1":"Shivpuri","address2":"","latitude":"25.6115","longitude":"77.7047","accuracy":"4"},{"address3":"Tongra","state":"Madhya Pradesh","state_code":"35","district":"Shivpuri","district_code":"423","address1":"Shivpuri","address2":"","latitude":"25.3731","longitude":"77.5413","accuracy":"4"},{"address3":"Munderi","state":"Madhya Pradesh","state_code":"35","district":"Shivpuri","district_code":"423","address1":"Shivpuri","address2":"","latitude":"25.495","longitude":"77.7065","accuracy":"3"},{"address3":"Surwaya","state":"Madhya Pradesh","state_code":"35","district":"Shivpuri","district_code":"423","address1":"Shivpuri","address2":"","latitude":"25.4181","longitude":"77.8321","accuracy":"4"},{"address3":"Kota","state":"Madhya Pradesh","state_code":"35","district":"Shivpuri","district_code":"423","address1":"Shivpuri","address2":"","latitude":"25.4252","longitude":"77.7403","accuracy":"4"},{"address3":"Piparsama","state":"Madhya Pradesh","state_code":"35","district":"Shivpuri","district_code":"423","address1":"Shivpuri","address2":"","latitude":"25.3764","longitude":"77.5849","accuracy":"4"},{"address3":"I.T.B.P Shivpuri","state":"Madhya Pradesh","state_code":"35","district":"Shivpuri","district_code":"423","address1":"Shivpuri","address2":"","latitude":"25.495","longitude":"77.7065","accuracy":"3"},{"address3":"Karsena","state":"Madhya Pradesh","state_code":"35","district":"Shivpuri","district_code":"423","address1":"Shivpuri","address2":"","latitude":"25.8243","longitude":"77.7305","accuracy":"4"},{"address3":"V.R.Colony Shivpuri","state":"Madhya Pradesh","state_code":"35","district":"Shivpuri","district_code":"423","address1":"Shivpuri","address2":"","latitude":"25.495","longitude":"77.7065","accuracy":"3"},{"address3":"Kunwarpur","state":"Madhya Pradesh","state_code":"35","district":"Shivpuri","district_code":"423","address1":"Shivpuri","address2":"","latitude":"25.5767","longitude":"77.5873","accuracy":"4"},{"address3":"Shivprui City","state":"Madhya Pradesh","state_code":"35","district":"Shivpuri","district_code":"423","address1":"Shivpuri","address2":"","latitude":"25.495","longitude":"77.7065","accuracy":"3"},{"address3":"Bamhari","state":"Madhya Pradesh","state_code":"35","district":"Shivpuri","district_code":"423","address1":"Shivpuri","address2":"","latitude":"25.752","longitude":"77.8189","accuracy":"4"},{"address3":"Collectorate Bhawan Shiv","state":"Madhya Pradesh","state_code":"35","district":"Shivpuri","district_code":"423","address1":"Shivpuri","address2":"","latitude":"25.495","longitude":"77.7065","accuracy":"3"},{"address3":"Shivpuri H.O","state":"Madhya Pradesh","state_code":"35","district":"Shivpuri","district_code":"423","address1":"Shivpuri","address2":"","latitude":"25.495","longitude":"77.7065","accuracy":"3"},{"address3":"Kanker","state":"Madhya Pradesh","state_code":"35","district":"Shivpuri","district_code":"423","address1":"Shivpuri","address2":"","latitude":"25.495","longitude":"77.7065","accuracy":"3"},{"address3":"Chak Kamalpur","state":"Madhya Pradesh","state_code":"35","district":"Shivpuri","district_code":"423","address1":"Shivpuri","address2":"","latitude":"25.495","longitude":"77.7065","accuracy":"3"},{"address3":"Dholagarh","state":"Madhya Pradesh","state_code":"35","district":"Shivpuri","district_code":"423","address1":"Shivpuri","address2":"","latitude":"25.495","longitude":"77.7065","accuracy":"3"},{"address3":"Purani Basti","state":"Madhya Pradesh","state_code":"35","district":"Shivpuri","district_code":"423","address1":"Shivpuri","address2":"","latitude":"25.495","longitude":"77.7065","accuracy":"3"},{"address3":"Tharra Darroni","state":"Madhya Pradesh","state_code":"35","district":"Shivpuri","district_code":"423","address1":"Shivpuri","address2":"","latitude":"25.495","longitude":"77.7065","accuracy":"3"},{"address3":"Sirsaud","state":"Madhya Pradesh","state_code":"35","district":"Shivpuri","district_code":"423","address1":"Shivpuri","address2":"","latitude":"25.495","longitude":"77.7065","accuracy":"3"},{"address3":"Singhniwas","state":"Madhya Pradesh","state_code":"35","district":"Shivpuri","district_code":"423","address1":"Shivpuri","address2":"","latitude":"25.495","longitude":"77.7065","accuracy":"3"},{"address3":"Raishree","state":"Madhya Pradesh","state_code":"35","district":"Shivpuri","district_code":"423","address1":"Shivpuri","address2":"","latitude":"25.495","longitude":"77.7065","accuracy":"3"},{"address3":"Khorghar","state":"Madhya Pradesh","state_code":"35","district":"Shivpuri","district_code":"423","address1":"Shivpuri","address2":"","latitude":"25.495","longitude":"77.7065","accuracy":"3"},{"address3":"Karmaj Kalan","state":"Madhya Pradesh","state_code":"35","district":"Shivpuri","district_code":"423","address1":"Shivpuri","address2":"","latitude":"25.495","longitude":"77.7065","accuracy":"3"},{"address3":"Garibarod","state":"Madhya Pradesh","state_code":"35","district":"Shivpuri","district_code":"423","address1":"Shivpuri","address2":"","latitude":"25.495","longitude":"77.7065","accuracy":"3"},{"address3":"Barodi Sadak","state":"Madhya Pradesh","state_code":"35","district":"Shivpuri","district_code":"423","address1":"Shivpuri","address2":"","latitude":"25.495","longitude":"77.7065","accuracy":"3"},{"address3":"Subhashpura","state":"Madhya Pradesh","state_code":"35","district":"Shivpuri","district_code":"423","address1":"Shivpuri","address2":"","latitude":"25.495","longitude":"77.7065","accuracy":"3"}],"473585":[{"address3":"Muhari","state":"Madhya Pradesh","state_code":"35","district":"Shivpuri","district_code":"423","address1":"Khaniadhana","address2":"","latitude":"25.3627","longitude":"77.8125","accuracy":"3"},{"address3":"Kali Pahari","state":"Madhya Pradesh","state_code":"35","district":"Shivpuri","district_code":"423","address1":"Khaniadhana","address2":"","latitude":"25.6224","longitude":"78.0262","accuracy":"4"},{"address3":"Bijrawan","state":"Madhya Pradesh","state_code":"35","district":"Shivpuri","district_code":"423","address1":"Khaniadhana","address2":"","latitude":"24.9096","longitude":"78.184","accuracy":"4"},{"address3":"Pipra","state":"Madhya Pradesh","state_code":"35","district":"Shivpuri","district_code":"423","address1":"Khaniadhana","address2":"","latitude":"25.0972","longitude":"78.1434","accuracy":"3"},{"address3":"Bharsula","state":"Madhya Pradesh","state_code":"35","district":"Shivpuri","district_code":"423","address1":"Khaniadhana","address2":"","latitude":"24.8467","longitude":"78.1275","accuracy":"4"},{"address3":"Bamorkalan","state":"Madhya Pradesh","state_code":"35","district":"Shivpuri","district_code":"423","address1":"Khaniadhana","address2":"","latitude":"25.0972","longitude":"78.1434","accuracy":"3"},{"address3":"Achhroni","state":"Madhya Pradesh","state_code":"35","district":"Shivpuri","district_code":"423","address1":"Khaniadhana","address2":"","latitude":"25.0099","longitude":"78.2361","accuracy":"4"},{"address3":"Kafar","state":"Madhya Pradesh","state_code":"35","district":"Shivpuri","district_code":"423","address1":"Khaniadhana","address2":"","latitude":"25.0972","longitude":"78.1434","accuracy":"3"},{"address3":"Khirkit","state":"Madhya Pradesh","state_code":"35","district":"Shivpuri","district_code":"423","address1":"Khaniadhana","address2":"","latitude":"25.0972","longitude":"78.1434","accuracy":"3"},{"address3":"Kyara","state":"Madhya Pradesh","state_code":"35","district":"Shivpuri","district_code":"423","address1":"Khaniadhana","address2":"","latitude":"25.0972","longitude":"78.1434","accuracy":"3"}],"473638":[{"address3":"Katthamil Shivpuri","state":"Madhya Pradesh","state_code":"35","district":"Shivpuri","district_code":"423","address1":"Shivpuri","address2":"","latitude":"25.4244","longitude":"78.2258","accuracy":"1"}],"473660":[{"address3":"Bhansda Khurd","state":"Madhya Pradesh","state_code":"35","district":"Shivpuri","district_code":"423","address1":"Karera","address2":"","latitude":"25.4845","longitude":"78.0912","accuracy":"3"},{"address3":"Badhora","state":"Madhya Pradesh","state_code":"35","district":"Shivpuri","district_code":"423","address1":"Karera","address2":"","latitude":"25.3825","longitude":"78.1398","accuracy":"4"},{"address3":"Lalpur","state":"Madhya Pradesh","state_code":"35","district":"Shivpuri","district_code":"423","address1":"Karera","address2":"","latitude":"25.5157","longitude":"78.0647","accuracy":"4"},{"address3":"Salaiya","state":"Madhya Pradesh","state_code":"35","district":"Shivpuri","district_code":"423","address1":"Karera","address2":"","latitude":"25.6654","longitude":"78.0496","accuracy":"4"},{"address3":"Chinod","state":"Madhya Pradesh","state_code":"35","district":"Shivpuri","district_code":"423","address1":"Karera","address2":"","latitude":"25.4679","longitude":"78.1808","accuracy":"4"},{"address3":"Narahi","state":"Madhya Pradesh","state_code":"35","district":"Shivpuri","district_code":"423","address1":"Karera","address2":"","latitude":"25.4845","longitude":"78.0912","accuracy":"3"},{"address3":"Amola","state":"Madhya Pradesh","state_code":"35","district":"Shivpuri","district_code":"423","address1":"Karera","address2":"","latitude":"25.406","longitude":"77.9365","accuracy":"4"},{"address3":"Sad","state":"Madhya Pradesh","state_code":"35","district":"Shivpuri","district_code":"423","address1":"Karera","address2":"","latitude":"25.3627","longitude":"77.8125","accuracy":"3"},{"address3":"Karera","state":"Madhya Pradesh","state_code":"35","district":"Shivpuri","district_code":"423","address1":"Karera","address2":"","latitude":"25.4581","longitude":"78.1358","accuracy":"4"},{"address3":"Teela","state":"Madhya Pradesh","state_code":"35","district":"Shivpuri","district_code":"423","address1":"Karera","address2":"","latitude":"25.4845","longitude":"78.0912","accuracy":"3"},{"address3":"Bangawan","state":"Madhya Pradesh","state_code":"35","district":"Shivpuri","district_code":"423","address1":"Karera","address2":"","latitude":"25.4957","longitude":"78.1015","accuracy":"4"},{"address3":"Silanagar","state":"Madhya Pradesh","state_code":"35","district":"Shivpuri","district_code":"423","address1":"Karera","address2":"","latitude":"25.4781","longitude":"78.0255","accuracy":"4"},{"address3":"Mungaoli","state":"Madhya Pradesh","state_code":"35","district":"Shivpuri","district_code":"423","address1":"Karera","address2":"","latitude":"25.491","longitude":"78.1866","accuracy":"4"},{"address3":"Samoha","state":"Madhya Pradesh","state_code":"35","district":"Shivpuri","district_code":"423","address1":"Karera","address2":"","latitude":"25.4845","longitude":"78.0912","accuracy":"3"},{"address3":"Karotha","state":"Madhya Pradesh","state_code":"35","district":"Shivpuri","district_code":"423","address1":"Karera","address2":"","latitude":"25.4845","longitude":"78.0912","accuracy":"3"},{"address3":"Machaoli","state":"Madhya Pradesh","state_code":"35","district":"Shivpuri","district_code":"423","address1":"Karera","address2":"","latitude":"25.4845","longitude":"78.0912","accuracy":"3"}],"473662":[{"address3":"Karahi","state":"Madhya Pradesh","state_code":"35","district":"Shivpuri","district_code":"423","address1":"Karera","address2":"","latitude":"25.3627","longitude":"77.8125","accuracy":"3"},{"address3":"Bansgarh","state":"Madhya Pradesh","state_code":"35","district":"Shivpuri","district_code":"423","address1":"Karera","address2":"","latitude":"25.552","longitude":"78.0809","accuracy":"4"},{"address3":"Doni","state":"Madhya Pradesh","state_code":"35","district":"Shivpuri","district_code":"423","address1":"Karera","address2":"","latitude":"25.6887","longitude":"78.1604","accuracy":"4"},{"address3":"Papredu","state":"Madhya Pradesh","state_code":"35","district":"Shivpuri","district_code":"423","address1":"Karera","address2":"","latitude":"25.6119","longitude":"78.1365","accuracy":"3"},{"address3":"Sunari","state":"Madhya Pradesh","state_code":"35","district":"Shivpuri","district_code":"423","address1":"Karera","address2":"","latitude":"25.6889","longitude":"78.1965","accuracy":"4"},{"address3":"Khadicha","state":"Madhya Pradesh","state_code":"35","district":"Shivpuri","district_code":"423","address1":"Karera","address2":"","latitude":"25.6119","longitude":"78.1365","accuracy":"3"},{"address3":"Jhanda","state":"Madhya Pradesh","state_code":"35","district":"Shivpuri","district_code":"423","address1":"Karera","address2":"","latitude":"25.543","longitude":"78.1614","accuracy":"4"},{"address3":"T.C.Karera","state":"Madhya Pradesh","state_code":"35","district":"Shivpuri","district_code":"423","address1":"Karera","address2":"","latitude":"25.6119","longitude":"78.1365","accuracy":"3"},{"address3":"Dhihala","state":"Madhya Pradesh","state_code":"35","district":"Shivpuri","district_code":"423","address1":"Karera","address2":"","latitude":"25.6119","longitude":"78.1365","accuracy":"3"},{"address3":"Chhitri","state":"Madhya Pradesh","state_code":"35","district":"Shivpuri","district_code":"423","address1":"Karera","address2":"","latitude":"25.5867","longitude":"78.083","accuracy":"4"},{"address3":"Behgawa","state":"Madhya Pradesh","state_code":"35","district":"Shivpuri","district_code":"423","address1":"Karera","address2":"","latitude":"25.6119","longitude":"78.1365","accuracy":"3"}],"473665":[{"address3":"Bilhari","state":"Madhya Pradesh","state_code":"35","district":"Shivpuri","district_code":"423","address1":"Karera","address2":"","latitude":"25.3627","longitude":"77.8125","accuracy":"4"},{"address3":"Dinara (Shivpuri)","state":"Madhya Pradesh","state_code":"35","district":"Shivpuri","district_code":"423","address1":"Karera","address2":"","latitude":"25.4688","longitude":"78.3274","accuracy":"4"},{"address3":"Dhand","state":"Madhya Pradesh","state_code":"35","district":"Shivpuri","district_code":"423","address1":"Karera","address2":"","latitude":"25.3949","longitude":"78.3137","accuracy":"4"},{"address3":"Himmatpur","state":"Madhya Pradesh","state_code":"35","district":"Shivpuri","district_code":"423","address1":"Karera","address2":"","latitude":"25.3432","longitude":"78.2545","accuracy":"4"},{"address3":"Algi","state":"Madhya Pradesh","state_code":"35","district":"Shivpuri","district_code":"423","address1":"Karera","address2":"","latitude":"25.486","longitude":"78.3432","accuracy":"4"},{"address3":"Chhitipur","state":"Madhya Pradesh","state_code":"35","district":"Shivpuri","district_code":"423","address1":"Karera","address2":"","latitude":"25.4025","longitude":"78.4711","accuracy":"3"},{"address3":"Kuchlon","state":"Madhya Pradesh","state_code":"35","district":"Shivpuri","district_code":"423","address1":"Karera","address2":"","latitude":"25.3766","longitude":"78.2671","accuracy":"4"},{"address3":"Dabarbhat","state":"Madhya Pradesh","state_code":"35","district":"Shivpuri","district_code":"423","address1":"Karera","address2":"","latitude":"25.4025","longitude":"78.4711","accuracy":"3"},{"address3":"Thanra","state":"Madhya Pradesh","state_code":"35","district":"Shivpuri","district_code":"423","address1":"Karera","address2":"","latitude":"25.4951","longitude":"78.2822","accuracy":"4"},{"address3":"Dabra Dinara","state":"Madhya Pradesh","state_code":"35","district":"Shivpuri","district_code":"423","address1":"Karera","address2":"","latitude":"25.4025","longitude":"78.4711","accuracy":"3"},{"address3":"Lamkana","state":"Madhya Pradesh","state_code":"35","district":"Shivpuri","district_code":"423","address1":"Karera","address2":"","latitude":"25.6823","longitude":"78.2515","accuracy":"4"},{"address3":"Kalipahadi Mathure","state":"Madhya Pradesh","state_code":"35","district":"Shivpuri","district_code":"423","address1":"Karera","address2":"","latitude":"25.4025","longitude":"78.4711","accuracy":"3"},{"address3":"Damron Kalan","state":"Madhya Pradesh","state_code":"35","district":"Shivpuri","district_code":"423","address1":"Karera","address2":"","latitude":"25.4162","longitude":"78.2804","accuracy":"4"},{"address3":"Khudawli","state":"Madhya Pradesh","state_code":"35","district":"Shivpuri","district_code":"423","address1":"Karera","address2":"","latitude":"25.4025","longitude":"78.4711","accuracy":"3"},{"address3":"Salaiya Damron","state":"Madhya Pradesh","state_code":"35","district":"Shivpuri","district_code":"423","address1":"Karera","address2":"","latitude":"25.4103","longitude":"78.253","accuracy":"4"},{"address3":"Sehdora","state":"Madhya Pradesh","state_code":"35","district":"Shivpuri","district_code":"423","address1":"Karera","address2":"","latitude":"25.4025","longitude":"78.4711","accuracy":"3"}],"473670":[{"address3":"Bhonti","state":"Madhya Pradesh","state_code":"35","district":"Shivpuri","district_code":"423","address1":"Pichhore","address2":"","latitude":"25.2148","longitude":"78.0933","accuracy":"3"},{"address3":"Sirsaud","state":"Madhya Pradesh","state_code":"35","district":"Shivpuri","district_code":"423","address1":"Pichhore","address2":"","latitude":"25.2148","longitude":"78.0933","accuracy":"3"},{"address3":"Manpura","state":"Madhya Pradesh","state_code":"35","district":"Shivpuri","district_code":"423","address1":"Pichhore","address2":"","latitude":"25.0442","longitude":"78.0148","accuracy":"4"},{"address3":"Pipra Pichhore","state":"Madhya Pradesh","state_code":"35","district":"Shivpuri","district_code":"423","address1":"Pichhore","address2":"","latitude":"25.2148","longitude":"78.0933","accuracy":"3"},{"address3":"Naoli","state":"Madhya Pradesh","state_code":"35","district":"Shivpuri","district_code":"423","address1":"Pichhore","address2":"","latitude":"25.3627","longitude":"77.8125","accuracy":"4"},{"address3":"Kakraua Thuni","state":"Madhya Pradesh","state_code":"35","district":"Shivpuri","district_code":"423","address1":"Pichhore","address2":"","latitude":"25.2148","longitude":"78.0933","accuracy":"3"},{"address3":"Khod","state":"Madhya Pradesh","state_code":"35","district":"Shivpuri","district_code":"423","address1":"Pichhore","address2":"","latitude":"25.3627","longitude":"77.8125","accuracy":"4"},{"address3":"Ganeshkheda","state":"Madhya Pradesh","state_code":"35","district":"Shivpuri","district_code":"423","address1":"Pichhore","address2":"","latitude":"25.2148","longitude":"78.0933","accuracy":"3"},{"address3":"Badera","state":"Madhya Pradesh","state_code":"35","district":"Shivpuri","district_code":"423","address1":"Pichhore","address2":"","latitude":"25.2351","longitude":"78.0864","accuracy":"4"},{"address3":"Dargawa","state":"Madhya Pradesh","state_code":"35","district":"Shivpuri","district_code":"423","address1":"Pichhore","address2":"","latitude":"25.2148","longitude":"78.0933","accuracy":"3"},{"address3":"Chhirwaha","state":"Madhya Pradesh","state_code":"35","district":"Shivpuri","district_code":"423","address1":"Pichhore","address2":"","latitude":"25.2364","longitude":"78.0548","accuracy":"4"},{"address3":"Bamore Damron","state":"Madhya Pradesh","state_code":"35","district":"Shivpuri","district_code":"423","address1":"Pichhore","address2":"","latitude":"25.2148","longitude":"78.0933","accuracy":"3"},{"address3":"Dhala","state":"Madhya Pradesh","state_code":"35","district":"Shivpuri","district_code":"423","address1":"Pichhore","address2":"","latitude":"25.2899","longitude":"78.1357","accuracy":"4"},{"address3":"Umri Kala","state":"Madhya Pradesh","state_code":"35","district":"Shivpuri","district_code":"423","address1":"Pichhore","address2":"","latitude":"25.2148","longitude":"78.0933","accuracy":"3"}],"473770":[{"address3":"Kolaras","state":"Madhya Pradesh","state_code":"35","district":"Shivpuri","district_code":"423","address1":"Kolaras","address2":"","latitude":"25.2193","longitude":"77.6117","accuracy":"4"},{"address3":"Bijroni","state":"Madhya Pradesh","state_code":"35","district":"Shivpuri","district_code":"423","address1":"Kolaras","address2":"","latitude":"24.933","longitude":"77.6435","accuracy":"4"},{"address3":"Khatora","state":"Madhya Pradesh","state_code":"35","district":"Shivpuri","district_code":"423","address1":"Kolaras","address2":"","latitude":"25.3627","longitude":"77.8125","accuracy":"4"},{"address3":"Ramgarh","state":"Madhya Pradesh","state_code":"35","district":"Shivpuri","district_code":"423","address1":"Kolaras","address2":"","latitude":"24.9705","longitude":"77.7385","accuracy":"4"},{"address3":"Aijwara","state":"Madhya Pradesh","state_code":"35","district":"Shivpuri","district_code":"423","address1":"Kolaras","address2":"","latitude":"24.9999","longitude":"77.8249","accuracy":"3"},{"address3":"Barod","state":"Madhya Pradesh","state_code":"35","district":"Shivpuri","district_code":"423","address1":"Kolaras","address2":"","latitude":"25.6617","longitude":"77.4736","accuracy":"4"},{"address3":"Madwasa","state":"Madhya Pradesh","state_code":"35","district":"Shivpuri","district_code":"423","address1":"Kolaras","address2":"","latitude":"24.9999","longitude":"77.8249","accuracy":"3"},{"address3":"Endar","state":"Madhya Pradesh","state_code":"35","district":"Shivpuri","district_code":"423","address1":"Kolaras","address2":"","latitude":"24.9999","longitude":"77.8249","accuracy":"3"},{"address3":"Bhadauta","state":"Madhya Pradesh","state_code":"35","district":"Shivpuri","district_code":"423","address1":"Kolaras","address2":"","latitude":"24.9999","longitude":"77.8249","accuracy":"3"},{"address3":"Peeronth","state":"Madhya Pradesh","state_code":"35","district":"Shivpuri","district_code":"423","address1":"Kolaras","address2":"","latitude":"24.9999","longitude":"77.8249","accuracy":"3"}],"473774":[{"address3":"Dehrog","state":"Madhya Pradesh","state_code":"35","district":"Shivpuri","district_code":"423","address1":"Kolaras","address2":"","latitude":"25.2448","longitude":"77.5251","accuracy":"3"},{"address3":"Sesai","state":"Madhya Pradesh","state_code":"35","district":"Shivpuri","district_code":"423","address1":"Kolaras","address2":"","latitude":"25.2448","longitude":"77.5251","accuracy":"3"},{"address3":"Rajgarh","state":"Madhya Pradesh","state_code":"35","district":"Shivpuri","district_code":"423","address1":"Kolaras","address2":"","latitude":"25.3332","longitude":"77.5078","accuracy":"4"},{"address3":"Deharwara","state":"Madhya Pradesh","state_code":"35","district":"Shivpuri","district_code":"423","address1":"Kolaras","address2":"","latitude":"25.2448","longitude":"77.5251","accuracy":"3"},{"address3":"Kharai","state":"Madhya Pradesh","state_code":"35","district":"Shivpuri","district_code":"423","address1":"Kolaras","address2":"","latitude":"25.1067","longitude":"77.7258","accuracy":"4"},{"address3":"Benhta","state":"Madhya Pradesh","state_code":"35","district":"Shivpuri","district_code":"423","address1":"Kolaras","address2":"","latitude":"25.2448","longitude":"77.5251","accuracy":"3"},{"address3":"Karya","state":"Madhya Pradesh","state_code":"35","district":"Shivpuri","district_code":"423","address1":"Kolaras","address2":"","latitude":"25.2448","longitude":"77.5251","accuracy":"3"},{"address3":"Jagatpur (Shivpuri)","state":"Madhya Pradesh","state_code":"35","district":"Shivpuri","district_code":"423","address1":"Kolaras","address2":"","latitude":"25.2228","longitude":"77.6014","accuracy":"4"},{"address3":"Kilawani","state":"Madhya Pradesh","state_code":"35","district":"Shivpuri","district_code":"423","address1":"Kolaras","address2":"","latitude":"25.2448","longitude":"77.5251","accuracy":"3"},{"address3":"Sakhnor","state":"Madhya Pradesh","state_code":"35","district":"Shivpuri","district_code":"423","address1":"Kolaras","address2":"","latitude":"25.1499","longitude":"77.6661","accuracy":"4"},{"address3":"Ganeshkjeda","state":"Madhya Pradesh","state_code":"35","district":"Shivpuri","district_code":"423","address1":"Kolaras","address2":"","latitude":"25.2448","longitude":"77.5251","accuracy":"3"},{"address3":"Rai","state":"Madhya Pradesh","state_code":"35","district":"Shivpuri","district_code":"423","address1":"Kolaras","address2":"","latitude":"25.2068","longitude":"77.53","accuracy":"4"},{"address3":"Mohra","state":"Madhya Pradesh","state_code":"35","district":"Shivpuri","district_code":"423","address1":"Kolaras","address2":"","latitude":"25.5037","longitude":"77.1874","accuracy":"4"},{"address3":"Lewa","state":"Madhya Pradesh","state_code":"35","district":"Shivpuri","district_code":"423","address1":"Kolaras","address2":"","latitude":"25.1904","longitude":"77.4572","accuracy":"4"}],"473775":[{"address3":"Bhesrawan","state":"Madhya Pradesh","state_code":"35","district":"Shivpuri","district_code":"423","address1":"Pohri","address2":"","latitude":"25.5117","longitude":"77.381","accuracy":"3"},{"address3":"Mahadeva","state":"Madhya Pradesh","state_code":"35","district":"Shivpuri","district_code":"423","address1":"Pohri","address2":"","latitude":"25.3627","longitude":"77.8125","accuracy":"3"},{"address3":"Bagwasa","state":"Madhya Pradesh","state_code":"35","district":"Shivpuri","district_code":"423","address1":"Pohri","address2":"","latitude":"25.5117","longitude":"77.381","accuracy":"3"},{"address3":"Galthuni","state":"Madhya Pradesh","state_code":"35","district":"Shivpuri","district_code":"423","address1":"Pohri","address2":"","latitude":"25.3877","longitude":"77.2186","accuracy":"4"},{"address3":"Ranthkheda","state":"Madhya Pradesh","state_code":"35","district":"Shivpuri","district_code":"423","address1":"Pohri","address2":"","latitude":"25.5117","longitude":"77.381","accuracy":"3"},{"address3":"Jhiri","state":"Madhya Pradesh","state_code":"35","district":"Shivpuri","district_code":"423","address1":"Pohri","address2":"","latitude":"25.5548","longitude":"77.4862","accuracy":"4"},{"address3":"Mehloni","state":"Madhya Pradesh","state_code":"35","district":"Shivpuri","district_code":"423","address1":"Pohri","address2":"","latitude":"25.5117","longitude":"77.381","accuracy":"3"},{"address3":"Parichha","state":"Madhya Pradesh","state_code":"35","district":"Shivpuri","district_code":"423","address1":"Pohri","address2":"","latitude":"25.5138","longitude":"77.454","accuracy":"4"},{"address3":"Pohari","state":"Madhya Pradesh","state_code":"35","district":"Shivpuri","district_code":"423","address1":"Pohri","address2":"","latitude":"25.5117","longitude":"77.381","accuracy":"3"},{"address3":"Piparghar","state":"Madhya Pradesh","state_code":"35","district":"Shivpuri","district_code":"423","address1":"Pohri","address2":"","latitude":"25.503","longitude":"77.3814","accuracy":"4"},{"address3":"Bamra","state":"Madhya Pradesh","state_code":"35","district":"Shivpuri","district_code":"423","address1":"Pohri","address2":"","latitude":"25.4629","longitude":"77.4371","accuracy":"4"},{"address3":"Chakrana","state":"Madhya Pradesh","state_code":"35","district":"Shivpuri","district_code":"423","address1":"Pohri","address2":"","latitude":"25.5565","longitude":"77.415","accuracy":"4"},{"address3":"Chharch","state":"Madhya Pradesh","state_code":"35","district":"Shivpuri","district_code":"423","address1":"Pohri","address2":"","latitude":"25.4102","longitude":"77.1964","accuracy":"4"},{"address3":"Dulhara","state":"Madhya Pradesh","state_code":"35","district":"Shivpuri","district_code":"423","address1":"Pohri","address2":"","latitude":"25.6141","longitude":"77.4479","accuracy":"4"},{"address3":"Bhatnawar","state":"Madhya Pradesh","state_code":"35","district":"Shivpuri","district_code":"423","address1":"Pohri","address2":"","latitude":"25.6028","longitude":"77.3926","accuracy":"4"}],"473781":[{"address3":"Rannod","state":"Madhya Pradesh","state_code":"35","district":"Shivpuri","district_code":"423","address1":"Kolaras","address2":"","latitude":"25.3627","longitude":"77.8125","accuracy":"4"},{"address3":"Khareh","state":"Madhya Pradesh","state_code":"35","district":"Shivpuri","district_code":"423","address1":"Kolaras","address2":"","latitude":"25.3627","longitude":"77.8125","accuracy":"3"},{"address3":"Mathna","state":"Madhya Pradesh","state_code":"35","district":"Shivpuri","district_code":"423","address1":"Kolaras","address2":"","latitude":"25.2676","longitude":"77.5208","accuracy":"3"},{"address3":"Pachaoli","state":"Madhya Pradesh","state_code":"35","district":"Shivpuri","district_code":"423","address1":"Kolaras","address2":"","latitude":"25.1021","longitude":"77.6492","accuracy":"4"},{"address3":"Kutwara","state":"Madhya Pradesh","state_code":"35","district":"Shivpuri","district_code":"423","address1":"Kolaras","address2":"","latitude":"25.2676","longitude":"77.5208","accuracy":"3"},{"address3":"Sunaj","state":"Madhya Pradesh","state_code":"35","district":"Shivpuri","district_code":"423","address1":"Kolaras","address2":"","latitude":"25.2422","longitude":"77.808","accuracy":"4"},{"address3":"Pahada Khurd","state":"Madhya Pradesh","state_code":"35","district":"Shivpuri","district_code":"423","address1":"Kolaras","address2":"","latitude":"25.2676","longitude":"77.5208","accuracy":"3"},{"address3":"Sajai","state":"Madhya Pradesh","state_code":"35","district":"Shivpuri","district_code":"423","address1":"Kolaras","address2":"","latitude":"25.0949","longitude":"77.6842","accuracy":"4"},{"address3":"Veera","state":"Madhya Pradesh","state_code":"35","district":"Shivpuri","district_code":"423","address1":"Kolaras","address2":"","latitude":"25.2676","longitude":"77.5208","accuracy":"3"},{"address3":"Akajhiri","state":"Madhya Pradesh","state_code":"35","district":"Shivpuri","district_code":"423","address1":"Kolaras","address2":"","latitude":"25.1445","longitude":"77.8476","accuracy":"4"},{"address3":"Amhara","state":"Madhya Pradesh","state_code":"35","district":"Shivpuri","district_code":"423","address1":"Kolaras","address2":"","latitude":"25.2676","longitude":"77.5208","accuracy":"3"},{"address3":"Bamore Kalan","state":"Madhya Pradesh","state_code":"35","district":"Shivpuri","district_code":"423","address1":"Kolaras","address2":"","latitude":"25.2676","longitude":"77.5208","accuracy":"3"},{"address3":"Padora","state":"Madhya Pradesh","state_code":"35","district":"Shivpuri","district_code":"423","address1":"Kolaras","address2":"","latitude":"25.2676","longitude":"77.5208","accuracy":"3"},{"address3":"Mada","state":"Madhya Pradesh","state_code":"35","district":"Shivpuri","district_code":"423","address1":"Kolaras","address2":"","latitude":"25.2676","longitude":"77.5208","accuracy":"3"}],"473793":[{"address3":"Ainchwara","state":"Madhya Pradesh","state_code":"35","district":"Shivpuri","district_code":"423","address1":"Pohri","address2":"","latitude":"25.6446","longitude":"77.8851","accuracy":"3"},{"address3":"Nadora","state":"Madhya Pradesh","state_code":"35","district":"Shivpuri","district_code":"423","address1":"Pohri","address2":"","latitude":"25.3627","longitude":"77.8125","accuracy":"3"},{"address3":"Gajigarh","state":"Madhya Pradesh","state_code":"35","district":"Shivpuri","district_code":"423","address1":"Pohri","address2":"","latitude":"25.6446","longitude":"77.8851","accuracy":"3"},{"address3":"Bilwara Mata","state":"Madhya Pradesh","state_code":"35","district":"Shivpuri","district_code":"423","address1":"Pohri","address2":"","latitude":"25.6446","longitude":"77.8851","accuracy":"3"},{"address3":"Kakraua","state":"Madhya Pradesh","state_code":"35","district":"Shivpuri","district_code":"423","address1":"Pohri","address2":"","latitude":"25.806","longitude":"77.5198","accuracy":"4"},{"address3":"Berad","state":"Madhya Pradesh","state_code":"35","district":"Shivpuri","district_code":"423","address1":"Pohri","address2":"","latitude":"25.6446","longitude":"77.8851","accuracy":"3"},{"address3":"Gondari","state":"Madhya Pradesh","state_code":"35","district":"Shivpuri","district_code":"423","address1":"Pohri","address2":"","latitude":"25.3627","longitude":"77.8125","accuracy":"3"},{"address3":"Jorai","state":"Madhya Pradesh","state_code":"35","district":"Shivpuri","district_code":"423","address1":"Pohri","address2":"","latitude":"25.6446","longitude":"77.8851","accuracy":"3"},{"address3":"Khatka","state":"Madhya Pradesh","state_code":"35","district":"Shivpuri","district_code":"423","address1":"Pohri","address2":"","latitude":"25.7167","longitude":"77.5842","accuracy":"4"},{"address3":"Kharai Jalim","state":"Madhya Pradesh","state_code":"35","district":"Shivpuri","district_code":"423","address1":"Pohri","address2":"","latitude":"25.6446","longitude":"77.8851","accuracy":"3"},{"address3":"Gopalpura","state":"Madhya Pradesh","state_code":"35","district":"Shivpuri","district_code":"423","address1":"Pohri","address2":"","latitude":"25.3627","longitude":"77.8125","accuracy":"4"},{"address3":"Burda","state":"Madhya Pradesh","state_code":"35","district":"Shivpuri","district_code":"423","address1":"Pohri","address2":"","latitude":"25.8327","longitude":"77.5862","accuracy":"4"}],"473865":[{"address3":"Dhigwas","state":"Madhya Pradesh","state_code":"35","district":"Shivpuri","district_code":"423","address1":"Narwar","address2":"","latitude":"25.7005","longitude":"77.9349","accuracy":"3"},{"address3":"Sehore","state":"Madhya Pradesh","state_code":"35","district":"Shivpuri","district_code":"423","address1":"Narwar","address2":"","latitude":"25.3627","longitude":"77.8125","accuracy":"3"},{"address3":"Hateda","state":"Madhya Pradesh","state_code":"35","district":"Shivpuri","district_code":"423","address1":"Narwar","address2":"","latitude":"25.7005","longitude":"77.9349","accuracy":"3"},{"address3":"Magroni","state":"Madhya Pradesh","state_code":"35","district":"Shivpuri","district_code":"423","address1":"Narwar","address2":"","latitude":"25.7005","longitude":"77.9349","accuracy":"4"},{"address3":"Kanker","state":"Madhya Pradesh","state_code":"35","district":"Shivpuri","district_code":"423","address1":"Narwar","address2":"","latitude":"25.7005","longitude":"77.9349","accuracy":"3"},{"address3":"Mohini","state":"Madhya Pradesh","state_code":"35","district":"Shivpuri","district_code":"423","address1":"Narwar","address2":"","latitude":"25.7005","longitude":"77.9349","accuracy":"3"}],"473880":[{"address3":"Tharkheda","state":"Madhya Pradesh","state_code":"35","district":"Shivpuri","district_code":"423","address1":"Narwar","address2":"","latitude":"25.0822","longitude":"77.7732","accuracy":"3"},{"address3":"Jujhai","state":"Madhya Pradesh","state_code":"35","district":"Shivpuri","district_code":"423","address1":"Narwar","address2":"","latitude":"25.4213","longitude":"78.1315","accuracy":"4"},{"address3":"Kalipahadi Meda","state":"Madhya Pradesh","state_code":"35","district":"Shivpuri","district_code":"423","address1":"Narwar","address2":"","latitude":"25.0822","longitude":"77.7732","accuracy":"3"},{"address3":"Shergarh","state":"Madhya Pradesh","state_code":"35","district":"Shivpuri","district_code":"423","address1":"Narwar","address2":"","latitude":"25.3627","longitude":"77.8125","accuracy":"4"},{"address3":"Amolpatha","state":"Madhya Pradesh","state_code":"35","district":"Shivpuri","district_code":"423","address1":"Narwar","address2":"","latitude":"25.0822","longitude":"77.7732","accuracy":"3"},{"address3":"Naraua","state":"Madhya Pradesh","state_code":"35","district":"Shivpuri","district_code":"423","address1":"Narwar","address2":"","latitude":"25.5853","longitude":"78.0252","accuracy":"4"},{"address3":"Narwar (Shivpuri)","state":"Madhya Pradesh","state_code":"35","district":"Shivpuri","district_code":"423","address1":"Narwar","address2":"","latitude":"25.0822","longitude":"77.7732","accuracy":"3"},{"address3":"Rampur Dhamkan","state":"Madhya Pradesh","state_code":"35","district":"Shivpuri","district_code":"423","address1":"Narwar","address2":"","latitude":"25.0822","longitude":"77.7732","accuracy":"3"},{"address3":"Sonher","state":"Madhya Pradesh","state_code":"35","district":"Shivpuri","district_code":"423","address1":"Pichhore","address2":"","latitude":"25.0822","longitude":"77.7732","accuracy":"3"}],"473885":[{"address3":"Bamore","state":"Madhya Pradesh","state_code":"35","district":"Shivpuri","district_code":"423","address1":"Kolaras","address2":"","latitude":"24.9937","longitude":"77.5494","accuracy":"3"},{"address3":"Lukwasa","state":"Madhya Pradesh","state_code":"35","district":"Shivpuri","district_code":"423","address1":"Kolaras","address2":"","latitude":"25.1048","longitude":"77.5996","accuracy":"4"},{"address3":"Badarwas","state":"Madhya Pradesh","state_code":"35","district":"Shivpuri","district_code":"423","address1":"Kolaras","address2":"","latitude":"24.9752","longitude":"77.5649","accuracy":"4"},{"address3":"Budadongar","state":"Madhya Pradesh","state_code":"35","district":"Shivpuri","district_code":"423","address1":"Kolaras","address2":"","latitude":"24.9937","longitude":"77.5494","accuracy":"3"},{"address3":"Barai","state":"Madhya Pradesh","state_code":"35","district":"Shivpuri","district_code":"423","address1":"Kolaras","address2":"","latitude":"24.9854","longitude":"77.5309","accuracy":"4"},{"address3":"Atalpur","state":"Madhya Pradesh","state_code":"35","district":"Shivpuri","district_code":"423","address1":"Kolaras","address2":"","latitude":"24.9096","longitude":"77.5021","accuracy":"4"},{"address3":"Raosar Jagir","state":"Madhya Pradesh","state_code":"35","district":"Guna","district_code":"458","address1":"Guna","address2":"","latitude":"24.9937","longitude":"77.5494","accuracy":"3"}],"473990":[{"address3":"Mehroli","state":"Madhya Pradesh","state_code":"35","district":"Shivpuri","district_code":"423","address1":"Khaniadhana","address2":"","latitude":"25.0421","longitude":"78.1268","accuracy":"3"},{"address3":"Kumhrraondi","state":"Madhya Pradesh","state_code":"35","district":"Shivpuri","district_code":"423","address1":"Khaniadhana","address2":"","latitude":"25.0421","longitude":"78.1268","accuracy":"3"},{"address3":"Chamraua","state":"Madhya Pradesh","state_code":"35","district":"Shivpuri","district_code":"423","address1":"Khaniadhana","address2":"","latitude":"25.0609","longitude":"78.2025","accuracy":"4"},{"address3":"Pura","state":"Madhya Pradesh","state_code":"35","district":"Shivpuri","district_code":"423","address1":"Khaniadhana","address2":"","latitude":"25.1031","longitude":"78.0357","accuracy":"4"},{"address3":"Dabia Jagan","state":"Madhya Pradesh","state_code":"35","district":"Shivpuri","district_code":"423","address1":"Khaniadhana","address2":"","latitude":"25.0421","longitude":"78.1268","accuracy":"3"},{"address3":"Gudar","state":"Madhya Pradesh","state_code":"35","district":"Shivpuri","district_code":"423","address1":"Khaniadhana","address2":"","latitude":"24.9693","longitude":"78.1009","accuracy":"4"},{"address3":"Deokho","state":"Madhya Pradesh","state_code":"35","district":"Shivpuri","district_code":"423","address1":"Khaniadhana","address2":"","latitude":"25.0421","longitude":"78.1268","accuracy":"3"},{"address3":"Silpura","state":"Madhya Pradesh","state_code":"35","district":"Shivpuri","district_code":"423","address1":"Khaniadhana","address2":"","latitude":"25.0352","longitude":"78.1679","accuracy":"4"},{"address3":"Khaniyadhana","state":"Madhya Pradesh","state_code":"35","district":"Shivpuri","district_code":"423","address1":"Khaniadhana","address2":"","latitude":"25.0421","longitude":"78.1268","accuracy":"3"},{"address3":"Sinawalkala","state":"Madhya Pradesh","state_code":"35","district":"Shivpuri","district_code":"423","address1":"Khaniadhana","address2":"","latitude":"25.0421","longitude":"78.1268","accuracy":"3"}],"473995":[{"address3":"Kachhauwa","state":"Madhya Pradesh","state_code":"35","district":"Shivpuri","district_code":"423","address1":"Pichhore","address2":"","latitude":"25.3627","longitude":"77.8125","accuracy":"4"},{"address3":"Rewai","state":"Madhya Pradesh","state_code":"35","district":"Shivpuri","district_code":"423","address1":"Pichhore","address2":"","latitude":"25.1663","longitude":"78.3655","accuracy":"4"},{"address3":"Garentha","state":"Madhya Pradesh","state_code":"35","district":"Shivpuri","district_code":"423","address1":"Pichhore","address2":"","latitude":"25.0839","longitude":"78.163","accuracy":"3"},{"address3":"Gajora","state":"Madhya Pradesh","state_code":"35","district":"Shivpuri","district_code":"423","address1":"Pichhore","address2":"","latitude":"25.1394","longitude":"78.2034","accuracy":"4"},{"address3":"Kherwas","state":"Madhya Pradesh","state_code":"35","district":"Shivpuri","district_code":"423","address1":"Pichhore","address2":"","latitude":"25.3627","longitude":"77.8125","accuracy":"3"},{"address3":"Pichhore","state":"Madhya Pradesh","state_code":"35","district":"Shivpuri","district_code":"423","address1":"Pichhore","address2":"","latitude":"25.0839","longitude":"78.163","accuracy":"3"},{"address3":"Semri","state":"Madhya Pradesh","state_code":"35","district":"Shivpuri","district_code":"423","address1":"Pichhore","address2":"","latitude":"25.1879","longitude":"78.1115","accuracy":"4"},{"address3":"Harinagar","state":"Madhya Pradesh","state_code":"35","district":"Shivpuri","district_code":"423","address1":"Pichhore","address2":"","latitude":"25.3346","longitude":"78.0759","accuracy":"4"},{"address3":"Pipro","state":"Madhya Pradesh","state_code":"35","district":"Shivpuri","district_code":"423","address1":"Pichhore","address2":"","latitude":"25.0839","longitude":"78.163","accuracy":"3"},{"address3":"Rahi","state":"Madhya Pradesh","state_code":"35","district":"Shivpuri","district_code":"423","address1":"Pichhore","address2":"","latitude":"25.1375","longitude":"78.0995","accuracy":"4"},{"address3":"Nand","state":"Madhya Pradesh","state_code":"35","district":"Shivpuri","district_code":"423","address1":"Pichhore","address2":"","latitude":"25.2432","longitude":"78.2101","accuracy":"4"},{"address3":"Budhonrajapur","state":"Madhya Pradesh","state_code":"35","district":"Shivpuri","district_code":"423","address1":"Pichhore","address2":"","latitude":"25.0839","longitude":"78.163","accuracy":"3"},{"address3":"Badarwas","state":"Madhya Pradesh","state_code":"35","district":"Shivpuri","district_code":"423","address1":"Pichhore","address2":"","latitude":"25.2446","longitude":"78.1589","accuracy":"4"},{"address3":"Dabiakala","state":"Madhya Pradesh","state_code":"35","district":"Shivpuri","district_code":"423","address1":"Pichhore","address2":"","latitude":"25.0839","longitude":"78.163","accuracy":"3"},{"address3":"Deokheda","state":"Madhya Pradesh","state_code":"35","district":"Shivpuri","district_code":"423","address1":"Pichhore","address2":"","latitude":"25.0839","longitude":"78.163","accuracy":"3"},{"address3":"Karar Kheda","state":"Madhya Pradesh","state_code":"35","district":"Shivpuri","district_code":"423","address1":"Pichhore","address2":"","latitude":"25.0839","longitude":"78.163","accuracy":"3"},{"address3":"Labheda","state":"Madhya Pradesh","state_code":"35","district":"Shivpuri","district_code":"423","address1":"Pichhore","address2":"","latitude":"25.0839","longitude":"78.163","accuracy":"3"},{"address3":"Malaoni","state":"Madhya Pradesh","state_code":"35","district":"Shivpuri","district_code":"423","address1":"Pichhore","address2":"","latitude":"25.0839","longitude":"78.163","accuracy":"3"},{"address3":"Piproda Ubari","state":"Madhya Pradesh","state_code":"35","district":"Shivpuri","district_code":"423","address1":"Pichhore","address2":"","latitude":"25.0839","longitude":"78.163","accuracy":"3"},{"address3":"Pipal Kheda","state":"Madhya Pradesh","state_code":"35","district":"Shivpuri","district_code":"423","address1":"Pichhore","address2":"","latitude":"25.0839","longitude":"78.163","accuracy":"3"}],"credits":[{"name":"geonames","url":"https://www.geonames.org"}],"last_update":"2019-03-01T09:01:37.836Z"}