{"496001":[{"address3":"Boirdadar","state":"Chattisgarh","state_code":"37","district":"Raigarh","district_code":"403","address1":"NA","address2":"","latitude":"21.8764","longitude":"83.3774","accuracy":"3"},{"address3":"Raigarh Sadar Bazar","state":"Chattisgarh","state_code":"37","district":"Raigarh","district_code":"403","address1":"Raigarh","address2":"","latitude":"21.8764","longitude":"83.3774","accuracy":"3"},{"address3":"Bangursiya","state":"Chattisgarh","state_code":"37","district":"Raigarh","district_code":"403","address1":"Raigarh","address2":"","latitude":"21.8764","longitude":"83.3774","accuracy":"3"},{"address3":"Saraipali","state":"Chattisgarh","state_code":"37","district":"Raigarh","district_code":"403","address1":"Raigarh","address2":"","latitude":"21.9586","longitude":"83.1555","accuracy":"4"},{"address3":"Kotarlia","state":"Chattisgarh","state_code":"37","district":"Raigarh","district_code":"403","address1":"Raigarh","address2":"","latitude":"21.8845","longitude":"83.4643","accuracy":"4"},{"address3":"Nandeli","state":"Chattisgarh","state_code":"37","district":"Raigarh","district_code":"403","address1":"Raigarh","address2":"","latitude":"21.8884","longitude":"83.24","accuracy":"4"},{"address3":"Raigarh Jute Mill","state":"Chattisgarh","state_code":"37","district":"Raigarh","district_code":"403","address1":"Raigarh","address2":"","latitude":"21.8764","longitude":"83.3774","accuracy":"3"},{"address3":"Nawapara","state":"Chattisgarh","state_code":"37","district":"Raigarh","district_code":"403","address1":"Raigarh","address2":"","latitude":"21.8763","longitude":"83.2106","accuracy":"4"},{"address3":"Usrot","state":"Chattisgarh","state_code":"37","district":"Raigarh","district_code":"403","address1":"Raigarh","address2":"","latitude":"21.8894","longitude":"83.2816","accuracy":"4"},{"address3":"Garh-umaria","state":"Chattisgarh","state_code":"37","district":"Raigarh","district_code":"403","address1":"Raigarh","address2":"","latitude":"21.8525","longitude":"83.4053","accuracy":"4"},{"address3":"Urdana Camp","state":"Chattisgarh","state_code":"37","district":"Raigarh","district_code":"403","address1":"Raigarh","address2":"","latitude":"21.8764","longitude":"83.3774","accuracy":"3"},{"address3":"Kukurda","state":"Chattisgarh","state_code":"37","district":"Raigarh","district_code":"403","address1":"Raigarh","address2":"","latitude":"21.8546","longitude":"83.5333","accuracy":"4"},{"address3":"Tarkela","state":"Chattisgarh","state_code":"37","district":"Raigarh","district_code":"403","address1":"Raigarh","address2":"","latitude":"21.8764","longitude":"83.3774","accuracy":"3"},{"address3":"Banora","state":"Chattisgarh","state_code":"37","district":"Raigarh","district_code":"403","address1":"Raigarh","address2":"","latitude":"21.8308","longitude":"83.5117","accuracy":"4"},{"address3":"Raigarh H.O","state":"Chattisgarh","state_code":"37","district":"Raigarh","district_code":"403","address1":"NA","address2":"","latitude":"21.8764","longitude":"83.3774","accuracy":"3"},{"address3":"Bhagora","state":"Chattisgarh","state_code":"37","district":"Raigarh","district_code":"403","address1":"Raigarh","address2":"","latitude":"21.903","longitude":"83.5116","accuracy":"4"},{"address3":"Chakradharnagar","state":"Chattisgarh","state_code":"37","district":"Raigarh","district_code":"403","address1":"Raigarh","address2":"","latitude":"21.8764","longitude":"83.3774","accuracy":"3"},{"address3":"Chhatamura","state":"Chattisgarh","state_code":"37","district":"Raigarh","district_code":"403","address1":"Raigarh","address2":"","latitude":"21.86","longitude":"83.3869","accuracy":"4"},{"address3":"Naurngpur","state":"Chattisgarh","state_code":"37","district":"Raigarh","district_code":"403","address1":"Raigarh","address2":"","latitude":"21.8764","longitude":"83.3774","accuracy":"3"},{"address3":"Dhanagar","state":"Chattisgarh","state_code":"37","district":"Raigarh","district_code":"403","address1":"Raigarh","address2":"","latitude":"21.8892","longitude":"83.3366","accuracy":"4"},{"address3":"Kantaahardi","state":"Chattisgarh","state_code":"37","district":"Raigarh","district_code":"403","address1":"Raigarh","address2":"","latitude":"21.8764","longitude":"83.3774","accuracy":"3"},{"address3":"Gerwani","state":"Chattisgarh","state_code":"37","district":"Raigarh","district_code":"403","address1":"Raigarh","address2":"","latitude":"21.9989","longitude":"83.376","accuracy":"4"},{"address3":"Jivri","state":"Chattisgarh","state_code":"37","district":"Raigarh","district_code":"403","address1":"Raigarh","address2":"","latitude":"21.8764","longitude":"83.3774","accuracy":"3"},{"address3":"Gorra","state":"Chattisgarh","state_code":"37","district":"Raigarh","district_code":"403","address1":"Raigarh","address2":"","latitude":"21.8404","longitude":"83.2869","accuracy":"4"},{"address3":"Jamgaon","state":"Chattisgarh","state_code":"37","district":"Raigarh","district_code":"403","address1":"Raigarh","address2":"","latitude":"21.862","longitude":"83.5429","accuracy":"4"},{"address3":"Jhalmala","state":"Chattisgarh","state_code":"37","district":"Raigarh","district_code":"403","address1":"Raigarh","address2":"","latitude":"21.8106","longitude":"83.4373","accuracy":"4"},{"address3":"Jurda","state":"Chattisgarh","state_code":"37","district":"Raigarh","district_code":"403","address1":"Raigarh","address2":"","latitude":"21.8689","longitude":"83.4565","accuracy":"4"},{"address3":"Kotra","state":"Chattisgarh","state_code":"37","district":"Raigarh","district_code":"403","address1":"Raigarh","address2":"","latitude":"21.8653","longitude":"83.3107","accuracy":"4"},{"address3":"Loing","state":"Chattisgarh","state_code":"37","district":"Raigarh","district_code":"403","address1":"Raigarh","address2":"","latitude":"21.8559","longitude":"83.4855","accuracy":"4"},{"address3":"Putkapuri","state":"Chattisgarh","state_code":"37","district":"Raigarh","district_code":"403","address1":"Raigarh","address2":"","latitude":"21.8163","longitude":"83.2738","accuracy":"4"},{"address3":"Sambalpuri","state":"Chattisgarh","state_code":"37","district":"Raigarh","district_code":"403","address1":"Raigarh","address2":"","latitude":"21.936","longitude":"83.4508","accuracy":"4"},{"address3":"Tarapur","state":"Chattisgarh","state_code":"37","district":"Raigarh","district_code":"403","address1":"Raigarh","address2":"","latitude":"21.8634","longitude":"83.2676","accuracy":"4"}],"496005":[{"address3":"Gorkha","state":"Chattisgarh","state_code":"37","district":"Raigarh","district_code":"403","address1":"Raigarh","address2":"","latitude":"21.8764","longitude":"83.3774","accuracy":"1"},{"address3":"JSPL Patrapli","state":"Chattisgarh","state_code":"37","district":"Raigarh","district_code":"403","address1":"Raigarh","address2":"","latitude":"21.8764","longitude":"83.3774","accuracy":"1"},{"address3":"Kirodimalnagar","state":"Chattisgarh","state_code":"37","district":"Raigarh","district_code":"403","address1":"Raigarh","address2":"","latitude":"21.8764","longitude":"83.3774","accuracy":"1"}],"496100":[{"address3":"Taparda","state":"Chattisgarh","state_code":"37","district":"Raigarh","district_code":"403","address1":"Raigarh","address2":"","latitude":"21.7169","longitude":"83.2838","accuracy":"4"},{"address3":"Badebhandar","state":"Chattisgarh","state_code":"37","district":"Raigarh","district_code":"403","address1":"NA","address2":"","latitude":"21.7802","longitude":"83.3199","accuracy":"3"},{"address3":"Aurda","state":"Chattisgarh","state_code":"37","district":"Raigarh","district_code":"403","address1":"NA","address2":"","latitude":"21.8071","longitude":"83.3952","accuracy":"4"},{"address3":"Bunga","state":"Chattisgarh","state_code":"37","district":"Raigarh","district_code":"403","address1":"NA","address2":"","latitude":"21.7802","longitude":"83.3199","accuracy":"3"},{"address3":"Chikhli","state":"Chattisgarh","state_code":"37","district":"Raigarh","district_code":"403","address1":"Raigarh","address2":"","latitude":"21.7738","longitude":"83.3108","accuracy":"4"},{"address3":"Loharsingha","state":"Chattisgarh","state_code":"37","district":"Raigarh","district_code":"403","address1":"Raigarh","address2":"","latitude":"21.7802","longitude":"83.3199","accuracy":"3"},{"address3":"Jatri","state":"Chattisgarh","state_code":"37","district":"Raigarh","district_code":"403","address1":"Raigarh","address2":"","latitude":"21.7675","longitude":"83.2683","accuracy":"4"},{"address3":"Patelpali","state":"Chattisgarh","state_code":"37","district":"Raigarh","district_code":"403","address1":"Raigarh","address2":"","latitude":"21.7802","longitude":"83.3199","accuracy":"3"},{"address3":"Pusalda","state":"Chattisgarh","state_code":"37","district":"Raigarh","district_code":"403","address1":"Raigarh","address2":"","latitude":"21.7764","longitude":"83.293","accuracy":"4"},{"address3":"Tetla","state":"Chattisgarh","state_code":"37","district":"Raigarh","district_code":"403","address1":"Raigarh","address2":"","latitude":"21.7905","longitude":"83.33","accuracy":"4"},{"address3":"Kondatarai","state":"Chattisgarh","state_code":"37","district":"Raigarh","district_code":"403","address1":"Raigarh","address2":"","latitude":"21.8294","longitude":"83.3582","accuracy":"4"}],"496107":[{"address3":"Urba","state":"Chattisgarh","state_code":"37","district":"Raigarh","district_code":"403","address1":"Raigarh","address2":"","latitude":"21.92","longitude":"83.3167","accuracy":"3"},{"address3":"Samkera","state":"Chattisgarh","state_code":"37","district":"Raigarh","district_code":"403","address1":"Raigarh","address2":"","latitude":"21.92","longitude":"83.3167","accuracy":"3"},{"address3":"Amgaon","state":"Chattisgarh","state_code":"37","district":"Raigarh","district_code":"403","address1":"NA","address2":"","latitude":"22.0858","longitude":"83.306","accuracy":"4"},{"address3":"Tangarghat","state":"Chattisgarh","state_code":"37","district":"Raigarh","district_code":"403","address1":"Raigarh","address2":"","latitude":"21.92","longitude":"83.3167","accuracy":"3"},{"address3":"Tamnar","state":"Chattisgarh","state_code":"37","district":"Raigarh","district_code":"403","address1":"Raigarh","address2":"","latitude":"22.0901","longitude":"83.4409","accuracy":"4"},{"address3":"Milupara","state":"Chattisgarh","state_code":"37","district":"Raigarh","district_code":"403","address1":"Raigarh","address2":"","latitude":"22.1821","longitude":"83.5192","accuracy":"4"},{"address3":"Mahloi","state":"Chattisgarh","state_code":"37","district":"Raigarh","district_code":"403","address1":"Raigarh","address2":"","latitude":"21.7495","longitude":"83.4311","accuracy":"4"},{"address3":"Padigaon","state":"Chattisgarh","state_code":"37","district":"Raigarh","district_code":"403","address1":"Raigarh","address2":"","latitude":"21.702","longitude":"83.3881","accuracy":"4"},{"address3":"Dhourabhata","state":"Chattisgarh","state_code":"37","district":"Raigarh","district_code":"403","address1":"Raigarh","address2":"","latitude":"21.92","longitude":"83.3167","accuracy":"3"},{"address3":"Dolesara","state":"Chattisgarh","state_code":"37","district":"Raigarh","district_code":"403","address1":"Raigarh","address2":"","latitude":"21.92","longitude":"83.3167","accuracy":"3"},{"address3":"Hamirpur","state":"Chattisgarh","state_code":"37","district":"Raigarh","district_code":"403","address1":"Raigarh","address2":"","latitude":"21.92","longitude":"83.3167","accuracy":"3"},{"address3":"Saraitolla","state":"Chattisgarh","state_code":"37","district":"Raigarh","district_code":"403","address1":"Raiggarh","address2":"","latitude":"21.92","longitude":"83.3167","accuracy":"3"},{"address3":"Jarekela","state":"Chattisgarh","state_code":"37","district":"Raigarh","district_code":"403","address1":"Raigarh","address2":"","latitude":"21.92","longitude":"83.3167","accuracy":"3"},{"address3":"Kolam","state":"Chattisgarh","state_code":"37","district":"Raigarh","district_code":"403","address1":"Raigarh","address2":"","latitude":"21.92","longitude":"83.3167","accuracy":"3"},{"address3":"Libra","state":"Chattisgarh","state_code":"37","district":"Raigarh","district_code":"403","address1":"Raigarh","address2":"","latitude":"21.92","longitude":"83.3167","accuracy":"3"}],"496108":[{"address3":"Urjanagar Telirampur","state":"Chattisgarh","state_code":"37","district":"Raigarh","district_code":"403","address1":"Tamnar","address2":"","latitude":"21.8385","longitude":"83.3186","accuracy":"1"}],"496109":[{"address3":"Punjipathra","state":"Chattisgarh","state_code":"37","district":"Raigarh","district_code":"403","address1":"Gharghoda","address2":"","latitude":"21.8385","longitude":"83.3186","accuracy":"1"}],"496111":[{"address3":"Baihamunda","state":"Chattisgarh","state_code":"37","district":"Raigarh","district_code":"403","address1":"Gharghoda","address2":"","latitude":"21.9898","longitude":"83.0502","accuracy":"3"},{"address3":"Bahirkela","state":"Chattisgarh","state_code":"37","district":"Raigarh","district_code":"403","address1":"Gharghoda","address2":"","latitude":"22.1796","longitude":"83.3308","accuracy":"4"},{"address3":"Kudumkela","state":"Chattisgarh","state_code":"37","district":"Raigarh","district_code":"403","address1":"Raigarh","address2":"","latitude":"22.2556","longitude":"83.3041","accuracy":"4"},{"address3":"Bhalumar","state":"Chattisgarh","state_code":"37","district":"Raigarh","district_code":"403","address1":"Gharghoda","address2":"","latitude":"21.9898","longitude":"83.0502","accuracy":"3"},{"address3":"Bansi","state":"Chattisgarh","state_code":"37","district":"Raigarh","district_code":"403","address1":"Gharghoda","address2":"","latitude":"22.0858","longitude":"83.306","accuracy":"3"},{"address3":"Raikera","state":"Chattisgarh","state_code":"37","district":"Raigarh","district_code":"403","address1":"Raigarh","address2":"","latitude":"22.0858","longitude":"83.306","accuracy":"4"},{"address3":"Chharratangar","state":"Chattisgarh","state_code":"37","district":"Raigarh","district_code":"403","address1":"Raigarh","address2":"","latitude":"21.9898","longitude":"83.0502","accuracy":"3"},{"address3":"Gharghoda","state":"Chattisgarh","state_code":"37","district":"Raigarh","district_code":"403","address1":"Raigarh","address2":"","latitude":"22.1743","longitude":"83.3517","accuracy":"4"},{"address3":"Chhotegumda","state":"Chattisgarh","state_code":"37","district":"Raigarh","district_code":"403","address1":"Raigarh","address2":"","latitude":"21.9898","longitude":"83.0502","accuracy":"3"},{"address3":"Teram","state":"Chattisgarh","state_code":"37","district":"Raigarh","district_code":"403","address1":"Raigarh","address2":"","latitude":"21.9898","longitude":"83.0502","accuracy":"3"},{"address3":"Deogarh","state":"Chattisgarh","state_code":"37","district":"Raigarh","district_code":"403","address1":"Raigarh","address2":"","latitude":"21.9898","longitude":"83.0502","accuracy":"3"},{"address3":"Dehradih","state":"Chattisgarh","state_code":"37","district":"Raigarh","district_code":"403","address1":"Gharghoda","address2":"","latitude":"21.9898","longitude":"83.0502","accuracy":"3"},{"address3":"Gharghodi","state":"Chattisgarh","state_code":"37","district":"Raigarh","district_code":"403","address1":"Raigarh","address2":"","latitude":"21.9898","longitude":"83.0502","accuracy":"3"},{"address3":"Kotrimal","state":"Chattisgarh","state_code":"37","district":"Raigarh","district_code":"403","address1":"Raigarh","address2":"","latitude":"21.9898","longitude":"83.0502","accuracy":"3"},{"address3":"Nawaparadenda","state":"Chattisgarh","state_code":"37","district":"Raigarh","district_code":"403","address1":"Gharghoda","address2":"","latitude":"21.9898","longitude":"83.0502","accuracy":"3"},{"address3":"Porda","state":"Chattisgarh","state_code":"37","district":"Raigarh","district_code":"403","address1":"Raigarh","address2":"","latitude":"21.9898","longitude":"83.0502","accuracy":"3"},{"address3":"Rabo","state":"Chattisgarh","state_code":"37","district":"Raigarh","district_code":"403","address1":"Raigarh","address2":"","latitude":"21.9898","longitude":"83.0502","accuracy":"3"},{"address3":"Samruma","state":"Chattisgarh","state_code":"37","district":"Raigarh","district_code":"403","address1":"Raigarh","address2":"","latitude":"21.9898","longitude":"83.0502","accuracy":"3"},{"address3":"Barod","state":"Chattisgarh","state_code":"37","district":"Raigarh","district_code":"403","address1":"Gharghoda","address2":"","latitude":"21.9898","longitude":"83.0502","accuracy":"3"}],"496113":[{"address3":"Narayanpur","state":"Chattisgarh","state_code":"37","district":"Raigarh","district_code":"403","address1":"Raigarh","address2":"","latitude":"22.0858","longitude":"83.306","accuracy":"4"},{"address3":"Piprahi","state":"Chattisgarh","state_code":"37","district":"Raigarh","district_code":"403","address1":"Raigarh","address2":"","latitude":"22.0858","longitude":"83.306","accuracy":"4"},{"address3":"Baturakachar","state":"Chattisgarh","state_code":"37","district":"Raigarh","district_code":"403","address1":"NA","address2":"","latitude":"21.8047","longitude":"82.8732","accuracy":"3"},{"address3":"Turtura","state":"Chattisgarh","state_code":"37","district":"Raigarh","district_code":"403","address1":"Raigarh","address2":"","latitude":"21.8047","longitude":"82.8732","accuracy":"3"},{"address3":"Kunjara","state":"Chattisgarh","state_code":"37","district":"Raigarh","district_code":"403","address1":"Raigarh","address2":"","latitude":"22.3651","longitude":"83.575","accuracy":"4"},{"address3":"Birsingha","state":"Chattisgarh","state_code":"37","district":"Raigarh","district_code":"403","address1":"NA","address2":"","latitude":"21.8047","longitude":"82.8732","accuracy":"3"},{"address3":"Lailunga","state":"Chattisgarh","state_code":"37","district":"Raigarh","district_code":"403","address1":"Raigarh","address2":"","latitude":"22.392","longitude":"83.5808","accuracy":"4"},{"address3":"Gahira","state":"Chattisgarh","state_code":"37","district":"Raigarh","district_code":"403","address1":"Raigarh","address2":"","latitude":"21.8047","longitude":"82.8732","accuracy":"3"},{"address3":"Sonajori","state":"Chattisgarh","state_code":"37","district":"Raigarh","district_code":"403","address1":"Raigarh","address2":"","latitude":"21.8047","longitude":"82.8732","accuracy":"3"},{"address3":"Kaya","state":"Chattisgarh","state_code":"37","district":"Raigarh","district_code":"403","address1":"Raigarh","address2":"","latitude":"22.0858","longitude":"83.306","accuracy":"4"},{"address3":"Kashla","state":"Chattisgarh","state_code":"37","district":"Raigarh","district_code":"403","address1":"Raigarh","address2":"","latitude":"21.8047","longitude":"82.8732","accuracy":"3"},{"address3":"Mukdega","state":"Chattisgarh","state_code":"37","district":"Raigarh","district_code":"403","address1":"Raigarh","address2":"","latitude":"22.3386","longitude":"83.6753","accuracy":"4"},{"address3":"Jhagarpur","state":"Chattisgarh","state_code":"37","district":"Raigarh","district_code":"403","address1":"Raigarh","address2":"","latitude":"21.8047","longitude":"82.8732","accuracy":"3"},{"address3":"Tolma","state":"Chattisgarh","state_code":"37","district":"Raigarh","district_code":"403","address1":"NA","address2":"","latitude":"21.8047","longitude":"82.8732","accuracy":"3"},{"address3":"Tolge","state":"Chattisgarh","state_code":"37","district":"Raigarh","district_code":"403","address1":"Raigarh","address2":"","latitude":"21.8047","longitude":"82.8732","accuracy":"3"},{"address3":"Surangpani","state":"Chattisgarh","state_code":"37","district":"Raigarh","district_code":"403","address1":"Raigarh","address2":"","latitude":"22.0858","longitude":"83.306","accuracy":"4"},{"address3":"Katkalia","state":"Chattisgarh","state_code":"37","district":"Raigarh","district_code":"403","address1":"Raigarh","address2":"","latitude":"21.8047","longitude":"82.8732","accuracy":"3"},{"address3":"Laripani","state":"Chattisgarh","state_code":"37","district":"Raigarh","district_code":"403","address1":"Raigarh","address2":"","latitude":"21.8047","longitude":"82.8732","accuracy":"3"},{"address3":"Katalpali \"d\"","state":"Chattisgarh","state_code":"37","district":"Raigarh","district_code":"403","address1":"Raigarh","address2":"","latitude":"21.8047","longitude":"82.8732","accuracy":"3"},{"address3":"Pithama","state":"Chattisgarh","state_code":"37","district":"Raigarh","district_code":"403","address1":"Raigrh","address2":"","latitude":"21.8047","longitude":"82.8732","accuracy":"3"}],"496115":[{"address3":"Gala","state":"Chattisgarh","state_code":"37","district":"Raigarh","district_code":"403","address1":"Raigarh","address2":"","latitude":"21.8706","longitude":"82.5164","accuracy":"3"},{"address3":"Dhap","state":"Chattisgarh","state_code":"37","district":"Raigarh","district_code":"403","address1":"Raigarh","address2":"","latitude":"22.0858","longitude":"83.306","accuracy":"4"},{"address3":"Ghatgaon","state":"Chattisgarh","state_code":"37","district":"Raigarh","district_code":"403","address1":"Raigarh","address2":"","latitude":"22.0858","longitude":"83.306","accuracy":"4"},{"address3":"Bansdand","state":"Chattisgarh","state_code":"37","district":"Raigarh","district_code":"403","address1":"Raigarh","address2":"","latitude":"21.8706","longitude":"82.5164","accuracy":"3"},{"address3":"Rajkot","state":"Chattisgarh","state_code":"37","district":"Raigarh","district_code":"403","address1":"Raigarh","address2":"","latitude":"21.8706","longitude":"82.5164","accuracy":"3"},{"address3":"Mudagaon","state":"Chattisgarh","state_code":"37","district":"Raigarh","district_code":"403","address1":"NA","address2":"","latitude":"22.0858","longitude":"83.306","accuracy":"4"},{"address3":"Karra","state":"Chattisgarh","state_code":"37","district":"Raigarh","district_code":"403","address1":"Raigarh","address2":"","latitude":"22.0858","longitude":"83.306","accuracy":"4"},{"address3":"Rajpur (RIH)","state":"Chattisgarh","state_code":"37","district":"Raigarh","district_code":"403","address1":"Raigarh","address2":"","latitude":"21.8706","longitude":"82.5164","accuracy":"3"},{"address3":"Kodasia","state":"Chattisgarh","state_code":"37","district":"Raigarh","district_code":"403","address1":"Raigarh","address2":"","latitude":"21.8706","longitude":"82.5164","accuracy":"3"},{"address3":"Gahnajharia","state":"Chattisgarh","state_code":"37","district":"Raigarh","district_code":"403","address1":"Raigarh","address2":"","latitude":"21.8706","longitude":"82.5164","accuracy":"3"},{"address3":"Choranga","state":"Chattisgarh","state_code":"37","district":"Raigarh","district_code":"403","address1":"Raigarh","address2":"","latitude":"21.8706","longitude":"82.5164","accuracy":"3"},{"address3":"Bagudega","state":"Chattisgarh","state_code":"37","district":"Raigarh","district_code":"403","address1":"NA","address2":"","latitude":"21.8706","longitude":"82.5164","accuracy":"3"},{"address3":"Bhedimuda","state":"Chattisgarh","state_code":"37","district":"Raigarh","district_code":"403","address1":"NA","address2":"","latitude":"21.8706","longitude":"82.5164","accuracy":"3"},{"address3":"Salakia","state":"Chattisgarh","state_code":"37","district":"Raigarh","district_code":"403","address1":"Raigarh","address2":"","latitude":"21.8706","longitude":"82.5164","accuracy":"3"}],"496116":[{"address3":"Jamarga","state":"Chattisgarh","state_code":"37","district":"Raigarh","district_code":"403","address1":"Dharmajaigarh","address2":"","latitude":"22.0858","longitude":"83.306","accuracy":"4"},{"address3":"Gersa","state":"Chattisgarh","state_code":"37","district":"Raigarh","district_code":"403","address1":"Udaipur (Dharamjaigarh)","address2":"","latitude":"23.2948","longitude":"83.9171","accuracy":"3"},{"address3":"Bartapali","state":"Chattisgarh","state_code":"37","district":"Raigarh","district_code":"403","address1":"Dharmajaigarh","address2":"","latitude":"23.2948","longitude":"83.9171","accuracy":"3"},{"address3":"Maharajganj","state":"Chattisgarh","state_code":"37","district":"Raigarh","district_code":"403","address1":"Dharmajaigarh","address2":"","latitude":"22.0858","longitude":"83.306","accuracy":"4"},{"address3":"Ududa","state":"Chattisgarh","state_code":"37","district":"Raigarh","district_code":"403","address1":"Dharmajaigarh","address2":"","latitude":"23.2948","longitude":"83.9171","accuracy":"3"},{"address3":"Ruwaful","state":"Chattisgarh","state_code":"37","district":"Raigarh","district_code":"403","address1":"Dharmajaigarh","address2":"","latitude":"23.2948","longitude":"83.9171","accuracy":"3"},{"address3":"Kuma","state":"Chattisgarh","state_code":"37","district":"Raigarh","district_code":"403","address1":"Dharmajaigarh","address2":"","latitude":"23.2948","longitude":"83.9171","accuracy":"3"},{"address3":"Sithra","state":"Chattisgarh","state_code":"37","district":"Raigarh","district_code":"403","address1":"Dharmajaigarh","address2":"","latitude":"23.2948","longitude":"83.9171","accuracy":"3"},{"address3":"Narkalo","state":"Chattisgarh","state_code":"37","district":"Raigarh","district_code":"403","address1":"Dharmajaigarh","address2":"","latitude":"23.2948","longitude":"83.9171","accuracy":"3"},{"address3":"Hati","state":"Chattisgarh","state_code":"37","district":"Raigarh","district_code":"403","address1":"Dharmajaigarh","address2":"","latitude":"23.2948","longitude":"83.9171","accuracy":"3"},{"address3":"Shahpur","state":"Chattisgarh","state_code":"37","district":"Raigarh","district_code":"403","address1":"Dharmajaigarh","address2":"","latitude":"23.2948","longitude":"83.9171","accuracy":"3"},{"address3":"Miriguda","state":"Chattisgarh","state_code":"37","district":"Raigarh","district_code":"403","address1":"Dharmajaigarh","address2":"","latitude":"23.2948","longitude":"83.9171","accuracy":"3"},{"address3":"Behramar","state":"Chattisgarh","state_code":"37","district":"Raigarh","district_code":"403","address1":"Udaipur (Dharamjaigarh)","address2":"","latitude":"23.2948","longitude":"83.9171","accuracy":"3"},{"address3":"Khamhar","state":"Chattisgarh","state_code":"37","district":"Raigarh","district_code":"403","address1":"Dharmajaigarh","address2":"","latitude":"23.2948","longitude":"83.9171","accuracy":"3"},{"address3":"Sisringa","state":"Chattisgarh","state_code":"37","district":"Raigarh","district_code":"403","address1":"Dharmajaigarh","address2":"","latitude":"23.2948","longitude":"83.9171","accuracy":"3"},{"address3":"Khadgaon","state":"Chattisgarh","state_code":"37","district":"Raigarh","district_code":"403","address1":"Dharmajaigarh","address2":"","latitude":"23.2948","longitude":"83.9171","accuracy":"3"},{"address3":"Mumund","state":"Chattisgarh","state_code":"37","district":"Raigarh","district_code":"403","address1":"Dharmajaigarh","address2":"","latitude":"23.2948","longitude":"83.9171","accuracy":"3"},{"address3":"Dharmajaigarh","state":"Chattisgarh","state_code":"37","district":"Raigarh","district_code":"403","address1":"Dharmajaigarh","address2":"","latitude":"23.2948","longitude":"83.9171","accuracy":"3"},{"address3":"Baisi Colony","state":"Chattisgarh","state_code":"37","district":"Raigarh","district_code":"403","address1":"Udaipur (Dharamjaigarh)","address2":"","latitude":"23.2948","longitude":"83.9171","accuracy":"3"},{"address3":"Ongana","state":"Chattisgarh","state_code":"37","district":"Raigarh","district_code":"403","address1":"Dharmajaigarh","address2":"","latitude":"23.2948","longitude":"83.9171","accuracy":"3"},{"address3":"Boro","state":"Chattisgarh","state_code":"37","district":"Raigarh","district_code":"403","address1":"Udaipur (Dharamjaigarh)","address2":"","latitude":"23.2948","longitude":"83.9171","accuracy":"3"}],"496118":[{"address3":"Kumarta","state":"Chattisgarh","state_code":"37","district":"Jashpur","district_code":"402","address1":"Pathalgaon","address2":"","latitude":"22.0025","longitude":"83.2788","accuracy":"3"},{"address3":"Sonpur","state":"Chattisgarh","state_code":"37","district":"Jashpur","district_code":"402","address1":"Pathalgaon","address2":"","latitude":"22.8004","longitude":"83.8664","accuracy":"4"},{"address3":"Tamta","state":"Chattisgarh","state_code":"37","district":"Jashpur","district_code":"402","address1":"Pathalgaon","address2":"","latitude":"22.0025","longitude":"83.2788","accuracy":"3"},{"address3":"Kapu","state":"Chattisgarh","state_code":"37","district":"Jashpur","district_code":"402","address1":"Pathalgoan","address2":"","latitude":"22.8004","longitude":"83.8664","accuracy":"4"},{"address3":"Bairagi","state":"Chattisgarh","state_code":"37","district":"Jashpur","district_code":"402","address1":"NA","address2":"","latitude":"22.8004","longitude":"83.8664","accuracy":"3"},{"address3":"Vijaynagar","state":"Chattisgarh","state_code":"37","district":"Jashpur","district_code":"402","address1":"Pathalgaon","address2":"","latitude":"22.0025","longitude":"83.2788","accuracy":"3"},{"address3":"Kilkila","state":"Chattisgarh","state_code":"37","district":"Jashpur","district_code":"402","address1":"Pathalgaon","address2":"","latitude":"22.0025","longitude":"83.2788","accuracy":"3"},{"address3":"Sureshpur","state":"Chattisgarh","state_code":"37","district":"Jashpur","district_code":"402","address1":"Pathalgaon","address2":"","latitude":"22.0025","longitude":"83.2788","accuracy":"3"},{"address3":"Tildega","state":"Chattisgarh","state_code":"37","district":"Jashpur","district_code":"402","address1":"Pathalgaon","address2":"","latitude":"22.8004","longitude":"83.8664","accuracy":"4"},{"address3":"Supkalo","state":"Chattisgarh","state_code":"37","district":"Jashpur","district_code":"402","address1":"Pathalgaon","address2":"","latitude":"22.0025","longitude":"83.2788","accuracy":"3"},{"address3":"Karmitikra","state":"Chattisgarh","state_code":"37","district":"Jashpur","district_code":"402","address1":"Pathalgaon","address2":"","latitude":"22.0025","longitude":"83.2788","accuracy":"3"},{"address3":"Sukrapara","state":"Chattisgarh","state_code":"37","district":"Jashpur","district_code":"402","address1":"Pathalgaon","address2":"","latitude":"22.0025","longitude":"83.2788","accuracy":"3"},{"address3":"Bakaruma","state":"Chattisgarh","state_code":"37","district":"Jashpur","district_code":"402","address1":"NA","address2":"","latitude":"22.8004","longitude":"83.8664","accuracy":"4"},{"address3":"Pathalgoan","state":"Chattisgarh","state_code":"37","district":"Jashpur","district_code":"402","address1":"Pathalgoan","address2":"","latitude":"22.0025","longitude":"83.2788","accuracy":"3"},{"address3":"Gharjiabandhan","state":"Chattisgarh","state_code":"37","district":"Jashpur","district_code":"402","address1":"Pathalgaon","address2":"","latitude":"22.0025","longitude":"83.2788","accuracy":"3"},{"address3":"Saskoba","state":"Chattisgarh","state_code":"37","district":"Jashpur","district_code":"402","address1":"Pathalgaon","address2":"","latitude":"22.0025","longitude":"83.2788","accuracy":"3"},{"address3":"Palidih","state":"Chattisgarh","state_code":"37","district":"Jashpur","district_code":"402","address1":"Pathalgaon","address2":"","latitude":"22.8004","longitude":"83.8664","accuracy":"4"},{"address3":"Raimer","state":"Chattisgarh","state_code":"37","district":"Jashpur","district_code":"402","address1":"Pathalgaon","address2":"","latitude":"22.0025","longitude":"83.2788","accuracy":"3"},{"address3":"Diwanpur","state":"Chattisgarh","state_code":"37","district":"Jashpur","district_code":"402","address1":"Pathalgaon","address2":"","latitude":"22.0025","longitude":"83.2788","accuracy":"3"},{"address3":"Pakargaon","state":"Chattisgarh","state_code":"37","district":"Jashpur","district_code":"402","address1":"Pathalgaon","address2":"","latitude":"22.0025","longitude":"83.2788","accuracy":"3"}],"496220":[{"address3":"Jamargi","state":"Chattisgarh","state_code":"37","district":"Jashpur","district_code":"402","address1":"Jashpurnagar","address2":"","latitude":"22.4305","longitude":"83.713","accuracy":"3"},{"address3":"Buldega","state":"Chattisgarh","state_code":"37","district":"Jashpur","district_code":"402","address1":"NA","address2":"","latitude":"22.4216","longitude":"83.6861","accuracy":"4"},{"address3":"Chiknipani","state":"Chattisgarh","state_code":"37","district":"Jashpur","district_code":"402","address1":"Jashpurnagar","address2":"","latitude":"22.4305","longitude":"83.713","accuracy":"3"},{"address3":"Ludeg","state":"Chattisgarh","state_code":"37","district":"Jashpur","district_code":"402","address1":"Jashpurnagar","address2":"","latitude":"22.4305","longitude":"83.713","accuracy":"3"},{"address3":"Farsatoli","state":"Chattisgarh","state_code":"37","district":"Jashpur","district_code":"402","address1":"Jashpurnagar","address2":"","latitude":"22.4305","longitude":"83.713","accuracy":"3"},{"address3":"Bahma","state":"Chattisgarh","state_code":"37","district":"Jashpur","district_code":"402","address1":"NA","address2":"","latitude":"22.4305","longitude":"83.713","accuracy":"3"},{"address3":"Bagbahar","state":"Chattisgarh","state_code":"37","district":"Jashpur","district_code":"402","address1":"Jashpurnagar","address2":"","latitude":"22.4305","longitude":"83.713","accuracy":"3"},{"address3":"Kotba","state":"Chattisgarh","state_code":"37","district":"Jashpur","district_code":"402","address1":"Jashpurnagar","address2":"","latitude":"22.4394","longitude":"83.74","accuracy":"4"},{"address3":"Pangsuwa","state":"Chattisgarh","state_code":"37","district":"Jashpur","district_code":"402","address1":"Jashpurnagar","address2":"","latitude":"22.4305","longitude":"83.713","accuracy":"3"},{"address3":"Jamjhor","state":"Chattisgarh","state_code":"37","district":"Jashpur","district_code":"402","address1":"Jashpurnagar","address2":"","latitude":"22.4305","longitude":"83.713","accuracy":"3"},{"address3":"Pandaripani","state":"Chattisgarh","state_code":"37","district":"Jashpur","district_code":"402","address1":"Pathalgaon","address2":"","latitude":"22.4305","longitude":"83.713","accuracy":"3"},{"address3":"Kadro","state":"Chattisgarh","state_code":"37","district":"Jashpur","district_code":"402","address1":"Jashpurnagar","address2":"","latitude":"22.4305","longitude":"83.713","accuracy":"3"},{"address3":"Kolhejharia","state":"Chattisgarh","state_code":"37","district":"Jashpur","district_code":"402","address1":"Jashpurnagar","address2":"","latitude":"22.4305","longitude":"83.713","accuracy":"3"},{"address3":"Kukurbhaka","state":"Chattisgarh","state_code":"37","district":"Jashpur","district_code":"402","address1":"Jashpurnagar","address2":"","latitude":"22.4305","longitude":"83.713","accuracy":"3"},{"address3":"Kokiakhar","state":"Chattisgarh","state_code":"37","district":"Jashpur","district_code":"402","address1":"Jashpurnagar","address2":"","latitude":"22.4305","longitude":"83.713","accuracy":"3"},{"address3":"Kukurgaon","state":"Chattisgarh","state_code":"37","district":"Jashpur","district_code":"402","address1":"Jashpurnagar","address2":"","latitude":"22.4305","longitude":"83.713","accuracy":"3"},{"address3":"Bildegi","state":"Chattisgarh","state_code":"37","district":"Jashpur","district_code":"402","address1":"Jashpurnagar","address2":"","latitude":"22.4305","longitude":"83.713","accuracy":"3"},{"address3":"Sekharpur","state":"Chattisgarh","state_code":"37","district":"Jashpur","district_code":"402","address1":"Jashpurnagar","address2":"","latitude":"22.4305","longitude":"83.713","accuracy":"3"}],"496223":[{"address3":"Pongro","state":"Chattisgarh","state_code":"37","district":"Jashpur","district_code":"402","address1":"Bagicha","address2":"","latitude":"22.6484","longitude":"83.6997","accuracy":"4"},{"address3":"Nariyaradand","state":"Chattisgarh","state_code":"37","district":"Jashpur","district_code":"402","address1":"Bagicha","address2":"","latitude":"22.3403","longitude":"82.6673","accuracy":"3"},{"address3":"Deori","state":"Chattisgarh","state_code":"37","district":"Jashpur","district_code":"402","address1":"Bagicha","address2":"","latitude":"22.8004","longitude":"83.8664","accuracy":"4"},{"address3":"Khutera","state":"Chattisgarh","state_code":"37","district":"Jashpur","district_code":"402","address1":"Bagicha","address2":"","latitude":"22.8004","longitude":"83.8664","accuracy":"4"},{"address3":"Nakbar","state":"Chattisgarh","state_code":"37","district":"Jashpur","district_code":"402","address1":"Bagicha","address2":"","latitude":"22.3403","longitude":"82.6673","accuracy":"3"},{"address3":"Kansabel","state":"Chattisgarh","state_code":"37","district":"Jashpur","district_code":"402","address1":"NA","address2":"","latitude":"22.3403","longitude":"82.6673","accuracy":"3"},{"address3":"Bataikela","state":"Chattisgarh","state_code":"37","district":"Jashpur","district_code":"402","address1":"NA","address2":"","latitude":"22.7285","longitude":"83.7279","accuracy":"4"},{"address3":"Ghoghar","state":"Chattisgarh","state_code":"37","district":"Jashpur","district_code":"402","address1":"NA","address2":"","latitude":"22.3403","longitude":"82.6673","accuracy":"3"},{"address3":"Jumaikela","state":"Chattisgarh","state_code":"37","district":"Jashpur","district_code":"402","address1":"Bagicha","address2":"","latitude":"22.3403","longitude":"82.6673","accuracy":"3"},{"address3":"Sajapani","state":"Chattisgarh","state_code":"37","district":"Jashpur","district_code":"402","address1":"Jashpur","address2":"","latitude":"22.8004","longitude":"83.8664","accuracy":"4"},{"address3":"Kerju","state":"Chattisgarh","state_code":"37","district":"Jashpur","district_code":"402","address1":"NA","address2":"","latitude":"22.3403","longitude":"82.6673","accuracy":"3"},{"address3":"Bandrachuwan","state":"Chattisgarh","state_code":"37","district":"Jashpur","district_code":"402","address1":"NA","address2":"","latitude":"22.3403","longitude":"82.6673","accuracy":"3"},{"address3":"Saraipani","state":"Chattisgarh","state_code":"37","district":"Jashpur","district_code":"402","address1":"Bagicha","address2":"","latitude":"22.8004","longitude":"83.8664","accuracy":"4"},{"address3":"Chheraghoghar","state":"Chattisgarh","state_code":"37","district":"Jashpur","district_code":"402","address1":"Bagicha","address2":"","latitude":"22.3403","longitude":"82.6673","accuracy":"3"},{"address3":"Semarkachar","state":"Chattisgarh","state_code":"37","district":"Jashpur","district_code":"402","address1":"Bagicha","address2":"","latitude":"22.3403","longitude":"82.6673","accuracy":"3"},{"address3":"Chetba","state":"Chattisgarh","state_code":"37","district":"Jashpur","district_code":"402","address1":"Bagicha","address2":"","latitude":"22.3403","longitude":"82.6673","accuracy":"3"},{"address3":"Sangibhawna","state":"Chattisgarh","state_code":"37","district":"Jashpur","district_code":"402","address1":"Bagicha","address2":"","latitude":"22.3403","longitude":"82.6673","accuracy":"3"},{"address3":"Dokra","state":"Chattisgarh","state_code":"37","district":"Jashpur","district_code":"402","address1":"Bagicha","address2":"","latitude":"22.3403","longitude":"82.6673","accuracy":"3"},{"address3":"Chongaribahar","state":"Chattisgarh","state_code":"37","district":"Jashpur","district_code":"402","address1":"Bagicha","address2":"","latitude":"22.3403","longitude":"82.6673","accuracy":"3"}],"496224":[{"address3":"Rengle","state":"Chattisgarh","state_code":"37","district":"Jashpur","district_code":"402","address1":"Bagicha","address2":"","latitude":"22.714","longitude":"83.4738","accuracy":"3"},{"address3":"Bagicha","state":"Chattisgarh","state_code":"37","district":"Jashpur","district_code":"402","address1":"Bagicha","address2":"","latitude":"22.9773","longitude":"83.657","accuracy":"4"},{"address3":"Kurdeg","state":"Chattisgarh","state_code":"37","district":"Jashpur","district_code":"402","address1":"Bagicha","address2":"","latitude":"22.9082","longitude":"83.5826","accuracy":"4"},{"address3":"Bachhraon","state":"Chattisgarh","state_code":"37","district":"Jashpur","district_code":"402","address1":"Bagicha","address2":"","latitude":"22.714","longitude":"83.4738","accuracy":"3"},{"address3":"Karma","state":"Chattisgarh","state_code":"37","district":"Jashpur","district_code":"402","address1":"Bagicha","address2":"","latitude":"22.8004","longitude":"83.8664","accuracy":"4"},{"address3":"Bhitgara","state":"Chattisgarh","state_code":"37","district":"Jashpur","district_code":"402","address1":"Bagicha","address2":"","latitude":"22.714","longitude":"83.4738","accuracy":"3"},{"address3":"Sarabkombo","state":"Chattisgarh","state_code":"37","district":"Jashpur","district_code":"402","address1":"Bagicha","address2":"","latitude":"22.714","longitude":"83.4738","accuracy":"3"},{"address3":"Kurrog","state":"Chattisgarh","state_code":"37","district":"Jashpur","district_code":"402","address1":"Bagicha","address2":"","latitude":"22.714","longitude":"83.4738","accuracy":"3"},{"address3":"Raikera","state":"Chattisgarh","state_code":"37","district":"Jashpur","district_code":"402","address1":"Bagicha","address2":"","latitude":"22.7677","longitude":"84.0212","accuracy":"4"},{"address3":"Durgapara","state":"Chattisgarh","state_code":"37","district":"Jashpur","district_code":"402","address1":"Bagicha","address2":"","latitude":"22.714","longitude":"83.4738","accuracy":"3"},{"address3":"Rauni","state":"Chattisgarh","state_code":"37","district":"Jashpur","district_code":"402","address1":"Bagicha","address2":"","latitude":"22.714","longitude":"83.4738","accuracy":"3"},{"address3":"Jhinki","state":"Chattisgarh","state_code":"37","district":"Jashpur","district_code":"402","address1":"Bagicha","address2":"","latitude":"22.714","longitude":"83.4738","accuracy":"3"},{"address3":"Pasia","state":"Chattisgarh","state_code":"37","district":"Jashpur","district_code":"402","address1":"Bagicha","address2":"","latitude":"22.714","longitude":"83.4738","accuracy":"3"},{"address3":"Marol","state":"Chattisgarh","state_code":"37","district":"Jashpur","district_code":"402","address1":"Bagicha","address2":"","latitude":"22.714","longitude":"83.4738","accuracy":"3"},{"address3":"Pirai","state":"Chattisgarh","state_code":"37","district":"Jashpur","district_code":"402","address1":"Bagicha","address2":"","latitude":"22.714","longitude":"83.4738","accuracy":"3"},{"address3":"Musgutri","state":"Chattisgarh","state_code":"37","district":"Jashpur","district_code":"402","address1":"Bagicha","address2":"","latitude":"22.714","longitude":"83.4738","accuracy":"3"},{"address3":"Bimda","state":"Chattisgarh","state_code":"37","district":"Jashpur","district_code":"402","address1":"Bagicha","address2":"","latitude":"22.714","longitude":"83.4738","accuracy":"3"},{"address3":"Ghughari","state":"Chattisgarh","state_code":"37","district":"Jashpur","district_code":"402","address1":"Bagicha","address2":"","latitude":"22.714","longitude":"83.4738","accuracy":"3"}],"496225":[{"address3":"Narayanpur","state":"Chattisgarh","state_code":"37","district":"Jashpur","district_code":"402","address1":"Kunkuri","address2":"","latitude":"22.8004","longitude":"83.8664","accuracy":"4"},{"address3":"Kandora","state":"Chattisgarh","state_code":"37","district":"Jashpur","district_code":"402","address1":"Kunkuri","address2":"","latitude":"22.7631","longitude":"84.0087","accuracy":"4"},{"address3":"Kurkunga","state":"Chattisgarh","state_code":"37","district":"Jashpur","district_code":"402","address1":"Kunkuri","address2":"","latitude":"22.4656","longitude":"83.7628","accuracy":"3"},{"address3":"Kunjara","state":"Chattisgarh","state_code":"37","district":"Jashpur","district_code":"402","address1":"NA","address2":"","latitude":"22.8004","longitude":"83.8664","accuracy":"4"},{"address3":"Ranpur","state":"Chattisgarh","state_code":"37","district":"Jashpur","district_code":"402","address1":"Kunkuri","address2":"","latitude":"22.8831","longitude":"84.2795","accuracy":"4"},{"address3":"Harradand","state":"Chattisgarh","state_code":"37","district":"Jashpur","district_code":"402","address1":"Kunkuri","address2":"","latitude":"22.4656","longitude":"83.7628","accuracy":"3"},{"address3":"Raikera","state":"Chattisgarh","state_code":"37","district":"Jashpur","district_code":"402","address1":"Kunkuri","address2":"","latitude":"22.7677","longitude":"84.0212","accuracy":"4"},{"address3":"Lodhma","state":"Chattisgarh","state_code":"37","district":"Jashpur","district_code":"402","address1":"Kunkuri","address2":"","latitude":"22.4656","longitude":"83.7628","accuracy":"3"},{"address3":"Kunkuri","state":"Chattisgarh","state_code":"37","district":"Jashpur","district_code":"402","address1":"Jashpurnagar","address2":"","latitude":"22.742","longitude":"83.951","accuracy":"4"},{"address3":"Barangjore","state":"Chattisgarh","state_code":"37","district":"Jashpur","district_code":"402","address1":"NA","address2":"","latitude":"22.4656","longitude":"83.7628","accuracy":"3"},{"address3":"Gorea","state":"Chattisgarh","state_code":"37","district":"Jashpur","district_code":"402","address1":"Kunkuri","address2":"","latitude":"22.4656","longitude":"83.7628","accuracy":"3"},{"address3":"Ginabahar","state":"Chattisgarh","state_code":"37","district":"Jashpur","district_code":"402","address1":"Kunkuri","address2":"","latitude":"22.4656","longitude":"83.7628","accuracy":"3"},{"address3":"Ghatmunda","state":"Chattisgarh","state_code":"37","district":"Jashpur","district_code":"402","address1":"NA","address2":"","latitude":"22.4656","longitude":"83.7628","accuracy":"3"},{"address3":"Kaliba","state":"Chattisgarh","state_code":"37","district":"Jashpur","district_code":"402","address1":"Kunkuri","address2":"","latitude":"22.4656","longitude":"83.7628","accuracy":"3"},{"address3":"Jokbahla","state":"Chattisgarh","state_code":"37","district":"Jashpur","district_code":"402","address1":"Kunkuri","address2":"","latitude":"22.4656","longitude":"83.7628","accuracy":"3"},{"address3":"Behrakhar","state":"Chattisgarh","state_code":"37","district":"Jashpur","district_code":"402","address1":"NA","address2":"","latitude":"22.4656","longitude":"83.7628","accuracy":"3"},{"address3":"Jamchuwan","state":"Chattisgarh","state_code":"37","district":"Jashpur","district_code":"402","address1":"Kunkuri","address2":"","latitude":"22.4656","longitude":"83.7628","accuracy":"3"}],"496227":[{"address3":"Kersai","state":"Chattisgarh","state_code":"37","district":"Jashpur","district_code":"402","address1":"Kunkuri","address2":"","latitude":"22.5901","longitude":"83.9638","accuracy":"4"},{"address3":"Tapkara","state":"Chattisgarh","state_code":"37","district":"Jashpur","district_code":"402","address1":"Kunkuri","address2":"","latitude":"22.5045","longitude":"83.95","accuracy":"4"},{"address3":"Purainbandha","state":"Chattisgarh","state_code":"37","district":"Jashpur","district_code":"402","address1":"Kunkuri","address2":"","latitude":"22.5473","longitude":"83.9569","accuracy":"3"},{"address3":"Jambahar","state":"Chattisgarh","state_code":"37","district":"Jashpur","district_code":"402","address1":"Kunkuri","address2":"","latitude":"22.8004","longitude":"83.8664","accuracy":"3"},{"address3":"Singibahar","state":"Chattisgarh","state_code":"37","district":"Jashpur","district_code":"402","address1":"Kunkuri","address2":"","latitude":"22.5473","longitude":"83.9569","accuracy":"3"},{"address3":"Lathbora","state":"Chattisgarh","state_code":"37","district":"Jashpur","district_code":"402","address1":"Kunkuri","address2":"","latitude":"22.5473","longitude":"83.9569","accuracy":"3"},{"address3":"Kandaibahar","state":"Chattisgarh","state_code":"37","district":"Jashpur","district_code":"402","address1":"Kunkuri","address2":"","latitude":"22.5473","longitude":"83.9569","accuracy":"3"}],"496242":[{"address3":"Bhagora","state":"Chattisgarh","state_code":"37","district":"Jashpur","district_code":"402","address1":"Kunkuri","address2":"","latitude":"22.8004","longitude":"83.8664","accuracy":"4"},{"address3":"Sahaspur","state":"Chattisgarh","state_code":"37","district":"Jashpur","district_code":"402","address1":"Kunkuri","address2":"","latitude":"22.8004","longitude":"83.8664","accuracy":"4"},{"address3":"Khutgaon","state":"Chattisgarh","state_code":"37","district":"Jashpur","district_code":"402","address1":"Kunkuri","address2":"","latitude":"22.7988","longitude":"83.9903","accuracy":"4"},{"address3":"Pandaripani","state":"Chattisgarh","state_code":"37","district":"Jashpur","district_code":"402","address1":"Kunkuri","address2":"","latitude":"22.3075","longitude":"83.0142","accuracy":"3"},{"address3":"Menderbahar","state":"Chattisgarh","state_code":"37","district":"Jashpur","district_code":"402","address1":"Kunkuri","address2":"","latitude":"22.3075","longitude":"83.0142","accuracy":"3"},{"address3":"Farsabahar","state":"Chattisgarh","state_code":"37","district":"Raigarh","district_code":"403","address1":"Kunkuri","address2":"","latitude":"22.3075","longitude":"83.0142","accuracy":"3"}],"496245":[{"address3":"Lawakera","state":"Chattisgarh","state_code":"37","district":"Jashpur","district_code":"402","address1":"Kunkuri","address2":"","latitude":"21.7708","longitude":"81.2376","accuracy":"3"},{"address3":"Konpara","state":"Chattisgarh","state_code":"37","district":"Jashpur","district_code":"402","address1":"Kunkuri","address2":"","latitude":"21.7708","longitude":"81.2376","accuracy":"3"},{"address3":"Dumaria","state":"Chattisgarh","state_code":"37","district":"Jashpur","district_code":"402","address1":"Kunkuri","address2":"","latitude":"22.8004","longitude":"83.8664","accuracy":"4"},{"address3":"Bhelwan","state":"Chattisgarh","state_code":"37","district":"Jashpur","district_code":"402","address1":"Kunkuri","address2":"","latitude":"21.7708","longitude":"81.2376","accuracy":"3"},{"address3":"Tumla","state":"Chattisgarh","state_code":"37","district":"Jashpur","district_code":"402","address1":"Kunkuri","address2":"","latitude":"21.7708","longitude":"81.2376","accuracy":"3"},{"address3":"Basnajhal","state":"Chattisgarh","state_code":"37","district":"Jashpur","district_code":"402","address1":"Kunkuri","address2":"","latitude":"21.7708","longitude":"81.2376","accuracy":"3"},{"address3":"Ankira","state":"Chattisgarh","state_code":"37","district":"Jashpur","district_code":"402","address1":"Kunkuri","address2":"","latitude":"21.7708","longitude":"81.2376","accuracy":"3"}],"496330":[{"address3":"Kesra","state":"Chattisgarh","state_code":"37","district":"Jashpur","district_code":"402","address1":"Jashpurnagar","address2":"","latitude":"22.8394","longitude":"84.0907","accuracy":"4"},{"address3":"Lukhi","state":"Chattisgarh","state_code":"37","district":"Jashpur","district_code":"402","address1":"Jashpurnagar","address2":"","latitude":"23.0632","longitude":"84.1112","accuracy":"4"},{"address3":"Ghaghra","state":"Chattisgarh","state_code":"37","district":"Jashpur","district_code":"402","address1":"Jashpurnagar","address2":"","latitude":"22.8004","longitude":"83.8664","accuracy":"4"},{"address3":"Gajma","state":"Chattisgarh","state_code":"37","district":"Jashpur","district_code":"402","address1":"Jashpurnagar","address2":"","latitude":"23.0654","longitude":"84.0722","accuracy":"4"},{"address3":"Karadari","state":"Chattisgarh","state_code":"37","district":"Jashpur","district_code":"402","address1":"NA","address2":"","latitude":"23.1049","longitude":"83.9789","accuracy":"3"},{"address3":"Asta","state":"Chattisgarh","state_code":"37","district":"Jashpur","district_code":"402","address1":"NA","address2":"","latitude":"23.1049","longitude":"83.9789","accuracy":"3"},{"address3":"Harri","state":"Chattisgarh","state_code":"37","district":"Jashpur","district_code":"402","address1":"Jashpurnagar","address2":"","latitude":"23.118","longitude":"84.0455","accuracy":"4"},{"address3":"Manora (Jashpur)","state":"Chattisgarh","state_code":"37","district":"Jashpur","district_code":"402","address1":"NA","address2":"","latitude":"22.9982","longitude":"84.0528","accuracy":"4"},{"address3":"Bhimsela","state":"Chattisgarh","state_code":"37","district":"Jashpur","district_code":"402","address1":"NA","address2":"","latitude":"23.1049","longitude":"83.9789","accuracy":"3"},{"address3":"Irai","state":"Chattisgarh","state_code":"37","district":"Jashpur","district_code":"402","address1":"Jashpurnagar","address2":"","latitude":"23.1049","longitude":"83.9789","accuracy":"3"}],"496331":[{"address3":"Sitonga","state":"Chattisgarh","state_code":"37","district":"Jashpur","district_code":"402","address1":"Jashpurnagar","address2":"","latitude":"22.8205","longitude":"84.1282","accuracy":"4"},{"address3":"Kharsouna","state":"Chattisgarh","state_code":"37","district":"Jashpur","district_code":"402","address1":"Jashpurnagar","address2":"","latitude":"23.027","longitude":"84.0308","accuracy":"3"},{"address3":"Ichkela","state":"Chattisgarh","state_code":"37","district":"Jashpur","district_code":"402","address1":"NA","address2":"","latitude":"22.8389","longitude":"84.1831","accuracy":"4"},{"address3":"Gamharia","state":"Chattisgarh","state_code":"37","district":"Jashpur","district_code":"402","address1":"Jashpurnagar","address2":"","latitude":"22.8004","longitude":"83.8664","accuracy":"4"},{"address3":"Sogada","state":"Chattisgarh","state_code":"37","district":"Jashpur","district_code":"402","address1":"Jashpurnagar","address2":"","latitude":"23.027","longitude":"84.0308","accuracy":"3"},{"address3":"Jashpurnagar","state":"Chattisgarh","state_code":"37","district":"Jashpur","district_code":"402","address1":"NA","address2":"","latitude":"22.8878","longitude":"84.1386","accuracy":"4"},{"address3":"Arra","state":"Chattisgarh","state_code":"37","district":"Jashpur","district_code":"402","address1":"NA","address2":"","latitude":"23.027","longitude":"84.0308","accuracy":"3"},{"address3":"Kasira","state":"Chattisgarh","state_code":"37","district":"Jashpur","district_code":"402","address1":"NA","address2":"","latitude":"23.027","longitude":"84.0308","accuracy":"3"},{"address3":"Jaria","state":"Chattisgarh","state_code":"37","district":"Jashpur","district_code":"402","address1":"NA","address2":"","latitude":"22.9186","longitude":"84.1324","accuracy":"4"},{"address3":"Kalaru","state":"Chattisgarh","state_code":"37","district":"Jashpur","district_code":"402","address1":"Jashpur","address2":"","latitude":"22.8767","longitude":"84.0447","accuracy":"4"},{"address3":"Komdo","state":"Chattisgarh","state_code":"37","district":"Jashpur","district_code":"402","address1":"Jashpurnagar","address2":"","latitude":"23.027","longitude":"84.0308","accuracy":"3"}],"496334":[{"address3":"Basantala","state":"Chattisgarh","state_code":"37","district":"Jashpur","district_code":"402","address1":"Kunkuri","address2":"","latitude":"22.7383","longitude":"84.1085","accuracy":"3"},{"address3":"Kastura","state":"Chattisgarh","state_code":"37","district":"Jashpur","district_code":"402","address1":"Kunkuri","address2":"","latitude":"22.7364","longitude":"84.1793","accuracy":"4"},{"address3":"Bangurkela","state":"Chattisgarh","state_code":"37","district":"Jashpur","district_code":"402","address1":"Kunkuri","address2":"","latitude":"22.6703","longitude":"84.1459","accuracy":"4"},{"address3":"Simda","state":"Chattisgarh","state_code":"37","district":"Jashpur","district_code":"402","address1":"Kunkuri","address2":"","latitude":"22.7383","longitude":"84.1085","accuracy":"3"},{"address3":"Patratoli","state":"Chattisgarh","state_code":"37","district":"Jashpur","district_code":"402","address1":"Kunkuri","address2":"","latitude":"22.7504","longitude":"84.1197","accuracy":"4"},{"address3":"Makribandha","state":"Chattisgarh","state_code":"37","district":"Jashpur","district_code":"402","address1":"Kunkuri","address2":"","latitude":"22.7383","longitude":"84.1085","accuracy":"3"},{"address3":"Duldula","state":"Chattisgarh","state_code":"37","district":"Jashpur","district_code":"402","address1":"Kunkuri","address2":"","latitude":"22.7128","longitude":"84.1049","accuracy":"4"},{"address3":"Jaikari","state":"Chattisgarh","state_code":"37","district":"Jashpur","district_code":"402","address1":"Kunkuri","address2":"","latitude":"22.7383","longitude":"84.1085","accuracy":"3"},{"address3":"Keradih","state":"Chattisgarh","state_code":"37","district":"Jashpur","district_code":"402","address1":"Kunkuri","address2":"","latitude":"22.8214","longitude":"83.9925","accuracy":"4"},{"address3":"Dandadih","state":"Chattisgarh","state_code":"37","district":"Jashpur","district_code":"402","address1":"Kunkuri","address2":"","latitude":"22.7383","longitude":"84.1085","accuracy":"3"},{"address3":"Charaidand","state":"Chattisgarh","state_code":"37","district":"Jashpur","district_code":"402","address1":"Kunkuri","address2":"","latitude":"22.7383","longitude":"84.1085","accuracy":"3"}],"496336":[{"address3":"Bahora","state":"Chattisgarh","state_code":"37","district":"Jashpur","district_code":"402","address1":"NA","address2":"","latitude":"22.4825","longitude":"83.5795","accuracy":"3"},{"address3":"Kawai","state":"Chattisgarh","state_code":"37","district":"Jashpur","district_code":"402","address1":"Jashpurnagar","address2":"","latitude":"22.4825","longitude":"83.5795","accuracy":"3"},{"address3":"Saraitoli","state":"Chattisgarh","state_code":"37","district":"Jashpur","district_code":"402","address1":"Jashpurnagar","address2":"","latitude":"23.0464","longitude":"84.1082","accuracy":"4"},{"address3":"Dumarkona","state":"Chattisgarh","state_code":"37","district":"Jashpur","district_code":"402","address1":"Jashpurnagar","address2":"","latitude":"22.4825","longitude":"83.5795","accuracy":"3"},{"address3":"Pandrapath","state":"Chattisgarh","state_code":"37","district":"Jashpur","district_code":"402","address1":"NA","address2":"","latitude":"22.8004","longitude":"83.8664","accuracy":"4"},{"address3":"Champakhudia","state":"Chattisgarh","state_code":"37","district":"Jashpur","district_code":"402","address1":"Jashpurnagar","address2":"","latitude":"22.4825","longitude":"83.5795","accuracy":"3"},{"address3":"Sanna","state":"Chattisgarh","state_code":"37","district":"Jashpur","district_code":"402","address1":"Jashpurnagar","address2":"","latitude":"23.1179","longitude":"83.7705","accuracy":"4"},{"address3":"Nanhesar","state":"Chattisgarh","state_code":"37","district":"Jashpur","district_code":"402","address1":"Jashpurnagar","address2":"","latitude":"22.4825","longitude":"83.5795","accuracy":"3"},{"address3":"Dobh","state":"Chattisgarh","state_code":"37","district":"Jashpur","district_code":"402","address1":"Jashpurnagar","address2":"","latitude":"22.4825","longitude":"83.5795","accuracy":"3"},{"address3":"Ekamba","state":"Chattisgarh","state_code":"37","district":"Jashpur","district_code":"402","address1":"NA","address2":"","latitude":"22.4825","longitude":"83.5795","accuracy":"3"},{"address3":"Kamarima","state":"Chattisgarh","state_code":"37","district":"Jashpur","district_code":"402","address1":"Jashpurnagar","address2":"","latitude":"22.4825","longitude":"83.5795","accuracy":"3"},{"address3":"Sulesha","state":"Chattisgarh","state_code":"37","district":"Jashpur","district_code":"402","address1":"Jashpurnagar","address2":"","latitude":"22.4825","longitude":"83.5795","accuracy":"3"},{"address3":"Sonkyari","state":"Chattisgarh","state_code":"37","district":"Jashpur","district_code":"402","address1":"Jashpurnagar","address2":"","latitude":"22.4825","longitude":"83.5795","accuracy":"3"},{"address3":"Sardhapath","state":"Chattisgarh","state_code":"37","district":"Jashpur","district_code":"402","address1":"Jashpurnagar","address2":"","latitude":"22.4825","longitude":"83.5795","accuracy":"3"}],"496338":[{"address3":"Lokhandi","state":"Chattisgarh","state_code":"37","district":"Jashpur","district_code":"402","address1":"NA","address2":"","latitude":"22.8004","longitude":"83.8664","accuracy":"4"},{"address3":"Bada Karonja","state":"Chattisgarh","state_code":"37","district":"Jashpur","district_code":"402","address1":"NA","address2":"","latitude":"22.7872","longitude":"83.834","accuracy":"3"},{"address3":"Gholeng","state":"Chattisgarh","state_code":"37","district":"Jashpur","district_code":"402","address1":"Jashpurnagar","address2":"","latitude":"22.7872","longitude":"83.834","accuracy":"3"},{"address3":"Paiku","state":"Chattisgarh","state_code":"37","district":"Jashpur","district_code":"402","address1":"Jashpurnagar","address2":"","latitude":"22.9983","longitude":"84.1972","accuracy":"4"},{"address3":"Lodam","state":"Chattisgarh","state_code":"37","district":"Jashpur","district_code":"402","address1":"Jashpurnagar","address2":"","latitude":"22.7872","longitude":"83.834","accuracy":"3"},{"address3":"Portenga","state":"Chattisgarh","state_code":"37","district":"Jashpur","district_code":"402","address1":"Jashpurnagar","address2":"","latitude":"22.9136","longitude":"84.3104","accuracy":"4"},{"address3":"Patratoli","state":"Chattisgarh","state_code":"37","district":"Jashpur","district_code":"402","address1":"Jashpurnagar","address2":"","latitude":"22.9833","longitude":"84.1804","accuracy":"4"},{"address3":"Pilkhi","state":"Chattisgarh","state_code":"37","district":"Jashpur","district_code":"402","address1":"Jashpurnagar","address2":"","latitude":"22.9125","longitude":"84.3691","accuracy":"4"}],"496440":[{"address3":"Kondapali","state":"Chattisgarh","state_code":"37","district":"Raigarh","district_code":"403","address1":"Raigarh","address2":"","latitude":"21.7504","longitude":"83.398","accuracy":"3"},{"address3":"Chhincorumaria","state":"Chattisgarh","state_code":"37","district":"Raigarh","district_code":"403","address1":"Raigarh","address2":"","latitude":"21.7504","longitude":"83.398","accuracy":"3"},{"address3":"Netnagar","state":"Chattisgarh","state_code":"37","district":"Raigarh","district_code":"403","address1":"Raigarh","address2":"","latitude":"21.7936","longitude":"83.4559","accuracy":"4"},{"address3":"Badehardi","state":"Chattisgarh","state_code":"37","district":"Raigarh","district_code":"403","address1":"NA","address2":"","latitude":"21.7504","longitude":"83.398","accuracy":"3"},{"address3":"Pussore","state":"Chattisgarh","state_code":"37","district":"Raigarh","district_code":"403","address1":"Raigarh","address2":"","latitude":"21.7587","longitude":"83.3733","accuracy":"4"},{"address3":"Baghadola","state":"Chattisgarh","state_code":"37","district":"Raigarh","district_code":"403","address1":"Raigarh","address2":"","latitude":"21.7602","longitude":"83.4001","accuracy":"4"},{"address3":"Baradoli","state":"Chattisgarh","state_code":"37","district":"Raigarh","district_code":"403","address1":"NA","address2":"","latitude":"21.6999","longitude":"83.3358","accuracy":"4"},{"address3":"Chhapora","state":"Chattisgarh","state_code":"37","district":"Raigarh","district_code":"403","address1":"Raigarh","address2":"","latitude":"21.7692","longitude":"83.4516","accuracy":"4"},{"address3":"Tinmini","state":"Chattisgarh","state_code":"37","district":"Raigarh","district_code":"403","address1":"Raigarh","address2":"","latitude":"21.7187","longitude":"83.3585","accuracy":"4"},{"address3":"Padigaon","state":"Chattisgarh","state_code":"37","district":"Raigarh","district_code":"403","address1":"Raigarh","address2":"","latitude":"21.702","longitude":"83.3881","accuracy":"4"},{"address3":"Rengalpali","state":"Chattisgarh","state_code":"37","district":"Raigarh","district_code":"403","address1":"Raigarh","address2":"","latitude":"21.7668","longitude":"83.4761","accuracy":"4"},{"address3":"Tadola","state":"Chattisgarh","state_code":"37","district":"Raigarh","district_code":"403","address1":"Raigarh","address2":"","latitude":"21.7893","longitude":"83.3708","accuracy":"4"},{"address3":"Kotasura","state":"Chattisgarh","state_code":"37","district":"Raigarh","district_code":"403","address1":"Raigarh","address2":"","latitude":"21.7462","longitude":"83.336","accuracy":"4"},{"address3":"Mahloi","state":"Chattisgarh","state_code":"37","district":"Raigarh","district_code":"403","address1":"Raigarh","address2":"","latitude":"21.7495","longitude":"83.4311","accuracy":"4"}],"496445":[{"address3":"Sahaspani","state":"Chattisgarh","state_code":"37","district":"Raigarh","district_code":"403","address1":"Sarangarh","address2":"","latitude":"21.5598","longitude":"83.1071","accuracy":"3"},{"address3":"Dansara","state":"Chattisgarh","state_code":"37","district":"Raigarh","district_code":"403","address1":"Sarangarh","address2":"","latitude":"21.5843","longitude":"83.1198","accuracy":"4"},{"address3":"Paseed","state":"Chattisgarh","state_code":"37","district":"Raigarh","district_code":"403","address1":"Sarangarh","address2":"","latitude":"21.5598","longitude":"83.1071","accuracy":"3"},{"address3":"Amlipali","state":"Chattisgarh","state_code":"37","district":"Raigarh","district_code":"403","address1":"Sarangarh","address2":"","latitude":"21.4997","longitude":"83.165","accuracy":"4"},{"address3":"Mahuadhodha","state":"Chattisgarh","state_code":"37","district":"Raigarh","district_code":"403","address1":"NA","address2":"","latitude":"21.5598","longitude":"83.1071","accuracy":"3"},{"address3":"Chhind","state":"Chattisgarh","state_code":"37","district":"Raigarh","district_code":"403","address1":"Sarangarh","address2":"","latitude":"21.592","longitude":"83.0038","accuracy":"4"},{"address3":"Kudhari","state":"Chattisgarh","state_code":"37","district":"Raigarh","district_code":"403","address1":"Sarangarh","address2":"","latitude":"21.5598","longitude":"83.1071","accuracy":"3"},{"address3":"Khokhsipali","state":"Chattisgarh","state_code":"37","district":"Raigarh","district_code":"403","address1":"Sarnagarh","address2":"","latitude":"21.5717","longitude":"83.0037","accuracy":"4"},{"address3":"Kedar","state":"Chattisgarh","state_code":"37","district":"Raigarh","district_code":"403","address1":"Sarangarh","address2":"","latitude":"21.5598","longitude":"83.1071","accuracy":"3"},{"address3":"Salar","state":"Chattisgarh","state_code":"37","district":"Raigarh","district_code":"403","address1":"Sarnagarh","address2":"","latitude":"21.5228","longitude":"83.1407","accuracy":"4"},{"address3":"Gonda","state":"Chattisgarh","state_code":"37","district":"Raigarh","district_code":"403","address1":"Sarangarh","address2":"","latitude":"21.5598","longitude":"83.1071","accuracy":"3"},{"address3":"Paraskol","state":"Chattisgarh","state_code":"37","district":"Raigarh","district_code":"403","address1":"Sarangarh","address2":"","latitude":"21.5209","longitude":"83.1819","accuracy":"4"},{"address3":"Godihari","state":"Chattisgarh","state_code":"37","district":"Raigarh","district_code":"403","address1":"Sarangarh","address2":"","latitude":"21.5598","longitude":"83.1071","accuracy":"3"},{"address3":"Kosir","state":"Chattisgarh","state_code":"37","district":"Raigarh","district_code":"403","address1":"Sarangarh","address2":"","latitude":"21.619","longitude":"83.1641","accuracy":"4"},{"address3":"Chhote Lendhra","state":"Chattisgarh","state_code":"37","district":"Raigarh","district_code":"403","address1":"Sarnagarh","address2":"","latitude":"21.5598","longitude":"83.1071","accuracy":"3"},{"address3":"Tamtora","state":"Chattisgarh","state_code":"37","district":"Raigarh","district_code":"403","address1":"Sarnagarh","address2":"","latitude":"21.4436","longitude":"83.0939","accuracy":"4"},{"address3":"Tandipar","state":"Chattisgarh","state_code":"37","district":"Raigarh","district_code":"403","address1":"Sarangarh","address2":"","latitude":"21.5598","longitude":"83.1071","accuracy":"3"},{"address3":"Chantipali","state":"Chattisgarh","state_code":"37","district":"Raigarh","district_code":"403","address1":"NA","address2":"","latitude":"21.575","longitude":"83.2479","accuracy":"4"},{"address3":"Bhadisar","state":"Chattisgarh","state_code":"37","district":"Raigarh","district_code":"403","address1":"NA","address2":"","latitude":"21.5598","longitude":"83.1071","accuracy":"3"},{"address3":"Madhopali","state":"Chattisgarh","state_code":"37","district":"Raigarh","district_code":"403","address1":"Sarangarh","address2":"","latitude":"21.5692","longitude":"83.1516","accuracy":"4"},{"address3":"Rapagula","state":"Chattisgarh","state_code":"37","district":"Raigarh","district_code":"403","address1":"Sarangarh","address2":"","latitude":"21.5598","longitude":"83.1071","accuracy":"3"},{"address3":"Kharri","state":"Chattisgarh","state_code":"37","district":"Raigarh","district_code":"403","address1":"Sarangarh","address2":"","latitude":"21.6196","longitude":"83.1314","accuracy":"4"},{"address3":"Sarangarh","state":"Chattisgarh","state_code":"37","district":"Raigarh","district_code":"403","address1":"NA","address2":"","latitude":"21.5861","longitude":"83.0785","accuracy":"4"},{"address3":"Gatadih","state":"Chattisgarh","state_code":"37","district":"Raigarh","district_code":"403","address1":"Sarangarh","address2":"","latitude":"21.6268","longitude":"83.0515","accuracy":"4"},{"address3":"Kanakbira","state":"Chattisgarh","state_code":"37","district":"Raigarh","district_code":"403","address1":"Sarangarh","address2":"","latitude":"21.4851","longitude":"83.1197","accuracy":"4"},{"address3":"Pahanda","state":"Chattisgarh","state_code":"37","district":"Raigarh","district_code":"403","address1":"Sarangarh","address2":"","latitude":"21.5809","longitude":"82.9532","accuracy":"4"}],"496450":[{"address3":"Pendri","state":"Chattisgarh","state_code":"37","district":"Raigarh","district_code":"403","address1":"Sarangarh","address2":"","latitude":"22.0858","longitude":"83.306","accuracy":"4"},{"address3":"Mudpar","state":"Chattisgarh","state_code":"37","district":"Raigarh","district_code":"403","address1":"Sarnagarh","address2":"","latitude":"22.0858","longitude":"83.306","accuracy":"4"},{"address3":"Badegantuli`","state":"Chattisgarh","state_code":"37","district":"Raigarh","district_code":"403","address1":"Sarangarh","address2":"","latitude":"21.8246","longitude":"83.0437","accuracy":"3"},{"address3":"Kapisda","state":"Chattisgarh","state_code":"37","district":"Raigarh","district_code":"403","address1":"Sarangarh","address2":"","latitude":"21.6469","longitude":"83.17","accuracy":"4"},{"address3":"Jewra","state":"Chattisgarh","state_code":"37","district":"Raigarh","district_code":"403","address1":"Sarangarh","address2":"","latitude":"22.0858","longitude":"83.306","accuracy":"4"},{"address3":"Bhedwan","state":"Chattisgarh","state_code":"37","district":"Raigarh","district_code":"403","address1":"NA","address2":"","latitude":"21.8246","longitude":"83.0437","accuracy":"3"},{"address3":"Uchbhitti","state":"Chattisgarh","state_code":"37","district":"Raigarh","district_code":"403","address1":"Sarangarh","address2":"","latitude":"21.8246","longitude":"83.0437","accuracy":"3"},{"address3":"Bhothli","state":"Chattisgarh","state_code":"37","district":"Raigarh","district_code":"403","address1":"NA","address2":"","latitude":"21.6984","longitude":"83.1305","accuracy":"4"},{"address3":"Jashpur","state":"Chattisgarh","state_code":"37","district":"Raigarh","district_code":"403","address1":"Sarangarh","address2":"","latitude":"22.0858","longitude":"83.306","accuracy":"4"},{"address3":"Godam","state":"Chattisgarh","state_code":"37","district":"Raigarh","district_code":"403","address1":"Sarangarh","address2":"","latitude":"21.8246","longitude":"83.0437","accuracy":"3"},{"address3":"Reda","state":"Chattisgarh","state_code":"37","district":"Raigarh","district_code":"403","address1":"NA","address2":"","latitude":"22.0858","longitude":"83.306","accuracy":"4"},{"address3":"Kotri","state":"Chattisgarh","state_code":"37","district":"Raigarh","district_code":"403","address1":"Sarangarh","address2":"","latitude":"21.6181","longitude":"83.0836","accuracy":"4"},{"address3":"Gudeli","state":"Chattisgarh","state_code":"37","district":"Raigarh","district_code":"403","address1":"Sarangarh","address2":"","latitude":"21.8246","longitude":"83.0437","accuracy":"3"},{"address3":"Hardi (Raigarh)","state":"Chattisgarh","state_code":"37","district":"Raigarh","district_code":"403","address1":"Sarangarh","address2":"","latitude":"21.6433","longitude":"83.1071","accuracy":"4"},{"address3":"Navrangpur","state":"Chattisgarh","state_code":"37","district":"Raigarh","district_code":"403","address1":"Sarangarh","address2":"","latitude":"21.8246","longitude":"83.0437","accuracy":"3"},{"address3":"Timarlaga","state":"Chattisgarh","state_code":"37","district":"Raigarh","district_code":"403","address1":"NA","address2":"","latitude":"21.696","longitude":"83.2008","accuracy":"4"},{"address3":"Chhte Khaira","state":"Chattisgarh","state_code":"37","district":"Raigarh","district_code":"403","address1":"Sarangarh","address2":"","latitude":"21.8246","longitude":"83.0437","accuracy":"3"},{"address3":"Dahida","state":"Chattisgarh","state_code":"37","district":"Raigarh","district_code":"403","address1":"Sarangarh","address2":"","latitude":"21.7273","longitude":"83.0199","accuracy":"4"},{"address3":"Ulkhar","state":"Chattisgarh","state_code":"37","district":"Raigarh","district_code":"403","address1":"Sarangarh","address2":"","latitude":"21.6608","longitude":"83.0746","accuracy":"4"}],"496551":[{"address3":"Faraswani","state":"Chattisgarh","state_code":"37","district":"Raigarh","district_code":"403","address1":"Sarangarh","address2":"","latitude":"21.5264","longitude":"83.2427","accuracy":"3"},{"address3":"Katangpali","state":"Chattisgarh","state_code":"37","district":"Raigarh","district_code":"403","address1":"Sarangarh","address2":"","latitude":"21.6474","longitude":"83.2803","accuracy":"4"},{"address3":"Damdama","state":"Chattisgarh","state_code":"37","district":"Raigarh","district_code":"403","address1":"Sarangarh","address2":"","latitude":"21.4505","longitude":"83.3268","accuracy":"4"},{"address3":"Amjhar","state":"Chattisgarh","state_code":"37","district":"Raigarh","district_code":"403","address1":"Sarangarh","address2":"","latitude":"21.6106","longitude":"83.1739","accuracy":"4"},{"address3":"Jhal","state":"Chattisgarh","state_code":"37","district":"Raigarh","district_code":"403","address1":"Saramgarh","address2":"","latitude":"21.3821","longitude":"83.287","accuracy":"4"},{"address3":"Karanpali","state":"Chattisgarh","state_code":"37","district":"Raigarh","district_code":"403","address1":"Sarangarh","address2":"","latitude":"21.4749","longitude":"83.2297","accuracy":"4"},{"address3":"Hattapali","state":"Chattisgarh","state_code":"37","district":"Raigarh","district_code":"403","address1":"Sarangarh","address2":"","latitude":"21.4167","longitude":"83.2368","accuracy":"4"},{"address3":"Baramkela","state":"Chattisgarh","state_code":"37","district":"Raigarh","district_code":"403","address1":"Sarangarh","address2":"","latitude":"21.5649","longitude":"83.2611","accuracy":"4"},{"address3":"Dongripali","state":"Chattisgarh","state_code":"37","district":"Raigarh","district_code":"403","address1":"Sarangarh","address2":"","latitude":"21.4037","longitude":"83.3209","accuracy":"4"},{"address3":"Lodhia","state":"Chattisgarh","state_code":"37","district":"Raigarh","district_code":"403","address1":"Sarangarh","address2":"","latitude":"21.5953","longitude":"83.2703","accuracy":"4"},{"address3":"Dabhra","state":"Chattisgarh","state_code":"37","district":"Raigarh","district_code":"403","address1":"Sarangarh","address2":"","latitude":"21.5975","longitude":"83.261","accuracy":"4"},{"address3":"Bengchi","state":"Chattisgarh","state_code":"37","district":"Raigarh","district_code":"403","address1":"Sarangarh","address2":"","latitude":"21.5377","longitude":"83.2651","accuracy":"4"},{"address3":"Birnipali","state":"Chattisgarh","state_code":"37","district":"Raigarh","district_code":"403","address1":"Sarangarh","address2":"","latitude":"21.3523","longitude":"83.373","accuracy":"4"},{"address3":"Hirri","state":"Chattisgarh","state_code":"37","district":"Raigarh","district_code":"403","address1":"Sarangarh","address2":"","latitude":"21.6561","longitude":"83.1396","accuracy":"4"},{"address3":"Tausir","state":"Chattisgarh","state_code":"37","district":"Raigarh","district_code":"403","address1":"Sarangarh","address2":"","latitude":"21.5264","longitude":"83.2427","accuracy":"3"},{"address3":"Malda","state":"Chattisgarh","state_code":"37","district":"Raigarh","district_code":"403","address1":"Sarangarh","address2":"","latitude":"21.5658","longitude":"83.1853","accuracy":"4"},{"address3":"Lendhra","state":"Chattisgarh","state_code":"37","district":"Raigarh","district_code":"403","address1":"Sarangarh","address2":"","latitude":"21.6404","longitude":"83.0302","accuracy":"4"}],"496554":[{"address3":"Rissora","state":"Chattisgarh","state_code":"37","district":"Raigarh","district_code":"403","address1":"Sarangarh","address2":"","latitude":"21.6564","longitude":"83.3585","accuracy":"3"},{"address3":"Bar","state":"Chattisgarh","state_code":"37","district":"Raigarh","district_code":"403","address1":"NA","address2":"","latitude":"21.6069","longitude":"83.3053","accuracy":"4"},{"address3":"Badenawapara","state":"Chattisgarh","state_code":"37","district":"Raigarh","district_code":"403","address1":"Sarangarh","address2":"","latitude":"21.6564","longitude":"83.3585","accuracy":"3"},{"address3":"Manikpur","state":"Chattisgarh","state_code":"37","district":"Raigarh","district_code":"403","address1":"Sarangarh","address2":"","latitude":"21.6857","longitude":"83.2475","accuracy":"4"},{"address3":"Gobersingha","state":"Chattisgarh","state_code":"37","district":"Raigarh","district_code":"403","address1":"Sarangarh","address2":"","latitude":"21.6564","longitude":"83.3585","accuracy":"3"},{"address3":"Sankra","state":"Chattisgarh","state_code":"37","district":"Raigarh","district_code":"403","address1":"Sarangarh","address2":"","latitude":"21.6236","longitude":"83.4596","accuracy":"4"},{"address3":"Barpali","state":"Chattisgarh","state_code":"37","district":"Raigarh","district_code":"403","address1":"NA","address2":"","latitude":"21.6169","longitude":"83.3354","accuracy":"4"},{"address3":"Salheona","state":"Chattisgarh","state_code":"37","district":"Raigarh","district_code":"403","address1":"Sarangarh","address2":"","latitude":"21.8485","longitude":"83.5108","accuracy":"4"},{"address3":"Bonda","state":"Chattisgarh","state_code":"37","district":"Raigarh","district_code":"403","address1":"NA","address2":"","latitude":"21.6469","longitude":"83.2988","accuracy":"4"},{"address3":"Panchdhar","state":"Chattisgarh","state_code":"37","district":"Raigarh","district_code":"403","address1":"Sarangarh","address2":"","latitude":"21.6451","longitude":"83.3427","accuracy":"4"},{"address3":"Deogaon","state":"Chattisgarh","state_code":"37","district":"Raigarh","district_code":"403","address1":"Sarangarh","address2":"","latitude":"21.5865","longitude":"83.3127","accuracy":"4"},{"address3":"Nadigaon","state":"Chattisgarh","state_code":"37","district":"Raigarh","district_code":"403","address1":"NA","address2":"","latitude":"21.6781","longitude":"83.3679","accuracy":"4"},{"address3":"Lukapara","state":"Chattisgarh","state_code":"37","district":"Raigarh","district_code":"403","address1":"Sarangarh","address2":"","latitude":"21.6423","longitude":"83.3993","accuracy":"4"},{"address3":"Saria","state":"Chattisgarh","state_code":"37","district":"Raigarh","district_code":"403","address1":"Saria","address2":"","latitude":"21.6401","longitude":"83.3631","accuracy":"4"}],"496661":[{"address3":"Jaimura","state":"Chattisgarh","state_code":"37","district":"Raigarh","district_code":"403","address1":"Raigarh","address2":"","latitude":"21.9282","longitude":"83.2112","accuracy":"4"},{"address3":"Halahuli","state":"Chattisgarh","state_code":"37","district":"Raigarh","district_code":"403","address1":"Raigarh","address2":"","latitude":"21.9729","longitude":"83.0485","accuracy":"4"},{"address3":"Pamgarh","state":"Chattisgarh","state_code":"37","district":"Raigarh","district_code":"403","address1":"Raigarh","address2":"","latitude":"22.0858","longitude":"83.306","accuracy":"4"},{"address3":"Nawapara","state":"Chattisgarh","state_code":"37","district":"Raigarh","district_code":"403","address1":"Raigarh","address2":"","latitude":"21.8763","longitude":"83.2106","accuracy":"4"},{"address3":"Madanpur","state":"Chattisgarh","state_code":"37","district":"Raigarh","district_code":"403","address1":"NA","address2":"","latitude":"22.0858","longitude":"83.306","accuracy":"4"},{"address3":"Ghaghra","state":"Chattisgarh","state_code":"37","district":"Raigarh","district_code":"403","address1":"Raigarh","address2":"","latitude":"21.9823","longitude":"83.0683","accuracy":"4"},{"address3":"Sarwani","state":"Chattisgarh","state_code":"37","district":"Raigarh","district_code":"403","address1":"Raigarh","address2":"","latitude":"21.8532","longitude":"83.1896","accuracy":"4"},{"address3":"Dongitarai","state":"Chattisgarh","state_code":"37","district":"Raigarh","district_code":"403","address1":"Raigarh","address2":"","latitude":"21.9409","longitude":"83.2736","accuracy":"4"},{"address3":"Anjoripali","state":"Chattisgarh","state_code":"37","district":"Raigarh","district_code":"403","address1":"NA","address2":"","latitude":"21.972","longitude":"83.1032","accuracy":"4"},{"address3":"Bhainapara","state":"Chattisgarh","state_code":"37","district":"Raigarh","district_code":"403","address1":"NA","address2":"","latitude":"21.95","longitude":"83.1215","accuracy":"4"},{"address3":"Purena","state":"Chattisgarh","state_code":"37","district":"Raigarh","district_code":"403","address1":"Raigarh","address2":"","latitude":"21.974","longitude":"83.0345","accuracy":"4"},{"address3":"Chhodamines","state":"Chattisgarh","state_code":"37","district":"Raigarh","district_code":"403","address1":"Raigarh","address2":"","latitude":"21.9536","longitude":"83.1557","accuracy":"3"},{"address3":"Kondtarai","state":"Chattisgarh","state_code":"37","district":"Raigarh","district_code":"403","address1":"Raigarh","address2":"","latitude":"21.9558","longitude":"83.2768","accuracy":"4"},{"address3":"Botalda","state":"Chattisgarh","state_code":"37","district":"Raigarh","district_code":"403","address1":"NA","address2":"","latitude":"21.9536","longitude":"83.1557","accuracy":"3"},{"address3":"Patrapali","state":"Chattisgarh","state_code":"37","district":"Raigarh","district_code":"403","address1":"Raigarh","address2":"","latitude":"21.9218","longitude":"83.3749","accuracy":"4"},{"address3":"Tiur","state":"Chattisgarh","state_code":"37","district":"Raigarh","district_code":"403","address1":"Raigarh","address2":"","latitude":"21.9536","longitude":"83.1557","accuracy":"3"},{"address3":"Kachhar","state":"Chattisgarh","state_code":"37","district":"Raigarh","district_code":"403","address1":"Raigarh","address2":"","latitude":"21.9207","longitude":"83.2377","accuracy":"4"},{"address3":"Robrertson","state":"Chattisgarh","state_code":"37","district":"Raigarh","district_code":"403","address1":"Raigarh","address2":"","latitude":"21.9536","longitude":"83.1557","accuracy":"3"},{"address3":"Kharsia","state":"Chattisgarh","state_code":"37","district":"Raigarh","district_code":"403","address1":"Kharsia","address2":"","latitude":"21.9895","longitude":"83.1048","accuracy":"4"},{"address3":"Mahuwapali","state":"Chattisgarh","state_code":"37","district":"Raigarh","district_code":"403","address1":"Raigarh","address2":"","latitude":"21.9536","longitude":"83.1557","accuracy":"3"},{"address3":"Telikot","state":"Chattisgarh","state_code":"37","district":"Raigarh","district_code":"403","address1":"Raigarh","address2":"","latitude":"22.0009","longitude":"83.099","accuracy":"4"},{"address3":"Jharadih","state":"Chattisgarh","state_code":"37","district":"Raigarh","district_code":"403","address1":"Raigarh","address2":"","latitude":"21.9536","longitude":"83.1557","accuracy":"3"},{"address3":"Aurda","state":"Chattisgarh","state_code":"37","district":"Raigarh","district_code":"403","address1":"NA","address2":"","latitude":"21.8071","longitude":"83.3952","accuracy":"4"},{"address3":"Bade Deogaon","state":"Chattisgarh","state_code":"37","district":"Raigarh","district_code":"403","address1":"NA","address2":"","latitude":"21.9536","longitude":"83.1557","accuracy":"3"},{"address3":"Sondka","state":"Chattisgarh","state_code":"37","district":"Raigarh","district_code":"403","address1":"Raigarh","address2":"","latitude":"21.9273","longitude":"83.193","accuracy":"4"},{"address3":"Dhimani","state":"Chattisgarh","state_code":"37","district":"Raigarh","district_code":"403","address1":"NA","address2":"","latitude":"22.0858","longitude":"83.306","accuracy":"4"},{"address3":"Naharpali","state":"Chattisgarh","state_code":"37","district":"Raigarh","district_code":"403","address1":"Raigarh","address2":"","latitude":"21.9983","longitude":"83.231","accuracy":"4"},{"address3":"Bhupdeopur","state":"Chattisgarh","state_code":"37","district":"Raigarh","district_code":"403","address1":"NA","address2":"","latitude":"21.9284","longitude":"83.331","accuracy":"4"},{"address3":"Mura","state":"Chattisgarh","state_code":"37","district":"Raigarh","district_code":"403","address1":"Raigarh","address2":"","latitude":"21.9499","longitude":"83.2162","accuracy":"4"},{"address3":"Binjkot","state":"Chattisgarh","state_code":"37","district":"Raigarh","district_code":"403","address1":"Raigarh","address2":"","latitude":"21.8279","longitude":"83.4495","accuracy":"4"},{"address3":"Kunkuni","state":"Chattisgarh","state_code":"37","district":"Raigarh","district_code":"403","address1":"Raigarh","address2":"","latitude":"21.9821","longitude":"83.1635","accuracy":"4"},{"address3":"Basnajhar","state":"Chattisgarh","state_code":"37","district":"Raigarh","district_code":"403","address1":"NA","address2":"","latitude":"21.9448","longitude":"83.1613","accuracy":"4"}],"496665":[{"address3":"Banhar","state":"Chattisgarh","state_code":"37","district":"Raigarh","district_code":"403","address1":"NA","address2":"","latitude":"21.9102","longitude":"83.2985","accuracy":"4"},{"address3":"Gurda","state":"Chattisgarh","state_code":"37","district":"Raigarh","district_code":"403","address1":"Dharmajaigarh","address2":"","latitude":"22.0486","longitude":"83.1469","accuracy":"4"},{"address3":"Bangursia","state":"Chattisgarh","state_code":"37","district":"Raigarh","district_code":"403","address1":"Udaipur (Dharamjaigarh)","address2":"","latitude":"22.0468","longitude":"83.049","accuracy":"3"},{"address3":"Chhal","state":"Chattisgarh","state_code":"37","district":"Raigarh","district_code":"403","address1":"NA","address2":"","latitude":"22.1283","longitude":"83.1162","accuracy":"4"},{"address3":"Barra","state":"Chattisgarh","state_code":"37","district":"Raigarh","district_code":"403","address1":"Kharsia","address2":"","latitude":"22.0858","longitude":"83.306","accuracy":"4"},{"address3":"Karaipali","state":"Chattisgarh","state_code":"37","district":"Raigarh","district_code":"403","address1":"Dharmajaigarh","address2":"","latitude":"22.0468","longitude":"83.049","accuracy":"3"},{"address3":"Khamhar","state":"Chattisgarh","state_code":"37","district":"Raigarh","district_code":"403","address1":"Udaipur (Dharamjaigarh)","address2":"","latitude":"22.0468","longitude":"83.049","accuracy":"3"},{"address3":"Nawapara","state":"Chattisgarh","state_code":"37","district":"Raigarh","district_code":"403","address1":"Dharmajaigarh","address2":"","latitude":"22.0023","longitude":"83.0711","accuracy":"4"},{"address3":"Jobi","state":"Chattisgarh","state_code":"37","district":"Raigarh","district_code":"403","address1":"Dharmajaigarh","address2":"","latitude":"22.0468","longitude":"83.049","accuracy":"3"},{"address3":"Nagoi","state":"Chattisgarh","state_code":"37","district":"Raigarh","district_code":"403","address1":"Dharmajaigarh","address2":"","latitude":"22.0858","longitude":"83.306","accuracy":"4"},{"address3":"Kudekela","state":"Chattisgarh","state_code":"37","district":"Raigarh","district_code":"403","address1":"Udaipur (Dharamjaigarh)","address2":"","latitude":"22.0468","longitude":"83.049","accuracy":"3"},{"address3":"Gorpar","state":"Chattisgarh","state_code":"37","district":"Raigarh","district_code":"403","address1":"Dharmajaigarh","address2":"","latitude":"22.0468","longitude":"83.049","accuracy":"3"},{"address3":"Pusalda","state":"Chattisgarh","state_code":"37","district":"Raigarh","district_code":"403","address1":"NA","address2":"","latitude":"21.7764","longitude":"83.293","accuracy":"4"},{"address3":"Farkanara","state":"Chattisgarh","state_code":"37","district":"Raigarh","district_code":"403","address1":"Dharmajaigarh","address2":"","latitude":"22.0468","longitude":"83.049","accuracy":"3"},{"address3":"Relo","state":"Chattisgarh","state_code":"37","district":"Raigarh","district_code":"403","address1":"Udaipur (Dharamjaigarh)","address2":"","latitude":"22.0468","longitude":"83.049","accuracy":"3"},{"address3":"Dehjari","state":"Chattisgarh","state_code":"37","district":"Raigarh","district_code":"403","address1":"Dharmajaigarh","address2":"","latitude":"22.0468","longitude":"83.049","accuracy":"3"},{"address3":"Chandrasekharpur","state":"Chattisgarh","state_code":"37","district":"Raigarh","district_code":"403","address1":"Udaipur (Dharamjaigarh)","address2":"","latitude":"22.0468","longitude":"83.049","accuracy":"3"},{"address3":"Bojia","state":"Chattisgarh","state_code":"37","district":"Raigarh","district_code":"403","address1":"Udaipur (Dharamjaigarh)","address2":"","latitude":"22.0468","longitude":"83.049","accuracy":"3"},{"address3":"Barbhouna","state":"Chattisgarh","state_code":"37","district":"Raigarh","district_code":"403","address1":"Kharsia","address2":"","latitude":"22.0468","longitude":"83.049","accuracy":"3"}],"credits":[{"name":"geonames","url":"https://www.geonames.org"}],"last_update":"2019-03-01T09:01:39.975Z"}