{"523001":[{"address3":"Ongole H.O","state":"Andhra Pradesh","state_code":"02","district":"Prakasam","district_code":"549","address1":"Ongole","address2":"","latitude":"15.5222","longitude":"79.6251","accuracy":"1"},{"address3":"Thurupupalem","state":"Andhra Pradesh","state_code":"02","district":"Prakasam","district_code":"549","address1":"Ongole","address2":"","latitude":"15.5222","longitude":"79.6251","accuracy":"1"},{"address3":"Ongole Bazar","state":"Andhra Pradesh","state_code":"02","district":"Prakasam","district_code":"549","address1":"Ongole","address2":"","latitude":"15.5222","longitude":"79.6251","accuracy":"1"},{"address3":"N.S.C Colony (O)","state":"Andhra Pradesh","state_code":"02","district":"Prakasam","district_code":"549","address1":"Ongole","address2":"","latitude":"15.5222","longitude":"79.6251","accuracy":"1"},{"address3":"Seetharamapuram (O)","state":"Andhra Pradesh","state_code":"02","district":"Prakasam","district_code":"549","address1":"Ongole","address2":"","latitude":"15.5222","longitude":"79.6251","accuracy":"1"},{"address3":"Santhapeta (O)","state":"Andhra Pradesh","state_code":"02","district":"Prakasam","district_code":"549","address1":"Ongole","address2":"","latitude":"15.5222","longitude":"79.6251","accuracy":"1"},{"address3":"Ramnagar(O)","state":"Andhra Pradesh","state_code":"02","district":"Prakasam","district_code":"549","address1":"Ongole","address2":"","latitude":"15.5222","longitude":"79.6251","accuracy":"1"},{"address3":"Prakasam Bhavan","state":"Andhra Pradesh","state_code":"02","district":"Prakasam","district_code":"549","address1":"Ongole","address2":"","latitude":"15.5222","longitude":"79.6251","accuracy":"1"},{"address3":"Gopala Nagar (O)","state":"Andhra Pradesh","state_code":"02","district":"Prakasam","district_code":"549","address1":"Ongole","address2":"","latitude":"15.5222","longitude":"79.6251","accuracy":"1"},{"address3":"Dcp(O)","state":"Andhra Pradesh","state_code":"02","district":"Prakasam","district_code":"549","address1":"Ongole","address2":"","latitude":"15.5222","longitude":"79.6251","accuracy":"1"},{"address3":"Addanki Gate","state":"Andhra Pradesh","state_code":"02","district":"Prakasam","district_code":"549","address1":"Ongole","address2":"","latitude":"15.5222","longitude":"79.6251","accuracy":"1"}],"523002":[{"address3":"Lawyer Pet (O)","state":"Andhra Pradesh","state_code":"02","district":"Prakasam","district_code":"549","address1":"Ongole","address2":"","latitude":"15.5222","longitude":"79.6251","accuracy":"1"},{"address3":"M.M.Donka (O)","state":"Andhra Pradesh","state_code":"02","district":"Prakasam","district_code":"549","address1":"Ongole","address2":"","latitude":"15.5222","longitude":"79.6251","accuracy":"1"},{"address3":"Kurnool Road (O)","state":"Andhra Pradesh","state_code":"02","district":"Prakasam","district_code":"549","address1":"Ongole","address2":"","latitude":"15.5222","longitude":"79.6251","accuracy":"1"}],"523101":[{"address3":"Palukur","state":"Andhra Pradesh","state_code":"02","district":"Prakasam","district_code":"549","address1":"Kandukur","address2":"","latitude":"16.128","longitude":"79.5425","accuracy":"4"},{"address3":"Oguru","state":"Andhra Pradesh","state_code":"02","district":"Prakasam","district_code":"549","address1":"Kandukur","address2":"","latitude":"15.2271","longitude":"79.9537","accuracy":"4"},{"address3":"Paluru","state":"Andhra Pradesh","state_code":"02","district":"Prakasam","district_code":"549","address1":"Kandukur H.O","address2":"","latitude":"15.1461","longitude":"79.9397","accuracy":"4"},{"address3":"Kalikavayabitragunta","state":"Andhra Pradesh","state_code":"02","district":"Prakasam","district_code":"549","address1":"Kandukur","address2":"","latitude":"15.3863","longitude":"79.8154","accuracy":"3"},{"address3":"Mahadevapuram","state":"Andhra Pradesh","state_code":"02","district":"Prakasam","district_code":"549","address1":"Kandukur","address2":"","latitude":"15.2404","longitude":"79.9322","accuracy":"4"},{"address3":"Kalikavaya","state":"Andhra Pradesh","state_code":"02","district":"Prakasam","district_code":"549","address1":"Kandukur","address2":"","latitude":"15.3863","longitude":"79.8154","accuracy":"3"},{"address3":"Pakala","state":"Andhra Pradesh","state_code":"02","district":"Prakasam","district_code":"549","address1":"Kandukur","address2":"","latitude":"15.2763","longitude":"80.0749","accuracy":"4"},{"address3":"Kanumalla","state":"Andhra Pradesh","state_code":"02","district":"Prakasam","district_code":"549","address1":"Kandukur","address2":"","latitude":"15.3863","longitude":"79.8154","accuracy":"3"},{"address3":"Nandanavanam","state":"Andhra Pradesh","state_code":"02","district":"Prakasam","district_code":"549","address1":"Kandukur","address2":"","latitude":"15.4705","longitude":"79.2743","accuracy":"4"},{"address3":"Old Singarayakonda","state":"Andhra Pradesh","state_code":"02","district":"Prakasam","district_code":"549","address1":"Kandukur","address2":"","latitude":"15.3863","longitude":"79.8154","accuracy":"3"},{"address3":"Sanampudi","state":"Andhra Pradesh","state_code":"02","district":"Prakasam","district_code":"549","address1":"Kandukur","address2":"","latitude":"15.2158","longitude":"79.9907","accuracy":"4"},{"address3":"Somarajupalli","state":"Andhra Pradesh","state_code":"02","district":"Prakasam","district_code":"549","address1":"Kandukur","address2":"","latitude":"15.3863","longitude":"79.8154","accuracy":"3"},{"address3":"Vikkirallapeta","state":"Andhra Pradesh","state_code":"02","district":"Prakasam","district_code":"549","address1":"Kandukur","address2":"","latitude":"15.3863","longitude":"79.8154","accuracy":"3"},{"address3":"M L Engg. College","state":"Andhra Pradesh","state_code":"02","district":"Prakasam","district_code":"549","address1":"Kandukur","address2":"","latitude":"15.3863","longitude":"79.8154","accuracy":"3"},{"address3":"Kondikandukur","state":"Andhra Pradesh","state_code":"02","district":"Prakasam","district_code":"549","address1":"Kandukur","address2":"","latitude":"15.3863","longitude":"79.8154","accuracy":"3"},{"address3":"Ananandapuram","state":"Andhra Pradesh","state_code":"02","district":"Prakasam","district_code":"549","address1":"Kandukur","address2":"","latitude":"15.3863","longitude":"79.8154","accuracy":"3"},{"address3":"S.Konda","state":"Andhra Pradesh","state_code":"02","district":"Prakasam","district_code":"549","address1":"Kandukur","address2":"","latitude":"15.3863","longitude":"79.8154","accuracy":"3"}],"523104":[{"address3":"Binginapalli","state":"Andhra Pradesh","state_code":"02","district":"Prakasam","district_code":"549","address1":"Kandukur","address2":"","latitude":"15.2096","longitude":"79.7173","accuracy":"1"},{"address3":"Woollapalem","state":"Andhra Pradesh","state_code":"02","district":"Prakasam","district_code":"549","address1":"Kandukur","address2":"","latitude":"15.2096","longitude":"79.7173","accuracy":"1"}],"523105":[{"address3":"Kandukur H.O","state":"Andhra Pradesh","state_code":"02","district":"Prakasam","district_code":"549","address1":"Kandukur","address2":"","latitude":"15.2096","longitude":"79.7173","accuracy":"1"},{"address3":"Kandukur South","state":"Andhra Pradesh","state_code":"02","district":"Prakasam","district_code":"549","address1":"Kandukur","address2":"","latitude":"15.2096","longitude":"79.7173","accuracy":"1"},{"address3":"Kandukur Cutchery","state":"Andhra Pradesh","state_code":"02","district":"Prakasam","district_code":"549","address1":"Kandukur","address2":"","latitude":"15.2096","longitude":"79.7173","accuracy":"1"}],"523108":[{"address3":"Venkatapuram","state":"Andhra Pradesh","state_code":"02","district":"Prakasam","district_code":"549","address1":"Kanigiri","address2":"","latitude":"15.1187","longitude":"79.391","accuracy":"4"},{"address3":"Kattakindipalli","state":"Andhra Pradesh","state_code":"02","district":"Prakasam","district_code":"549","address1":"Kanigiri","address2":"","latitude":"15.6213","longitude":"79.5158","accuracy":"4"},{"address3":"Bukkapuram","state":"Andhra Pradesh","state_code":"02","district":"Prakasam","district_code":"549","address1":"Kanigiri","address2":"","latitude":"15.131","longitude":"79.3477","accuracy":"4"},{"address3":"Pamur","state":"Andhra Pradesh","state_code":"02","district":"Prakasam","district_code":"549","address1":"Kanigiri","address2":"","latitude":"15.0057","longitude":"79.3513","accuracy":"3"},{"address3":"Vangapadu","state":"Andhra Pradesh","state_code":"02","district":"Prakasam","district_code":"549","address1":"Kanigiri","address2":"","latitude":"15.2396","longitude":"79.3752","accuracy":"4"},{"address3":"Pedarajupalem","state":"Andhra Pradesh","state_code":"02","district":"Prakasam","district_code":"549","address1":"Kanigiri","address2":"","latitude":"15.0057","longitude":"79.3513","accuracy":"3"},{"address3":"Dubagunta","state":"Andhra Pradesh","state_code":"02","district":"Prakasam","district_code":"549","address1":"Kanigiri","address2":"","latitude":"15.1101","longitude":"79.3678","accuracy":"4"},{"address3":"Naddimallapuram","state":"Andhra Pradesh","state_code":"02","district":"Prakasam","district_code":"549","address1":"Kanigiri","address2":"","latitude":"15.0057","longitude":"79.3513","accuracy":"3"},{"address3":"Narramarella","state":"Andhra Pradesh","state_code":"02","district":"Prakasam","district_code":"549","address1":"Kanigiri","address2":"","latitude":"15.1412","longitude":"79.4412","accuracy":"4"},{"address3":"Guravajipet","state":"Andhra Pradesh","state_code":"02","district":"Prakasam","district_code":"549","address1":"Kanigiri","address2":"","latitude":"15.0057","longitude":"79.3513","accuracy":"3"},{"address3":"Inimerla","state":"Andhra Pradesh","state_code":"02","district":"Prakasam","district_code":"549","address1":"Kanigiri","address2":"","latitude":"15.1064","longitude":"79.459","accuracy":"4"},{"address3":"Chilamkur","state":"Andhra Pradesh","state_code":"02","district":"Prakasam","district_code":"549","address1":"Kanigiri","address2":"","latitude":"15.0057","longitude":"79.3513","accuracy":"3"},{"address3":"Vaggampalli","state":"Andhra Pradesh","state_code":"02","district":"Prakasam","district_code":"549","address1":"Kanigiri","address2":"","latitude":"15.0057","longitude":"79.3513","accuracy":"3"},{"address3":"Turupukodigundlapadu","state":"Andhra Pradesh","state_code":"02","district":"Prakasam","district_code":"549","address1":"Kanigiri","address2":"","latitude":"15.0057","longitude":"79.3513","accuracy":"3"}],"523109":[{"address3":"Ravulakollu","state":"Andhra Pradesh","state_code":"02","district":"Prakasam","district_code":"549","address1":"Kandukur","address2":"","latitude":"15.6213","longitude":"79.5158","accuracy":"4"},{"address3":"Dubagunta","state":"Andhra Pradesh","state_code":"02","district":"Prakasam","district_code":"549","address1":"Kandukur","address2":"","latitude":"15.2334","longitude":"79.8751","accuracy":"4"},{"address3":"Cherukur","state":"Andhra Pradesh","state_code":"02","district":"Prakasam","district_code":"549","address1":"Kandukur","address2":"","latitude":"15.6213","longitude":"79.5158","accuracy":"4"},{"address3":"Malepadu","state":"Andhra Pradesh","state_code":"02","district":"Prakasam","district_code":"549","address1":"Kandukur","address2":"","latitude":"15.2419","longitude":"79.708","accuracy":"4"},{"address3":"Edlurapadu","state":"Andhra Pradesh","state_code":"02","district":"Prakasam","district_code":"549","address1":"Kandukur","address2":"","latitude":"15.2285","longitude":"79.9048","accuracy":"3"},{"address3":"Jillellamudi","state":"Andhra Pradesh","state_code":"02","district":"Prakasam","district_code":"549","address1":"Kandukur","address2":"","latitude":"15.6213","longitude":"79.5158","accuracy":"4"},{"address3":"Venkupalem","state":"Andhra Pradesh","state_code":"02","district":"Prakasam","district_code":"549","address1":"Kandukur","address2":"","latitude":"15.3031","longitude":"79.7446","accuracy":"4"},{"address3":"Ponnalore","state":"Andhra Pradesh","state_code":"02","district":"Prakasam","district_code":"549","address1":"Kandukur","address2":"","latitude":"15.2725","longitude":"79.7992","accuracy":"4"},{"address3":"Kovur Kandukur","state":"Andhra Pradesh","state_code":"02","district":"Prakasam","district_code":"549","address1":"Kandukur","address2":"","latitude":"15.2285","longitude":"79.9048","accuracy":"3"},{"address3":"Ippagunta","state":"Andhra Pradesh","state_code":"02","district":"Prakasam","district_code":"549","address1":"Kandukur","address2":"","latitude":"15.2267","longitude":"79.7841","accuracy":"4"},{"address3":"Timmapalem","state":"Andhra Pradesh","state_code":"02","district":"Prakasam","district_code":"549","address1":"Kandukur","address2":"","latitude":"15.2669","longitude":"79.6975","accuracy":"4"},{"address3":"Pandalapadu","state":"Andhra Pradesh","state_code":"02","district":"Prakasam","district_code":"549","address1":"Kandukur","address2":"","latitude":"15.2285","longitude":"79.9048","accuracy":"3"},{"address3":"Muppalla","state":"Andhra Pradesh","state_code":"02","district":"Prakasam","district_code":"549","address1":"Kandukur","address2":"","latitude":"15.7431","longitude":"80.2015","accuracy":"4"},{"address3":"Singarabotlapalem","state":"Andhra Pradesh","state_code":"02","district":"Prakasam","district_code":"549","address1":"Kandukur","address2":"","latitude":"15.2285","longitude":"79.9048","accuracy":"3"},{"address3":"Chavatapalem","state":"Andhra Pradesh","state_code":"02","district":"Prakasam","district_code":"549","address1":"Kandukur","address2":"","latitude":"15.2285","longitude":"79.9048","accuracy":"3"}],"523110":[{"address3":"Mopadu","state":"Andhra Pradesh","state_code":"02","district":"Prakasam","district_code":"549","address1":"Kanigiri","address2":"","latitude":"15.0932","longitude":"79.4907","accuracy":"4"},{"address3":"Ayyavaripalli","state":"Andhra Pradesh","state_code":"02","district":"Prakasam","district_code":"549","address1":"Kanigiri","address2":"","latitude":"15.6213","longitude":"79.5158","accuracy":"4"},{"address3":"Lakshminarasapuram","state":"Andhra Pradesh","state_code":"02","district":"Prakasam","district_code":"549","address1":"Kanigiri","address2":"","latitude":"15.6213","longitude":"79.5158","accuracy":"3"},{"address3":"Balijapalem","state":"Andhra Pradesh","state_code":"02","district":"Prakasam","district_code":"549","address1":"Kanigiri","address2":"","latitude":"15.6213","longitude":"79.5158","accuracy":"4"},{"address3":"Raghunadhapuram","state":"Andhra Pradesh","state_code":"02","district":"Prakasam","district_code":"549","address1":"Kanigiri","address2":"","latitude":"15.0683","longitude":"79.5375","accuracy":"4"},{"address3":"Guntupalli","state":"Andhra Pradesh","state_code":"02","district":"Prakasam","district_code":"549","address1":"Kanigiri","address2":"","latitude":"14.8833","longitude":"79.5754","accuracy":"3"},{"address3":"Kodigumpala","state":"Andhra Pradesh","state_code":"02","district":"Prakasam","district_code":"549","address1":"Kanigiri","address2":"","latitude":"15.142","longitude":"79.5179","accuracy":"4"},{"address3":"Eastkattakindapalli","state":"Andhra Pradesh","state_code":"02","district":"Prakasam","district_code":"549","address1":"Kanigiri","address2":"","latitude":"14.8833","longitude":"79.5754","accuracy":"3"},{"address3":"Botlagudur","state":"Andhra Pradesh","state_code":"02","district":"Prakasam","district_code":"549","address1":"Kanigiri","address2":"","latitude":"14.8833","longitude":"79.5754","accuracy":"3"},{"address3":"Khambaladinne","state":"Andhra Pradesh","state_code":"02","district":"Prakasam","district_code":"549","address1":"Kanigiri","address2":"","latitude":"14.8833","longitude":"79.5754","accuracy":"3"},{"address3":"Tumativaripalem","state":"Andhra Pradesh","state_code":"02","district":"Prakasam","district_code":"549","address1":"Kanigiri","address2":"","latitude":"14.8833","longitude":"79.5754","accuracy":"3"}],"523111":[{"address3":"Talluru","state":"Andhra Pradesh","state_code":"02","district":"Prakasam","district_code":"549","address1":"Kanigiri","address2":"","latitude":"15.3839","longitude":"79.6324","accuracy":"4"},{"address3":"Peda alavalapadu","state":"Andhra Pradesh","state_code":"02","district":"Prakasam","district_code":"549","address1":"Kanigiri","address2":"","latitude":"15.4473","longitude":"79.7315","accuracy":"3"},{"address3":"Vemavaram","state":"Andhra Pradesh","state_code":"02","district":"Prakasam","district_code":"549","address1":"Kanigiri","address2":"","latitude":"15.4171","longitude":"79.648","accuracy":"4"},{"address3":"K.Agraharam","state":"Andhra Pradesh","state_code":"02","district":"Prakasam","district_code":"549","address1":"Kanigiri","address2":"","latitude":"15.4473","longitude":"79.7315","accuracy":"3"},{"address3":"Vengalapuram","state":"Andhra Pradesh","state_code":"02","district":"Prakasam","district_code":"549","address1":"Kanigiri","address2":"","latitude":"15.3133","longitude":"79.642","accuracy":"4"},{"address3":"Venkateswarapuram","state":"Andhra Pradesh","state_code":"02","district":"Prakasam","district_code":"549","address1":"Kanigiri","address2":"","latitude":"15.4473","longitude":"79.7315","accuracy":"3"},{"address3":"Chinnipadu","state":"Andhra Pradesh","state_code":"02","district":"Prakasam","district_code":"549","address1":"Kanigiri","address2":"","latitude":"15.3378","longitude":"79.734","accuracy":"4"},{"address3":"Neredupalli","state":"Andhra Pradesh","state_code":"02","district":"Prakasam","district_code":"549","address1":"Kanigiri","address2":"","latitude":"15.4473","longitude":"79.7315","accuracy":"3"},{"address3":"Gudipadu","state":"Andhra Pradesh","state_code":"02","district":"Prakasam","district_code":"549","address1":"Kanigiri","address2":"","latitude":"15.3879","longitude":"79.6769","accuracy":"4"},{"address3":"Murugummi","state":"Andhra Pradesh","state_code":"02","district":"Prakasam","district_code":"549","address1":"Kanigiri","address2":"","latitude":"15.2513","longitude":"79.6188","accuracy":"4"},{"address3":"Gudevaripalem","state":"Andhra Pradesh","state_code":"02","district":"Prakasam","district_code":"549","address1":"Kanigiri","address2":"","latitude":"16.04","longitude":"80.1683","accuracy":"4"}],"523112":[{"address3":"Uppalapadu","state":"Andhra Pradesh","state_code":"02","district":"Prakasam","district_code":"549","address1":"Kanigiri","address2":"","latitude":"15.5827","longitude":"79.7567","accuracy":"4"},{"address3":"Chintapadu","state":"Andhra Pradesh","state_code":"02","district":"Prakasam","district_code":"549","address1":"Kanigiri","address2":"","latitude":"15.1686","longitude":"79.34","accuracy":"4"},{"address3":"Ambavaram Kothapalli","state":"Andhra Pradesh","state_code":"02","district":"Prakasam","district_code":"549","address1":"Kanigiri","address2":"","latitude":"15.2814","longitude":"79.2865","accuracy":"3"},{"address3":"Mundlapadu","state":"Andhra Pradesh","state_code":"02","district":"Prakasam","district_code":"549","address1":"Kanigiri","address2":"","latitude":"15.3304","longitude":"78.8994","accuracy":"4"},{"address3":"Musunurukothapalli","state":"Andhra Pradesh","state_code":"02","district":"Prakasam","district_code":"549","address1":"Kanigiri","address2":"","latitude":"15.2814","longitude":"79.2865","accuracy":"3"},{"address3":"Darsiguntapeta","state":"Andhra Pradesh","state_code":"02","district":"Prakasam","district_code":"549","address1":"Kanigiri","address2":"","latitude":"15.1736","longitude":"79.1772","accuracy":"4"},{"address3":"Votlabailu","state":"Andhra Pradesh","state_code":"02","district":"Prakasam","district_code":"549","address1":"Kanigiri","address2":"","latitude":"15.2814","longitude":"79.2865","accuracy":"3"},{"address3":"Nallamadugula","state":"Andhra Pradesh","state_code":"02","district":"Prakasam","district_code":"549","address1":"Kanigiri","address2":"","latitude":"15.1516","longitude":"79.259","accuracy":"4"},{"address3":"Chennapanayunipalli","state":"Andhra Pradesh","state_code":"02","district":"Prakasam","district_code":"549","address1":"Kanigiri","address2":"","latitude":"15.2814","longitude":"79.2865","accuracy":"3"},{"address3":"Ayyalurivaripalli","state":"Andhra Pradesh","state_code":"02","district":"Prakasam","district_code":"549","address1":"Kanigiri","address2":"","latitude":"15.2814","longitude":"79.2865","accuracy":"3"},{"address3":"Arivemula","state":"Andhra Pradesh","state_code":"02","district":"Prakasam","district_code":"549","address1":"Kanigiri","address2":"","latitude":"15.2814","longitude":"79.2865","accuracy":"3"},{"address3":"Anikalapalli","state":"Andhra Pradesh","state_code":"02","district":"Prakasam","district_code":"549","address1":"Kanigiri","address2":"","latitude":"15.2814","longitude":"79.2865","accuracy":"3"},{"address3":"Kovilampadu","state":"Andhra Pradesh","state_code":"02","district":"Prakasam","district_code":"549","address1":"Kanigiri","address2":"","latitude":"15.2814","longitude":"79.2865","accuracy":"3"},{"address3":"C.S.Puram","state":"Andhra Pradesh","state_code":"02","district":"Prakasam","district_code":"549","address1":"Kanigiri","address2":"","latitude":"15.2814","longitude":"79.2865","accuracy":"3"},{"address3":"Kondaboinapalli","state":"Andhra Pradesh","state_code":"02","district":"Prakasam","district_code":"549","address1":"Kanigiri","address2":"","latitude":"15.2814","longitude":"79.2865","accuracy":"3"}],"523113":[{"address3":"Parikondapadu","state":"Andhra Pradesh","state_code":"02","district":"Prakasam","district_code":"549","address1":"Kandukur","address2":"","latitude":"15.1262","longitude":"79.8702","accuracy":"4"},{"address3":"Nekunampuram","state":"Andhra Pradesh","state_code":"02","district":"Prakasam","district_code":"549","address1":"Kandukur","address2":"","latitude":"15.1739","longitude":"79.7943","accuracy":"3"},{"address3":"Machavaram","state":"Andhra Pradesh","state_code":"02","district":"Prakasam","district_code":"549","address1":"Kandukur","address2":"","latitude":"15.3689","longitude":"79.4841","accuracy":"4"},{"address3":"V.R.Kota","state":"Andhra Pradesh","state_code":"02","district":"Prakasam","district_code":"549","address1":"Kandukur","address2":"","latitude":"15.1739","longitude":"79.7943","accuracy":"3"},{"address3":"Pokur","state":"Andhra Pradesh","state_code":"02","district":"Prakasam","district_code":"549","address1":"Kandukur","address2":"","latitude":"15.1726","longitude":"79.8225","accuracy":"4"},{"address3":"Singamanenipalli","state":"Andhra Pradesh","state_code":"02","district":"Prakasam","district_code":"549","address1":"Kandukur","address2":"","latitude":"15.1739","longitude":"79.7943","accuracy":"3"},{"address3":"Kondamudusupalem","state":"Andhra Pradesh","state_code":"02","district":"Prakasam","district_code":"549","address1":"Kandukur","address2":"","latitude":"15.192","longitude":"79.8962","accuracy":"4"},{"address3":"Naldalpur","state":"Andhra Pradesh","state_code":"02","district":"Prakasam","district_code":"549","address1":"Kandukur","address2":"","latitude":"15.1739","longitude":"79.7943","accuracy":"3"},{"address3":"Dappalampadu","state":"Andhra Pradesh","state_code":"02","district":"Prakasam","district_code":"549","address1":"Kandukur","address2":"","latitude":"15.1061","longitude":"79.8504","accuracy":"4"},{"address3":"Sakhavaram","state":"Andhra Pradesh","state_code":"02","district":"Prakasam","district_code":"549","address1":"Kandukur","address2":"","latitude":"15.1462","longitude":"79.8128","accuracy":"4"},{"address3":"Kalavalla","state":"Andhra Pradesh","state_code":"02","district":"Prakasam","district_code":"549","address1":"Kandukur","address2":"","latitude":"15.1054","longitude":"79.8236","accuracy":"4"},{"address3":"Pedamopadu","state":"Andhra Pradesh","state_code":"02","district":"Prakasam","district_code":"549","address1":"Kandukur","address2":"","latitude":"15.1739","longitude":"79.7943","accuracy":"3"},{"address3":"Badevaripalem","state":"Andhra Pradesh","state_code":"02","district":"Prakasam","district_code":"549","address1":"Kandukur","address2":"","latitude":"15.1739","longitude":"79.7943","accuracy":"3"}],"523114":[{"address3":"Linga Samudram","state":"Andhra Pradesh","state_code":"02","district":"Prakasam","district_code":"549","address1":"Kandukur","address2":"","latitude":"15.0993","longitude":"79.7326","accuracy":"3"},{"address3":"Timmareddipalem","state":"Andhra Pradesh","state_code":"02","district":"Prakasam","district_code":"549","address1":"Kandukur","address2":"","latitude":"15.0993","longitude":"79.7326","accuracy":"4"},{"address3":"Rallapadu Project","state":"Andhra Pradesh","state_code":"02","district":"Prakasam","district_code":"549","address1":"Kandukur","address2":"","latitude":"15.0993","longitude":"79.7326","accuracy":"3"},{"address3":"Mogilicherla","state":"Andhra Pradesh","state_code":"02","district":"Prakasam","district_code":"549","address1":"Kandukur","address2":"","latitude":"15.0993","longitude":"79.7326","accuracy":"3"},{"address3":"Bodawada","state":"Andhra Pradesh","state_code":"02","district":"Prakasam","district_code":"549","address1":"Kandukur","address2":"","latitude":"15.0993","longitude":"79.7326","accuracy":"3"}],"523115":[{"address3":"Peda Pavani","state":"Andhra Pradesh","state_code":"02","district":"Prakasam","district_code":"549","address1":"Kandukur","address2":"","latitude":"14.5717","longitude":"79.8928","accuracy":"3"},{"address3":"Medarametlapalem","state":"Andhra Pradesh","state_code":"02","district":"Prakasam","district_code":"549","address1":"Kandukur","address2":"","latitude":"15.0248","longitude":"79.7945","accuracy":"4"},{"address3":"Mutyalapadu","state":"Andhra Pradesh","state_code":"02","district":"Prakasam","district_code":"549","address1":"Kandukur","address2":"","latitude":"15.6213","longitude":"79.5158","accuracy":"4"},{"address3":"Nayudupalem","state":"Andhra Pradesh","state_code":"02","district":"Prakasam","district_code":"549","address1":"Kandukur","address2":"","latitude":"15.6213","longitude":"79.5158","accuracy":"4"},{"address3":"Annaboinapalli","state":"Andhra Pradesh","state_code":"02","district":"Prakasam","district_code":"549","address1":"Kandukur","address2":"","latitude":"14.5717","longitude":"79.8928","accuracy":"3"},{"address3":"Chinalatrip","state":"Andhra Pradesh","state_code":"02","district":"Prakasam","district_code":"549","address1":"Kandukur","address2":"","latitude":"14.5717","longitude":"79.8928","accuracy":"3"},{"address3":"Chinapavani","state":"Andhra Pradesh","state_code":"02","district":"Prakasam","district_code":"549","address1":"Kandukur","address2":"","latitude":"14.5717","longitude":"79.8928","accuracy":"3"}],"523116":[{"address3":"V V Palem","state":"Andhra Pradesh","state_code":"02","district":"Prakasam","district_code":"549","address1":"Kandukur","address2":"","latitude":"14.866","longitude":"79.6175","accuracy":"3"},{"address3":"Ammapalem","state":"Andhra Pradesh","state_code":"02","district":"Prakasam","district_code":"549","address1":"Voletivaripalem","address2":"","latitude":"15.6213","longitude":"79.5158","accuracy":"4"},{"address3":"Ayyavaripalli","state":"Andhra Pradesh","state_code":"02","district":"Prakasam","district_code":"549","address1":"Kandukur","address2":"","latitude":"15.6213","longitude":"79.5158","accuracy":"4"},{"address3":"Chundi","state":"Andhra Pradesh","state_code":"02","district":"Prakasam","district_code":"549","address1":"Kandukur","address2":"","latitude":"15.1669","longitude":"79.6845","accuracy":"4"},{"address3":"Sameeripalem","state":"Andhra Pradesh","state_code":"02","district":"Prakasam","district_code":"549","address1":"Kandukur","address2":"","latitude":"14.866","longitude":"79.6175","accuracy":"3"},{"address3":"Polinenipalem","state":"Andhra Pradesh","state_code":"02","district":"Prakasam","district_code":"549","address1":"Kandukur","address2":"","latitude":"15.1799","longitude":"79.759","accuracy":"4"},{"address3":"Kondasamudram","state":"Andhra Pradesh","state_code":"02","district":"Prakasam","district_code":"549","address1":"Kandukur","address2":"","latitude":"15.1531","longitude":"79.7723","accuracy":"4"},{"address3":"Polinenicheruvu","state":"Andhra Pradesh","state_code":"02","district":"Prakasam","district_code":"549","address1":"Kandukur","address2":"","latitude":"14.866","longitude":"79.6175","accuracy":"3"}],"523117":[{"address3":"Marella","state":"Andhra Pradesh","state_code":"02","district":"Prakasam","district_code":"549","address1":"Kanigiri","address2":"","latitude":"15.2879","longitude":"79.5974","accuracy":"4"},{"address3":"Vengalayapalli","state":"Andhra Pradesh","state_code":"02","district":"Prakasam","district_code":"549","address1":"Kanigiri","address2":"","latitude":"15.6213","longitude":"79.5158","accuracy":"4"},{"address3":"Kodandaramapuram","state":"Andhra Pradesh","state_code":"02","district":"Prakasam","district_code":"549","address1":"Kanigiri","address2":"","latitude":"15.1738","longitude":"79.5643","accuracy":"4"},{"address3":"Pedacherlopalli","state":"Andhra Pradesh","state_code":"02","district":"Prakasam","district_code":"549","address1":"Kanigiri","address2":"","latitude":"14.9735","longitude":"79.4857","accuracy":"3"},{"address3":"Marrikuntapalli","state":"Andhra Pradesh","state_code":"02","district":"Prakasam","district_code":"549","address1":"Kanigiri","address2":"","latitude":"14.9735","longitude":"79.4857","accuracy":"3"},{"address3":"Thalakondapadu","state":"Andhra Pradesh","state_code":"02","district":"Prakasam","district_code":"549","address1":"Kanigiri","address2":"","latitude":"14.9735","longitude":"79.4857","accuracy":"3"},{"address3":"Pedairlapadu","state":"Andhra Pradesh","state_code":"02","district":"Prakasam","district_code":"549","address1":"Kanigiri","address2":"","latitude":"14.9735","longitude":"79.4857","accuracy":"3"},{"address3":"Chintagumpalli","state":"Andhra Pradesh","state_code":"02","district":"Prakasam","district_code":"549","address1":"Kanigiri","address2":"","latitude":"14.9735","longitude":"79.4857","accuracy":"3"}],"523135":[{"address3":"Pallepalem","state":"Andhra Pradesh","state_code":"02","district":"Prakasam","district_code":"549","address1":"Chirala","address2":"","latitude":"15.4762","longitude":"80.1986","accuracy":"4"},{"address3":"Rajubangarupalem","state":"Andhra Pradesh","state_code":"02","district":"Prakasam","district_code":"549","address1":"Chirala","address2":"","latitude":"15.5841","longitude":"80.2199","accuracy":"3"},{"address3":"Chinaganjam","state":"Andhra Pradesh","state_code":"02","district":"Prakasam","district_code":"549","address1":"Chirala","address2":"","latitude":"15.6919","longitude":"80.2412","accuracy":"4"}],"523155":[{"address3":"Santha Bazar","state":"Andhra Pradesh","state_code":"02","district":"Prakasam","district_code":"549","address1":"Chirala","address2":"","latitude":"14.7828","longitude":"78.6505","accuracy":"3"},{"address3":"Ramakrishnapuram","state":"Andhra Pradesh","state_code":"02","district":"Prakasam","district_code":"549","address1":"Chirala","address2":"","latitude":"15.6213","longitude":"79.5158","accuracy":"4"},{"address3":"Bosenagar (Prakasam)","state":"Andhra Pradesh","state_code":"02","district":"Prakasam","district_code":"549","address1":"Chirala","address2":"","latitude":"14.7828","longitude":"78.6505","accuracy":"3"},{"address3":"Chirala H.O","state":"Andhra Pradesh","state_code":"02","district":"Prakasam","district_code":"549","address1":"Chirala","address2":"","latitude":"14.7828","longitude":"78.6505","accuracy":"3"}],"523156":[{"address3":"Mgc Market(C )","state":"Andhra Pradesh","state_code":"02","district":"Prakasam","district_code":"549","address1":"Chirala","address2":"","latitude":"15.1527","longitude":"79.7797","accuracy":"1"}],"523157":[{"address3":"Papayapalem","state":"Andhra Pradesh","state_code":"02","district":"Prakasam","district_code":"549","address1":"Chirala","address2":"","latitude":"15.7996","longitude":"80.3854","accuracy":"4"},{"address3":"Ramnagar (C )","state":"Andhra Pradesh","state_code":"02","district":"Prakasam","district_code":"549","address1":"Chirala","address2":"","latitude":"15.2452","longitude":"80.062","accuracy":"3"},{"address3":"Kothapeta","state":"Andhra Pradesh","state_code":"02","district":"Prakasam","district_code":"549","address1":"Chirala","address2":"","latitude":"15.6213","longitude":"79.5158","accuracy":"4"},{"address3":"Vadarevu","state":"Andhra Pradesh","state_code":"02","district":"Prakasam","district_code":"549","address1":"Chirala","address2":"","latitude":"15.7973","longitude":"80.4118","accuracy":"4"},{"address3":"Prasad Nagar So (C )","state":"Andhra Pradesh","state_code":"02","district":"Prakasam","district_code":"549","address1":"Chirala","address2":"","latitude":"15.2452","longitude":"80.062","accuracy":"3"},{"address3":"Burlavaripalem","state":"Andhra Pradesh","state_code":"02","district":"Prakasam","district_code":"549","address1":"Chiral","address2":"","latitude":"15.2452","longitude":"80.062","accuracy":"3"},{"address3":"Perala","state":"Andhra Pradesh","state_code":"02","district":"Prakasam","district_code":"549","address1":"Chirala","address2":"","latitude":"15.8328","longitude":"80.3622","accuracy":"4"},{"address3":"Kurthula","state":"Andhra Pradesh","state_code":"02","district":"Prakasam","district_code":"549","address1":"Chirala","address2":"","latitude":"15.2452","longitude":"80.062","accuracy":"3"},{"address3":"Vittalnagar","state":"Andhra Pradesh","state_code":"02","district":"Prakasam","district_code":"549","address1":"Chirala","address2":"","latitude":"15.2452","longitude":"80.062","accuracy":"3"},{"address3":"Chirala Bazar","state":"Andhra Pradesh","state_code":"02","district":"Prakasam","district_code":"549","address1":"Chirala","address2":"","latitude":"15.2452","longitude":"80.062","accuracy":"3"}],"523165":[{"address3":"Jandrapet","state":"Andhra Pradesh","state_code":"02","district":"Prakasam","district_code":"549","address1":"Chirala","address2":"","latitude":"15.8113","longitude":"80.1943","accuracy":"1"},{"address3":"Gandhinagar","state":"Andhra Pradesh","state_code":"02","district":"Prakasam","district_code":"549","address1":"Chirala","address2":"","latitude":"15.8113","longitude":"80.1943","accuracy":"1"},{"address3":"Pathachirala","state":"Andhra Pradesh","state_code":"02","district":"Prakasam","district_code":"549","address1":"Chirala","address2":"","latitude":"15.8113","longitude":"80.1943","accuracy":"1"}],"523166":[{"address3":"Gavinivaripalem","state":"Andhra Pradesh","state_code":"02","district":"Prakasam","district_code":"549","address1":"Chirala","address2":"","latitude":"15.8378","longitude":"80.4315","accuracy":"4"},{"address3":"Thotavaripalem","state":"Andhra Pradesh","state_code":"02","district":"Prakasam","district_code":"549","address1":"Chirala","address2":"","latitude":"15.8433","longitude":"80.409","accuracy":"3"},{"address3":"Ipurupalem","state":"Andhra Pradesh","state_code":"02","district":"Prakasam","district_code":"549","address1":"Chirala","address2":"","latitude":"15.8489","longitude":"80.3866","accuracy":"4"}],"523167":[{"address3":"Pavulur","state":"Andhra Pradesh","state_code":"02","district":"Prakasam","district_code":"549","address1":"Chirala","address2":"","latitude":"15.6552","longitude":"80.0701","accuracy":"3"},{"address3":"Bhimavaram","state":"Andhra Pradesh","state_code":"02","district":"Prakasam","district_code":"549","address1":"Chirala","address2":"","latitude":"15.7843","longitude":"80.2072","accuracy":"4"},{"address3":"Naidu Vari Palem","state":"Andhra Pradesh","state_code":"02","district":"Prakasam","district_code":"549","address1":"Chirala","address2":"","latitude":"15.6552","longitude":"80.0701","accuracy":"3"},{"address3":"Koniki","state":"Andhra Pradesh","state_code":"02","district":"Prakasam","district_code":"549","address1":"Chirala","address2":"","latitude":"15.7817","longitude":"80.1754","accuracy":"4"},{"address3":"Hanumoji Palem","state":"Andhra Pradesh","state_code":"02","district":"Prakasam","district_code":"549","address1":"Chirala","address2":"","latitude":"15.6552","longitude":"80.0701","accuracy":"3"},{"address3":"Gangavaram","state":"Andhra Pradesh","state_code":"02","district":"Prakasam","district_code":"549","address1":"Chirala","address2":"","latitude":"15.8083","longitude":"80.1651","accuracy":"4"},{"address3":"Inkollu","state":"Andhra Pradesh","state_code":"02","district":"Prakasam","district_code":"549","address1":"Chirala","address2":"","latitude":"15.8278","longitude":"80.1921","accuracy":"4"},{"address3":"Bodavada","state":"Andhra Pradesh","state_code":"02","district":"Prakasam","district_code":"549","address1":"Chirala","address2":"","latitude":"15.0741","longitude":"79.6108","accuracy":"4"}],"523168":[{"address3":"Karamchedu","state":"Andhra Pradesh","state_code":"02","district":"Prakasam","district_code":"549","address1":"Chirala","address2":"","latitude":"15.8113","longitude":"80.1943","accuracy":"1"},{"address3":"Kunkalamarru","state":"Andhra Pradesh","state_code":"02","district":"Prakasam","district_code":"549","address1":"Chirala","address2":"","latitude":"15.8113","longitude":"80.1943","accuracy":"1"}],"523169":[{"address3":"Devarapalli","state":"Andhra Pradesh","state_code":"02","district":"Prakasam","district_code":"549","address1":"Chirala","address2":"","latitude":"15.9135","longitude":"80.2217","accuracy":"3"},{"address3":"Budavada","state":"Andhra Pradesh","state_code":"02","district":"Prakasam","district_code":"549","address1":"Chirala","address2":"","latitude":"15.8486","longitude":"80.1431","accuracy":"4"},{"address3":"Ramanayyapalem BO","state":"Andhra Pradesh","state_code":"02","district":"Prakasam","district_code":"549","address1":"Chirala","address2":"","latitude":"15.9135","longitude":"80.2217","accuracy":"3"},{"address3":"Chinanandipadu","state":"Andhra Pradesh","state_code":"02","district":"Prakasam","district_code":"549","address1":"Chirala","address2":"","latitude":"15.9135","longitude":"80.2217","accuracy":"3"},{"address3":"Punuru","state":"Andhra Pradesh","state_code":"02","district":"Prakasam","district_code":"549","address1":"Chirala","address2":"","latitude":"15.9386","longitude":"80.1705","accuracy":"4"},{"address3":"Komaranenivaripalem","state":"Andhra Pradesh","state_code":"02","district":"Prakasam","district_code":"549","address1":"Chirala","address2":"","latitude":"15.9135","longitude":"80.2217","accuracy":"3"},{"address3":"Gollapudiagraharam","state":"Andhra Pradesh","state_code":"02","district":"Prakasam","district_code":"549","address1":"Chiral","address2":"","latitude":"15.9135","longitude":"80.2217","accuracy":"3"},{"address3":"Upputuru","state":"Andhra Pradesh","state_code":"02","district":"Prakasam","district_code":"549","address1":"Chirala","address2":"","latitude":"15.9531","longitude":"80.289","accuracy":"4"},{"address3":"Parchur","state":"Andhra Pradesh","state_code":"02","district":"Prakasam","district_code":"549","address1":"Chirala","address2":"","latitude":"15.9135","longitude":"80.2217","accuracy":"3"},{"address3":"Adusumalli","state":"Andhra Pradesh","state_code":"02","district":"Prakasam","district_code":"549","address1":"Parchur","address2":"","latitude":"16.0224","longitude":"80.3134","accuracy":"4"},{"address3":"Munnagivaripalem","state":"Andhra Pradesh","state_code":"02","district":"Prakasam","district_code":"549","address1":"Chirala","address2":"","latitude":"15.9135","longitude":"80.2217","accuracy":"3"},{"address3":"Cherukuru","state":"Andhra Pradesh","state_code":"02","district":"Prakasam","district_code":"549","address1":"Chirala","address2":"","latitude":"15.9945","longitude":"80.3787","accuracy":"4"},{"address3":"Veerannapalem","state":"Andhra Pradesh","state_code":"02","district":"Prakasam","district_code":"549","address1":"Chirala","address2":"","latitude":"15.9135","longitude":"80.2217","accuracy":"3"},{"address3":"Jagarlamudi","state":"Andhra Pradesh","state_code":"02","district":"Prakasam","district_code":"549","address1":"Chirala","address2":"","latitude":"15.9755","longitude":"80.2225","accuracy":"4"},{"address3":"Kollavaripalem","state":"Andhra Pradesh","state_code":"02","district":"Prakasam","district_code":"549","address1":"Chirala","address2":"","latitude":"15.9135","longitude":"80.2217","accuracy":"3"},{"address3":"Nagulapalem","state":"Andhra Pradesh","state_code":"02","district":"Prakasam","district_code":"549","address1":"Chirala","address2":"","latitude":"15.6621","longitude":"80.0348","accuracy":"4"},{"address3":"Yerramvaripalem","state":"Andhra Pradesh","state_code":"02","district":"Prakasam","district_code":"549","address1":"Chirala","address2":"","latitude":"15.9135","longitude":"80.2217","accuracy":"3"},{"address3":"Nuthalapadu","state":"Andhra Pradesh","state_code":"02","district":"Prakasam","district_code":"549","address1":"Chirala","address2":"","latitude":"15.9135","longitude":"80.2217","accuracy":"3"},{"address3":"Pothukatla","state":"Andhra Pradesh","state_code":"02","district":"Prakasam","district_code":"549","address1":"Chirala","address2":"","latitude":"15.9135","longitude":"80.2217","accuracy":"3"}],"523170":[{"address3":"Swarna","state":"Andhra Pradesh","state_code":"02","district":"Prakasam","district_code":"549","address1":"Chirala","address2":"","latitude":"15.8542","longitude":"80.2858","accuracy":"4"},{"address3":"Timidithapadu","state":"Andhra Pradesh","state_code":"02","district":"Prakasam","district_code":"549","address1":"Chirala","address2":"","latitude":"15.8498","longitude":"80.2632","accuracy":"3"},{"address3":"Kesavarappadu","state":"Andhra Pradesh","state_code":"02","district":"Prakasam","district_code":"549","address1":"Chirala","address2":"","latitude":"15.85","longitude":"80.2516","accuracy":"4"},{"address3":"Audipudi","state":"Andhra Pradesh","state_code":"02","district":"Prakasam","district_code":"549","address1":"Chirala","address2":"","latitude":"15.8498","longitude":"80.2632","accuracy":"3"},{"address3":"Kodavalivaripalem","state":"Andhra Pradesh","state_code":"02","district":"Prakasam","district_code":"549","address1":"Chirala","address2":"","latitude":"15.8453","longitude":"80.2521","accuracy":"4"}],"523171":[{"address3":"A.B.V.Palem","state":"Andhra Pradesh","state_code":"02","district":"Prakasam","district_code":"549","address1":"NA","address2":"","latitude":"16.0184","longitude":"80.2471","accuracy":"3"},{"address3":"Poluru","state":"Andhra Pradesh","state_code":"02","district":"Prakasam","district_code":"549","address1":"Chirala","address2":"","latitude":"15.9938","longitude":"80.2114","accuracy":"4"},{"address3":"Edubadu","state":"Andhra Pradesh","state_code":"02","district":"Prakasam","district_code":"549","address1":"Chirala","address2":"","latitude":"16.0438","longitude":"80.252","accuracy":"4"},{"address3":"Timmarajupalem","state":"Andhra Pradesh","state_code":"02","district":"Prakasam","district_code":"549","address1":"Chirala","address2":"","latitude":"16.0018","longitude":"80.255","accuracy":"4"},{"address3":"Inagallu","state":"Andhra Pradesh","state_code":"02","district":"Prakasam","district_code":"549","address1":"Chirala","address2":"","latitude":"16.04","longitude":"80.29","accuracy":"4"},{"address3":"Garnepudi","state":"Andhra Pradesh","state_code":"02","district":"Prakasam","district_code":"549","address1":"Chirala","address2":"","latitude":"16.0125","longitude":"80.227","accuracy":"4"}],"523180":[{"address3":"Chavatapalem","state":"Andhra Pradesh","state_code":"02","district":"Prakasam","district_code":"549","address1":"Ongole","address2":"","latitude":"15.5802","longitude":"80.1488","accuracy":"3"},{"address3":"Ammanabrolu","state":"Andhra Pradesh","state_code":"02","district":"Prakasam","district_code":"549","address1":"Ongole","address2":"","latitude":"15.5802","longitude":"80.1488","accuracy":"4"},{"address3":"Chervanuppalapadu","state":"Andhra Pradesh","state_code":"02","district":"Prakasam","district_code":"549","address1":"Ongole","address2":"","latitude":"15.5802","longitude":"80.1488","accuracy":"3"},{"address3":"Kanuparthi","state":"Andhra Pradesh","state_code":"02","district":"Prakasam","district_code":"549","address1":"Ongole","address2":"","latitude":"15.5802","longitude":"80.1488","accuracy":"3"},{"address3":"Raparala","state":"Andhra Pradesh","state_code":"02","district":"Prakasam","district_code":"549","address1":"Ongole","address2":"","latitude":"15.5802","longitude":"80.1488","accuracy":"3"}],"523181":[{"address3":"Kadavakuduru","state":"Andhra Pradesh","state_code":"02","district":"Prakasam","district_code":"549","address1":"Chirala","address2":"","latitude":"15.7261","longitude":"80.2547","accuracy":"4"},{"address3":"Gonasapudu","state":"Andhra Pradesh","state_code":"02","district":"Prakasam","district_code":"549","address1":"Chirala","address2":"","latitude":"15.7261","longitude":"80.2547","accuracy":"3"},{"address3":"Maddirallamuppalla","state":"Andhra Pradesh","state_code":"02","district":"Prakasam","district_code":"549","address1":"Chirala","address2":"","latitude":"15.7261","longitude":"80.2547","accuracy":"3"},{"address3":"Chinagumpalle","state":"Andhra Pradesh","state_code":"02","district":"Prakasam","district_code":"549","address1":"Chirala","address2":"","latitude":"15.7261","longitude":"80.2547","accuracy":"3"}],"523182":[{"address3":"Panakalapalem","state":"Andhra Pradesh","state_code":"02","district":"Prakasam","district_code":"549","address1":"Ongole","address2":"","latitude":"15.5356","longitude":"80.1312","accuracy":"4"},{"address3":"Dasarajupalli","state":"Andhra Pradesh","state_code":"02","district":"Prakasam","district_code":"549","address1":"Ongole","address2":"","latitude":"15.5369","longitude":"80.1433","accuracy":"3"},{"address3":"Aluru","state":"Andhra Pradesh","state_code":"02","district":"Prakasam","district_code":"549","address1":"Kotha Patnam","address2":"","latitude":"15.5042","longitude":"80.1291","accuracy":"4"},{"address3":"Devarampadu","state":"Andhra Pradesh","state_code":"02","district":"Prakasam","district_code":"549","address1":"Ongole","address2":"","latitude":"15.5519","longitude":"80.1851","accuracy":"4"},{"address3":"Karavadi","state":"Andhra Pradesh","state_code":"02","district":"Prakasam","district_code":"549","address1":"Ongole","address2":"","latitude":"15.5462","longitude":"80.1145","accuracy":"4"},{"address3":"Ulichi","state":"Andhra Pradesh","state_code":"02","district":"Prakasam","district_code":"549","address1":"Ongole","address2":"","latitude":"15.5464","longitude":"80.1566","accuracy":"4"}],"523183":[{"address3":"Chadalavada","state":"Andhra Pradesh","state_code":"02","district":"Prakasam","district_code":"549","address1":"Ongole","address2":"","latitude":"16.0305","longitude":"79.6747","accuracy":"3"},{"address3":"Hanumapuram","state":"Andhra Pradesh","state_code":"02","district":"Prakasam","district_code":"549","address1":"Ongole","address2":"","latitude":"15.6733","longitude":"80.0558","accuracy":"4"},{"address3":"N.G.Padu","state":"Andhra Pradesh","state_code":"02","district":"Prakasam","district_code":"549","address1":"Ongole","address2":"","latitude":"16.0305","longitude":"79.6747","accuracy":"3"},{"address3":"Kandlagunta","state":"Andhra Pradesh","state_code":"02","district":"Prakasam","district_code":"549","address1":"Ongole","address2":"","latitude":"15.6213","longitude":"79.5158","accuracy":"4"},{"address3":"Prasangulapadu","state":"Andhra Pradesh","state_code":"02","district":"Prakasam","district_code":"549","address1":"Ongole","address2":"","latitude":"16.0305","longitude":"79.6747","accuracy":"3"},{"address3":"Pothavaram","state":"Andhra Pradesh","state_code":"02","district":"Prakasam","district_code":"549","address1":"Ongole","address2":"","latitude":"16.0305","longitude":"79.6747","accuracy":"3"},{"address3":"Brahmananidamanuru","state":"Andhra Pradesh","state_code":"02","district":"Prakasam","district_code":"549","address1":"Ongole","address2":"","latitude":"16.0305","longitude":"79.6747","accuracy":"3"}],"523184":[{"address3":"Motupalli","state":"Andhra Pradesh","state_code":"02","district":"Prakasam","district_code":"549","address1":"Chirala","address2":"","latitude":"15.6952","longitude":"80.0974","accuracy":"1"},{"address3":"Pandillapalli","state":"Andhra Pradesh","state_code":"02","district":"Prakasam","district_code":"549","address1":"Chirala","address2":"","latitude":"15.6952","longitude":"80.0974","accuracy":"1"}],"523185":[{"address3":"Santharavur","state":"Andhra Pradesh","state_code":"02","district":"Prakasam","district_code":"549","address1":"Chirala","address2":"","latitude":"15.7897","longitude":"80.2459","accuracy":"3"},{"address3":"Timmasamudram","state":"Andhra Pradesh","state_code":"02","district":"Prakasam","district_code":"549","address1":"Chirala","address2":"","latitude":"15.7897","longitude":"80.2459","accuracy":"4"},{"address3":"Jarbulavaripale","state":"Andhra Pradesh","state_code":"02","district":"Prakasam","district_code":"549","address1":"Chirala","address2":"","latitude":"15.7897","longitude":"80.2459","accuracy":"3"}],"523186":[{"address3":"Rachapudi","state":"Andhra Pradesh","state_code":"02","district":"Prakasam","district_code":"549","address1":"Ongole","address2":"","latitude":"15.7158","longitude":"80.1465","accuracy":"4"},{"address3":"Uppugundur","state":"Andhra Pradesh","state_code":"02","district":"Prakasam","district_code":"549","address1":"Ongole","address2":"","latitude":"15.7158","longitude":"80.1465","accuracy":"3"},{"address3":"Duddukur","state":"Andhra Pradesh","state_code":"02","district":"Prakasam","district_code":"549","address1":"Ongole","address2":"","latitude":"15.7158","longitude":"80.1465","accuracy":"3"},{"address3":"Pedaganjam","state":"Andhra Pradesh","state_code":"02","district":"Prakasam","district_code":"549","address1":"Ongole","address2":"","latitude":"15.7158","longitude":"80.1465","accuracy":"3"},{"address3":"Edumudi","state":"Andhra Pradesh","state_code":"02","district":"Prakasam","district_code":"549","address1":"Ongole","address2":"","latitude":"15.7158","longitude":"80.1465","accuracy":"3"}],"523187":[{"address3":"Ravuri Pet","state":"Andhra Pradesh","state_code":"02","district":"Prakasam","district_code":"549","address1":"Vetapalem","address2":"","latitude":"15.785","longitude":"80.3066","accuracy":"3"},{"address3":"Vetapalem","state":"Andhra Pradesh","state_code":"02","district":"Prakasam","district_code":"549","address1":"Chirala","address2":"","latitude":"15.785","longitude":"80.3066","accuracy":"4"},{"address3":"Desaipet","state":"Andhra Pradesh","state_code":"02","district":"Prakasam","district_code":"549","address1":"Chirala","address2":"","latitude":"15.785","longitude":"80.3066","accuracy":"3"}],"523190":[{"address3":"Dronadula","state":"Andhra Pradesh","state_code":"02","district":"Prakasam","district_code":"549","address1":"Chirala","address2":"","latitude":"15.8923","longitude":"80.1028","accuracy":"4"},{"address3":"Daggubadu","state":"Andhra Pradesh","state_code":"02","district":"Prakasam","district_code":"549","address1":"Chirala","address2":"","latitude":"15.899","longitude":"80.1788","accuracy":"3"},{"address3":"Idupulapadu","state":"Andhra Pradesh","state_code":"02","district":"Prakasam","district_code":"549","address1":"Chirala","address2":"","latitude":"15.9035","longitude":"80.1961","accuracy":"4"},{"address3":"Nagandla","state":"Andhra Pradesh","state_code":"02","district":"Prakasam","district_code":"549","address1":"Chirala","address2":"","latitude":"15.8823","longitude":"80.1443","accuracy":"4"},{"address3":"Vankayalapadu","state":"Andhra Pradesh","state_code":"02","district":"Prakasam","district_code":"549","address1":"Chirala","address2":"","latitude":"15.9126","longitude":"80.2222","accuracy":"4"},{"address3":"Pusapadu","state":"Andhra Pradesh","state_code":"02","district":"Prakasam","district_code":"549","address1":"Chirala","address2":"","latitude":"15.9044","longitude":"80.2287","accuracy":"4"}],"523201":[{"address3":"Nuzellpalli","state":"Andhra Pradesh","state_code":"02","district":"Prakasam","district_code":"549","address1":"Ongole","address2":"","latitude":"15.7871","longitude":"79.9223","accuracy":"3"},{"address3":"Uppalapadu","state":"Andhra Pradesh","state_code":"02","district":"Prakasam","district_code":"549","address1":"Ongole","address2":"","latitude":"15.5827","longitude":"79.7567","accuracy":"4"},{"address3":"Marella","state":"Andhra Pradesh","state_code":"02","district":"Prakasam","district_code":"549","address1":"Ongole","address2":"","latitude":"15.8774","longitude":"79.9003","accuracy":"4"},{"address3":"Bommnampadu","state":"Andhra Pradesh","state_code":"02","district":"Prakasam","district_code":"549","address1":"Ongole","address2":"","latitude":"15.7871","longitude":"79.9223","accuracy":"3"},{"address3":"Sunkaravaripalem","state":"Andhra Pradesh","state_code":"02","district":"Prakasam","district_code":"549","address1":"Ongole","address2":"","latitude":"15.7871","longitude":"79.9223","accuracy":"3"},{"address3":"Addanki","state":"Andhra Pradesh","state_code":"02","district":"Prakasam","district_code":"549","address1":"Ongole","address2":"","latitude":"15.8106","longitude":"79.9734","accuracy":"4"},{"address3":"Khambampadu","state":"Andhra Pradesh","state_code":"02","district":"Prakasam","district_code":"549","address1":"Ongole","address2":"","latitude":"15.7871","longitude":"79.9223","accuracy":"3"},{"address3":"Thimmayapalem","state":"Andhra Pradesh","state_code":"02","district":"Prakasam","district_code":"549","address1":"Ongole","address2":"","latitude":"15.7871","longitude":"79.9223","accuracy":"3"},{"address3":"Venkatapuram","state":"Andhra Pradesh","state_code":"02","district":"Prakasam","district_code":"549","address1":"Ongole","address2":"","latitude":"15.7902","longitude":"80.0301","accuracy":"4"},{"address3":"Kalavakur","state":"Andhra Pradesh","state_code":"02","district":"Prakasam","district_code":"549","address1":"Ongole","address2":"","latitude":"15.7871","longitude":"79.9223","accuracy":"3"},{"address3":"Ramnagar(A)","state":"Andhra Pradesh","state_code":"02","district":"Prakasam","district_code":"549","address1":"Addanki","address2":"","latitude":"15.7871","longitude":"79.9223","accuracy":"3"},{"address3":"Velamuripadu","state":"Andhra Pradesh","state_code":"02","district":"Prakasam","district_code":"549","address1":"Ongole","address2":"","latitude":"15.7867","longitude":"79.9693","accuracy":"4"},{"address3":"Zammalamadaka","state":"Andhra Pradesh","state_code":"02","district":"Prakasam","district_code":"549","address1":"Ongole","address2":"","latitude":"15.7871","longitude":"79.9223","accuracy":"3"},{"address3":"Mailavaram","state":"Andhra Pradesh","state_code":"02","district":"Prakasam","district_code":"549","address1":"Ongole","address2":"","latitude":"15.5609","longitude":"79.8008","accuracy":"4"},{"address3":"Vemparala","state":"Andhra Pradesh","state_code":"02","district":"Prakasam","district_code":"549","address1":"Ongole","address2":"","latitude":"15.7871","longitude":"79.9223","accuracy":"3"},{"address3":"Nagulapadu","state":"Andhra Pradesh","state_code":"02","district":"Prakasam","district_code":"549","address1":"Ongole","address2":"","latitude":"15.792","longitude":"80.0014","accuracy":"4"},{"address3":"Makkenavaripalem","state":"Andhra Pradesh","state_code":"02","district":"Prakasam","district_code":"549","address1":"Ongole","address2":"","latitude":"15.9172","longitude":"79.8574","accuracy":"4"},{"address3":"Kotikalapudi","state":"Andhra Pradesh","state_code":"02","district":"Prakasam","district_code":"549","address1":"Ongole","address2":"","latitude":"15.7837","longitude":"79.9598","accuracy":"4"},{"address3":"Chakrayapalem","state":"Andhra Pradesh","state_code":"02","district":"Prakasam","district_code":"549","address1":"Ongole","address2":"","latitude":"15.8568","longitude":"79.9529","accuracy":"4"},{"address3":"Kasyapuram","state":"Andhra Pradesh","state_code":"02","district":"Prakasam","district_code":"549","address1":"Ongole","address2":"","latitude":"15.8066","longitude":"80.0238","accuracy":"4"},{"address3":"Purimetla","state":"Andhra Pradesh","state_code":"02","district":"Prakasam","district_code":"549","address1":"Ongole","address2":"","latitude":"15.8807","longitude":"79.8421","accuracy":"4"}],"523211":[{"address3":"Gullapalli","state":"Andhra Pradesh","state_code":"02","district":"Prakasam","district_code":"549","address1":"Ongole","address2":"","latitude":"15.6113","longitude":"80.0229","accuracy":"3"},{"address3":"Pedakothapalli","state":"Andhra Pradesh","state_code":"02","district":"Prakasam","district_code":"549","address1":"Ongole","address2":"","latitude":"15.6113","longitude":"80.0229","accuracy":"3"},{"address3":"Rachavaripalem","state":"Andhra Pradesh","state_code":"02","district":"Prakasam","district_code":"549","address1":"Ongole","address2":"","latitude":"15.6386","longitude":"80.0445","accuracy":"4"},{"address3":"Annangi","state":"Andhra Pradesh","state_code":"02","district":"Prakasam","district_code":"549","address1":"Ongole","address2":"","latitude":"15.6113","longitude":"80.0229","accuracy":"3"},{"address3":"Guravareddipalem","state":"Andhra Pradesh","state_code":"02","district":"Prakasam","district_code":"549","address1":"Ongole","address2":"","latitude":"15.6017","longitude":"79.9902","accuracy":"4"},{"address3":"Basavannapalem","state":"Andhra Pradesh","state_code":"02","district":"Prakasam","district_code":"549","address1":"Ongole","address2":"","latitude":"15.6113","longitude":"80.0229","accuracy":"3"},{"address3":"Nelaturu","state":"Andhra Pradesh","state_code":"02","district":"Prakasam","district_code":"549","address1":"Ongole","address2":"","latitude":"15.6192","longitude":"79.9782","accuracy":"4"},{"address3":"Vellampalli","state":"Andhra Pradesh","state_code":"02","district":"Prakasam","district_code":"549","address1":"Ongole","address2":"","latitude":"15.6213","longitude":"79.5158","accuracy":"3"},{"address3":"Maddipadu","state":"Andhra Pradesh","state_code":"02","district":"Prakasam","district_code":"549","address1":"Ongole","address2":"","latitude":"15.6223","longitude":"80.0239","accuracy":"4"},{"address3":"Doddavarappadu","state":"Andhra Pradesh","state_code":"02","district":"Prakasam","district_code":"549","address1":"Ongole","address2":"","latitude":"15.5843","longitude":"80.0271","accuracy":"4"},{"address3":"Inamanamelluru","state":"Andhra Pradesh","state_code":"02","district":"Prakasam","district_code":"549","address1":"Ongole","address2":"","latitude":"15.6019","longitude":"80.0736","accuracy":"4"}],"523212":[{"address3":"Yerrapalem","state":"Andhra Pradesh","state_code":"02","district":"Prakasam","district_code":"549","address1":"Ongole","address2":"","latitude":"15.6213","longitude":"79.5158","accuracy":"4"},{"address3":"Alavalapadu","state":"Andhra Pradesh","state_code":"02","district":"Prakasam","district_code":"549","address1":"Ongole","address2":"","latitude":"15.7887","longitude":"80.0656","accuracy":"4"},{"address3":"M.M.T. Road","state":"Andhra Pradesh","state_code":"02","district":"Prakasam","district_code":"549","address1":"Ongole","address2":"","latitude":"15.8535","longitude":"80.0525","accuracy":"3"},{"address3":"Daivalaravuru","state":"Andhra Pradesh","state_code":"02","district":"Prakasam","district_code":"549","address1":"Ongole","address2":"","latitude":"15.7099","longitude":"80.0569","accuracy":"4"},{"address3":"Thimmana Palem","state":"Andhra Pradesh","state_code":"02","district":"Prakasam","district_code":"549","address1":"Ongole","address2":"","latitude":"15.8535","longitude":"80.0525","accuracy":"3"},{"address3":"Bodduvaripalem","state":"Andhra Pradesh","state_code":"02","district":"Prakasam","district_code":"549","address1":"Ongole","address2":"","latitude":"15.7544","longitude":"80.0146","accuracy":"4"},{"address3":"Pitchikalagudipadu","state":"Andhra Pradesh","state_code":"02","district":"Prakasam","district_code":"549","address1":"Ongole","address2":"","latitude":"15.8535","longitude":"80.0525","accuracy":"3"},{"address3":"Korisapadu","state":"Andhra Pradesh","state_code":"02","district":"Prakasam","district_code":"549","address1":"Ongole","address2":"","latitude":"15.7537","longitude":"80.0423","accuracy":"4"},{"address3":"Thammavaram","state":"Andhra Pradesh","state_code":"02","district":"Prakasam","district_code":"549","address1":"Ongole","address2":"","latitude":"15.8535","longitude":"80.0525","accuracy":"3"},{"address3":"Anamanamuru","state":"Andhra Pradesh","state_code":"02","district":"Prakasam","district_code":"549","address1":"Ongole","address2":"","latitude":"15.7405","longitude":"79.9705","accuracy":"4"},{"address3":"K.Thakkellapadu","state":"Andhra Pradesh","state_code":"02","district":"Prakasam","district_code":"549","address1":"Ongole","address2":"","latitude":"15.8535","longitude":"80.0525","accuracy":"3"},{"address3":"Bollavarappadu","state":"Andhra Pradesh","state_code":"02","district":"Prakasam","district_code":"549","address1":"Ongole","address2":"","latitude":"15.6995","longitude":"80.0794","accuracy":"4"}],"523213":[{"address3":"Ravinuthala","state":"Andhra Pradesh","state_code":"02","district":"Prakasam","district_code":"549","address1":"Ongole","address2":"","latitude":"15.7116","longitude":"80.1121","accuracy":"3"},{"address3":"Paidipadu","state":"Andhra Pradesh","state_code":"02","district":"Prakasam","district_code":"549","address1":"Ongole","address2":"","latitude":"15.7116","longitude":"80.1121","accuracy":"4"},{"address3":"T.Kopperapadu","state":"Andhra Pradesh","state_code":"02","district":"Prakasam","district_code":"549","address1":"Ongole","address2":"","latitude":"15.7116","longitude":"80.1121","accuracy":"3"}],"523214":[{"address3":"Janakavaram","state":"Andhra Pradesh","state_code":"02","district":"Prakasam","district_code":"549","address1":"Ongole","address2":"","latitude":"15.8192","longitude":"80.086","accuracy":"4"},{"address3":"Nujellapalli","state":"Andhra Pradesh","state_code":"02","district":"Prakasam","district_code":"549","address1":"J.PANGULUR","address2":"","latitude":"15.8212","longitude":"79.9261","accuracy":"3"},{"address3":"Kotapadu","state":"Andhra Pradesh","state_code":"02","district":"Prakasam","district_code":"549","address1":"Ongole","address2":"","latitude":"15.8417","longitude":"80.0924","accuracy":"4"},{"address3":"J.Pangulur","state":"Andhra Pradesh","state_code":"02","district":"Prakasam","district_code":"549","address1":"Prakasam","address2":"","latitude":"15.8212","longitude":"79.9261","accuracy":"3"},{"address3":"Chandalur","state":"Andhra Pradesh","state_code":"02","district":"Prakasam","district_code":"549","address1":"Chirala","address2":"","latitude":"15.8026","longitude":"79.5998","accuracy":"4"},{"address3":"Arikatlavaripalem","state":"Andhra Pradesh","state_code":"02","district":"Prakasam","district_code":"549","address1":"Ongole","address2":"","latitude":"15.8212","longitude":"79.9261","accuracy":"3"}],"523223":[{"address3":"Ballavaram","state":"Andhra Pradesh","state_code":"02","district":"Prakasam","district_code":"549","address1":"Kanigiri","address2":"","latitude":"15.362","longitude":"79.3996","accuracy":"4"},{"address3":"Nagireddipalli","state":"Andhra Pradesh","state_code":"02","district":"Prakasam","district_code":"549","address1":"Kanigiri","address2":"","latitude":"15.6213","longitude":"79.5158","accuracy":"4"},{"address3":"Narasamambapuram","state":"Andhra Pradesh","state_code":"02","district":"Prakasam","district_code":"549","address1":"Kanigiri","address2":"","latitude":"15.3731","longitude":"79.4153","accuracy":"4"},{"address3":"Pedagogulapalli","state":"Andhra Pradesh","state_code":"02","district":"Prakasam","district_code":"549","address1":"Kanigiri","address2":"","latitude":"15.0759","longitude":"79.4645","accuracy":"3"},{"address3":"Morapagunta","state":"Andhra Pradesh","state_code":"02","district":"Prakasam","district_code":"549","address1":"Kanigiri","address2":"","latitude":"15.2973","longitude":"79.3661","accuracy":"4"},{"address3":"Gollaplli","state":"Andhra Pradesh","state_code":"02","district":"Prakasam","district_code":"549","address1":"Kanigiri","address2":"","latitude":"15.0759","longitude":"79.4645","accuracy":"3"},{"address3":"Kotalapalli","state":"Andhra Pradesh","state_code":"02","district":"Prakasam","district_code":"549","address1":"Kanigiri","address2":"","latitude":"15.0759","longitude":"79.4645","accuracy":"3"},{"address3":"Mogallur","state":"Andhra Pradesh","state_code":"02","district":"Prakasam","district_code":"549","address1":"Kanigiri","address2":"","latitude":"15.0419","longitude":"79.8733","accuracy":"4"}],"523224":[{"address3":"Kanakanampadu","state":"Andhra Pradesh","state_code":"02","district":"Prakasam","district_code":"549","address1":"Kanigiri","address2":"","latitude":"15.1566","longitude":"79.3617","accuracy":"3"},{"address3":"Gannavaram","state":"Andhra Pradesh","state_code":"02","district":"Prakasam","district_code":"549","address1":"Kanigiri","address2":"","latitude":"15.348","longitude":"79.3287","accuracy":"4"},{"address3":"Rallapalli","state":"Andhra Pradesh","state_code":"02","district":"Prakasam","district_code":"549","address1":"Kanigiri","address2":"","latitude":"15.6213","longitude":"79.5158","accuracy":"4"},{"address3":"Pulikuntla","state":"Andhra Pradesh","state_code":"02","district":"Prakasam","district_code":"549","address1":"Kanigiri","address2":"","latitude":"15.1566","longitude":"79.3617","accuracy":"3"},{"address3":"Ramagopalapuram","state":"Andhra Pradesh","state_code":"02","district":"Prakasam","district_code":"549","address1":"Kanigiri","address2":"","latitude":"15.3408","longitude":"79.3294","accuracy":"4"},{"address3":"Jallapaem","state":"Andhra Pradesh","state_code":"02","district":"Prakasam","district_code":"549","address1":"Kanigiri","address2":"","latitude":"15.1566","longitude":"79.3617","accuracy":"3"},{"address3":"Veligandla","state":"Andhra Pradesh","state_code":"02","district":"Prakasam","district_code":"549","address1":"Kanigiri","address2":"","latitude":"15.3417","longitude":"79.3445","accuracy":"4"},{"address3":"Panduvanagulavaram","state":"Andhra Pradesh","state_code":"02","district":"Prakasam","district_code":"549","address1":"Kanigiri","address2":"","latitude":"15.3785","longitude":"79.2731","accuracy":"4"},{"address3":"Immadicheruvu","state":"Andhra Pradesh","state_code":"02","district":"Prakasam","district_code":"549","address1":"Kanigiri","address2":"","latitude":"15.3381","longitude":"79.2872","accuracy":"4"},{"address3":"Vedullacheruvu","state":"Andhra Pradesh","state_code":"02","district":"Prakasam","district_code":"549","address1":"Kanigiri","address2":"","latitude":"15.3139","longitude":"79.2318","accuracy":"4"},{"address3":"Gokulam","state":"Andhra Pradesh","state_code":"02","district":"Prakasam","district_code":"549","address1":"Kanigiri","address2":"","latitude":"15.3353","longitude":"79.3725","accuracy":"4"}],"523225":[{"address3":"Santhanuthalapadu","state":"Andhra Pradesh","state_code":"02","district":"Prakasam","district_code":"549","address1":"Ongole","address2":"","latitude":"15.5776","longitude":"79.9764","accuracy":"3"},{"address3":"Gangavaram","state":"Andhra Pradesh","state_code":"02","district":"Prakasam","district_code":"549","address1":"Ongole","address2":"","latitude":"15.8083","longitude":"80.1651","accuracy":"4"},{"address3":"Yendluru","state":"Andhra Pradesh","state_code":"02","district":"Prakasam","district_code":"549","address1":"Ongole","address2":"","latitude":"15.5776","longitude":"79.9764","accuracy":"3"},{"address3":"Pernamitta","state":"Andhra Pradesh","state_code":"02","district":"Prakasam","district_code":"549","address1":"Ongole","address2":"","latitude":"15.5357","longitude":"80.0039","accuracy":"4"},{"address3":"Y.Laxmipuram","state":"Andhra Pradesh","state_code":"02","district":"Prakasam","district_code":"549","address1":"Ongole","address2":"","latitude":"15.5776","longitude":"79.9764","accuracy":"3"},{"address3":"Mainampadu","state":"Andhra Pradesh","state_code":"02","district":"Prakasam","district_code":"549","address1":"Ongole","address2":"","latitude":"15.5713","longitude":"79.953","accuracy":"4"},{"address3":"B.Machavaram","state":"Andhra Pradesh","state_code":"02","district":"Prakasam","district_code":"549","address1":"Ongole","address2":"","latitude":"15.5776","longitude":"79.9764","accuracy":"3"},{"address3":"Enikapadu","state":"Andhra Pradesh","state_code":"02","district":"Prakasam","district_code":"549","address1":"Ongole","address2":"","latitude":"15.5118","longitude":"79.8737","accuracy":"4"},{"address3":"Maddulur","state":"Andhra Pradesh","state_code":"02","district":"Prakasam","district_code":"549","address1":"Ongole","address2":"","latitude":"15.5776","longitude":"79.9764","accuracy":"3"},{"address3":"Rudravaram","state":"Andhra Pradesh","state_code":"02","district":"Prakasam","district_code":"549","address1":"Ongole","address2":"","latitude":"15.6087","longitude":"79.9635","accuracy":"4"},{"address3":"Pidathalagudipadu","state":"Andhra Pradesh","state_code":"02","district":"Prakasam","district_code":"549","address1":"Ongole","address2":"","latitude":"15.5776","longitude":"79.9764","accuracy":"3"},{"address3":"Gummalampadu","state":"Andhra Pradesh","state_code":"02","district":"Prakasam","district_code":"549","address1":"Ongole","address2":"","latitude":"15.5083","longitude":"79.9064","accuracy":"4"},{"address3":"Mangamuru","state":"Andhra Pradesh","state_code":"02","district":"Prakasam","district_code":"549","address1":"Ongole","address2":"","latitude":"15.4994","longitude":"79.9694","accuracy":"4"}],"523226":[{"address3":"Chimakurty","state":"Andhra Pradesh","state_code":"02","district":"Prakasam","district_code":"549","address1":"Ongole","address2":"","latitude":"15.5719","longitude":"79.867","accuracy":"3"},{"address3":"Gonugunta","state":"Andhra Pradesh","state_code":"02","district":"Prakasam","district_code":"549","address1":"Ongole","address2":"","latitude":"15.5389","longitude":"79.8606","accuracy":"4"},{"address3":"Chilamkur","state":"Andhra Pradesh","state_code":"02","district":"Prakasam","district_code":"549","address1":"Ongole","address2":"","latitude":"15.5719","longitude":"79.867","accuracy":"3"},{"address3":"Bandlamudi","state":"Andhra Pradesh","state_code":"02","district":"Prakasam","district_code":"549","address1":"Ongole","address2":"","latitude":"15.6065","longitude":"79.898","accuracy":"4"},{"address3":"Bhusarapalli","state":"Andhra Pradesh","state_code":"02","district":"Prakasam","district_code":"549","address1":"Ongole","address2":"","latitude":"15.5719","longitude":"79.867","accuracy":"3"},{"address3":"Manchikalapadu","state":"Andhra Pradesh","state_code":"02","district":"Prakasam","district_code":"549","address1":"Ongole","address2":"","latitude":"15.5968","longitude":"79.8993","accuracy":"4"},{"address3":"Kunamnenivaripalem","state":"Andhra Pradesh","state_code":"02","district":"Prakasam","district_code":"549","address1":"Ongole","address2":"","latitude":"15.5644","longitude":"79.869","accuracy":"4"},{"address3":"Pulikonda","state":"Andhra Pradesh","state_code":"02","district":"Prakasam","district_code":"549","address1":"Ongole","address2":"","latitude":"15.5529","longitude":"79.8083","accuracy":"4"},{"address3":"R.L.Puram","state":"Andhra Pradesh","state_code":"02","district":"Prakasam","district_code":"549","address1":"Ongole","address2":"","latitude":"15.5719","longitude":"79.867","accuracy":"3"},{"address3":"G.L.Puram","state":"Andhra Pradesh","state_code":"02","district":"Prakasam","district_code":"549","address1":"Ongole","address2":"","latitude":"15.5719","longitude":"79.867","accuracy":"3"},{"address3":"Chinaravipadu","state":"Andhra Pradesh","state_code":"02","district":"Prakasam","district_code":"549","address1":"Ongole","address2":"","latitude":"15.5719","longitude":"79.867","accuracy":"3"}],"523227":[{"address3":"Doddichintala","state":"Andhra Pradesh","state_code":"02","district":"Prakasam","district_code":"549","address1":"Kanigiri","address2":"","latitude":"15.4352","longitude":"79.398","accuracy":"4"},{"address3":"Seetharampuram","state":"Andhra Pradesh","state_code":"02","district":"Prakasam","district_code":"549","address1":"Kanigiri","address2":"","latitude":"15.4312","longitude":"79.3792","accuracy":"3"},{"address3":"Kutagundla","state":"Andhra Pradesh","state_code":"02","district":"Prakasam","district_code":"549","address1":"Kanigiri","address2":"","latitude":"15.4272","longitude":"79.3604","accuracy":"4"},{"address3":"Edaravaripalli","state":"Andhra Pradesh","state_code":"02","district":"Prakasam","district_code":"549","address1":"Kanigiri","address2":"","latitude":"15.4312","longitude":"79.3792","accuracy":"3"},{"address3":"Hazipuram","state":"Andhra Pradesh","state_code":"02","district":"Prakasam","district_code":"549","address1":"Kanigiri","address2":"","latitude":"15.4312","longitude":"79.3792","accuracy":"3"},{"address3":"Pedadasaripalli","state":"Andhra Pradesh","state_code":"02","district":"Prakasam","district_code":"549","address1":"Kanigiri","address2":"","latitude":"15.4312","longitude":"79.3792","accuracy":"3"},{"address3":"Pedadasullapalli","state":"Andhra Pradesh","state_code":"02","district":"Prakasam","district_code":"549","address1":"Kanigiri","address2":"","latitude":"15.4312","longitude":"79.3792","accuracy":"3"},{"address3":"Hanumanthunipadu","state":"Andhra Pradesh","state_code":"02","district":"Prakasam","district_code":"549","address1":"Kanigiri","address2":"","latitude":"15.4312","longitude":"79.3792","accuracy":"3"},{"address3":"Chinmuppalapadu","state":"Andhra Pradesh","state_code":"02","district":"Prakasam","district_code":"549","address1":"Kanigiri","address2":"","latitude":"15.4312","longitude":"79.3792","accuracy":"3"}],"523228":[{"address3":"P.G.Palli","state":"Andhra Pradesh","state_code":"02","district":"Prakasam","district_code":"549","address1":"Kanigiri","address2":"","latitude":"15.4664","longitude":"79.3176","accuracy":"3"},{"address3":"Nandanavanam","state":"Andhra Pradesh","state_code":"02","district":"Prakasam","district_code":"549","address1":"Kanigiri","address2":"","latitude":"15.4705","longitude":"79.2743","accuracy":"4"},{"address3":"Gudipatipalli","state":"Andhra Pradesh","state_code":"02","district":"Prakasam","district_code":"549","address1":"Kanigiri","address2":"","latitude":"15.4664","longitude":"79.3176","accuracy":"3"},{"address3":"Nallagandla","state":"Andhra Pradesh","state_code":"02","district":"Prakasam","district_code":"549","address1":"Kanigiri","address2":"","latitude":"15.4684","longitude":"79.359","accuracy":"4"},{"address3":"Ummanapalli","state":"Andhra Pradesh","state_code":"02","district":"Prakasam","district_code":"549","address1":"Kanigiri","address2":"","latitude":"15.4664","longitude":"79.3176","accuracy":"3"},{"address3":"Valicherla","state":"Andhra Pradesh","state_code":"02","district":"Prakasam","district_code":"549","address1":"Kanigiri","address2":"","latitude":"15.4602","longitude":"79.3196","accuracy":"4"},{"address3":"Kudumalaguntla","state":"Andhra Pradesh","state_code":"02","district":"Prakasam","district_code":"549","address1":"Kanigiri","address2":"","latitude":"15.4664","longitude":"79.3176","accuracy":"3"},{"address3":"Mangampalli","state":"Andhra Pradesh","state_code":"02","district":"Prakasam","district_code":"549","address1":"Kanigiri","address2":"","latitude":"15.4664","longitude":"79.3176","accuracy":"3"},{"address3":"Narayapalli","state":"Andhra Pradesh","state_code":"02","district":"Prakasam","district_code":"549","address1":"Kanigiri","address2":"","latitude":"15.4664","longitude":"79.3176","accuracy":"3"},{"address3":"Timmareddypalli","state":"Andhra Pradesh","state_code":"02","district":"Prakasam","district_code":"549","address1":"Kanigiri","address2":"","latitude":"15.4664","longitude":"79.3176","accuracy":"3"}],"523230":[{"address3":"Tummagunta","state":"Andhra Pradesh","state_code":"02","district":"Prakasam","district_code":"549","address1":"Podili H.O","address2":"","latitude":"15.2041","longitude":"79.2006","accuracy":"4"},{"address3":"Lingareddipalli","state":"Andhra Pradesh","state_code":"02","district":"Prakasam","district_code":"549","address1":"Podili H.O","address2":"","latitude":"15.6213","longitude":"79.5158","accuracy":"4"},{"address3":"Pathapadu","state":"Andhra Pradesh","state_code":"02","district":"Prakasam","district_code":"549","address1":"Kanigiri","address2":"","latitude":"15.2634","longitude":"79.4215","accuracy":"4"},{"address3":"Ballipalli","state":"Andhra Pradesh","state_code":"02","district":"Prakasam","district_code":"549","address1":"Kanigiri","address2":"","latitude":"15.1177","longitude":"79.4617","accuracy":"3"},{"address3":"Markondapuram","state":"Andhra Pradesh","state_code":"02","district":"Prakasam","district_code":"549","address1":"Kanigiri","address2":"","latitude":"15.2069","longitude":"79.4742","accuracy":"4"},{"address3":"Cheerladinne","state":"Andhra Pradesh","state_code":"02","district":"Prakasam","district_code":"549","address1":"Kanigiri","address2":"","latitude":"15.1177","longitude":"79.4617","accuracy":"3"},{"address3":"Kanigiri","state":"Andhra Pradesh","state_code":"02","district":"Prakasam","district_code":"549","address1":"Kanigiri","address2":"","latitude":"15.4056","longitude":"79.5069","accuracy":"4"},{"address3":"Kancharlavaripalli","state":"Andhra Pradesh","state_code":"02","district":"Prakasam","district_code":"549","address1":"Kanigiri","address2":"","latitude":"15.1177","longitude":"79.4617","accuracy":"3"},{"address3":"Raviguntapalli","state":"Andhra Pradesh","state_code":"02","district":"Prakasam","district_code":"549","address1":"Kanigiri","address2":"","latitude":"15.2289","longitude":"79.4044","accuracy":"4"},{"address3":"Chakirala","state":"Andhra Pradesh","state_code":"02","district":"Prakasam","district_code":"549","address1":"Kanigiri","address2":"","latitude":"15.1177","longitude":"79.4617","accuracy":"3"},{"address3":"Botikarlapadu","state":"Andhra Pradesh","state_code":"02","district":"Prakasam","district_code":"549","address1":"Kanigiri","address2":"","latitude":"15.2568","longitude":"79.4047","accuracy":"4"}],"523240":[{"address3":"Podili H.O","state":"Andhra Pradesh","state_code":"02","district":"Prakasam","district_code":"549","address1":"Kanigiri","address2":"","latitude":"15.3631","longitude":"79.4272","accuracy":"1"}],"523241":[{"address3":"Konakanamitla","state":"Andhra Pradesh","state_code":"02","district":"Prakasam","district_code":"549","address1":"Kanigiri","address2":"","latitude":"15.5983","longitude":"79.4658","accuracy":"3"},{"address3":"Siddavaram","state":"Andhra Pradesh","state_code":"02","district":"Prakasam","district_code":"549","address1":"Kanigiri","address2":"","latitude":"15.6045","longitude":"79.5126","accuracy":"4"},{"address3":"Regadipalli","state":"Andhra Pradesh","state_code":"02","district":"Prakasam","district_code":"549","address1":"Kanigiri","address2":"","latitude":"15.5983","longitude":"79.4658","accuracy":"3"},{"address3":"Veligandla","state":"Andhra Pradesh","state_code":"02","district":"Prakasam","district_code":"549","address1":"Kanigiri","address2":"","latitude":"15.3417","longitude":"79.3445","accuracy":"4"},{"address3":"Kaluzuvvalapadu","state":"Andhra Pradesh","state_code":"02","district":"Prakasam","district_code":"549","address1":"Kanigiri","address2":"","latitude":"15.5983","longitude":"79.4658","accuracy":"3"},{"address3":"Munagapadu","state":"Andhra Pradesh","state_code":"02","district":"Prakasam","district_code":"549","address1":"Kanigiri","address2":"","latitude":"15.7096","longitude":"79.5348","accuracy":"4"},{"address3":"Egalapadu","state":"Andhra Pradesh","state_code":"02","district":"Prakasam","district_code":"549","address1":"Kanigiri","address2":"","latitude":"15.5983","longitude":"79.4658","accuracy":"3"},{"address3":"Vaddimadugu","state":"Andhra Pradesh","state_code":"02","district":"Prakasam","district_code":"549","address1":"Kanigiri","address2":"","latitude":"15.6748","longitude":"79.4367","accuracy":"4"},{"address3":"Tuvvapadu","state":"Andhra Pradesh","state_code":"02","district":"Prakasam","district_code":"549","address1":"Kanigiri","address2":"","latitude":"15.6302","longitude":"79.4365","accuracy":"4"},{"address3":"Mugachintala","state":"Andhra Pradesh","state_code":"02","district":"Prakasam","district_code":"549","address1":"Kanigiri","address2":"","latitude":"15.6289","longitude":"79.5294","accuracy":"4"},{"address3":"Nagarajukunta","state":"Andhra Pradesh","state_code":"02","district":"Prakasam","district_code":"549","address1":"Kanigiri","address2":"","latitude":"15.5983","longitude":"79.4658","accuracy":"3"}],"523245":[{"address3":"Pedarikatla","state":"Andhra Pradesh","state_code":"02","district":"Prakasam","district_code":"549","address1":"Kanigiri","address2":"","latitude":"15.5746","longitude":"79.3119","accuracy":"3"},{"address3":"Sudanagunta","state":"Andhra Pradesh","state_code":"02","district":"Prakasam","district_code":"549","address1":"Kanigiri","address2":"","latitude":"15.6607","longitude":"79.5906","accuracy":"4"},{"address3":"Chinarikatla","state":"Andhra Pradesh","state_code":"02","district":"Prakasam","district_code":"549","address1":"Kanigiri","address2":"","latitude":"15.5746","longitude":"79.3119","accuracy":"3"},{"address3":"Zuvvaleru","state":"Andhra Pradesh","state_code":"02","district":"Prakasam","district_code":"549","address1":"Kanigiri","address2":"","latitude":"15.6378","longitude":"79.6141","accuracy":"4"},{"address3":"Yadavalli","state":"Andhra Pradesh","state_code":"02","district":"Prakasam","district_code":"549","address1":"Kanigiri","address2":"","latitude":"15.5746","longitude":"79.3119","accuracy":"3"},{"address3":"Akkacheruvu","state":"Andhra Pradesh","state_code":"02","district":"Prakasam","district_code":"549","address1":"Kanigiri","address2":"","latitude":"15.6361","longitude":"79.5919","accuracy":"4"},{"address3":"Challagirigala","state":"Andhra Pradesh","state_code":"02","district":"Prakasam","district_code":"549","address1":"Kanigiri","address2":"","latitude":"15.5746","longitude":"79.3119","accuracy":"3"},{"address3":"Nandanamarella","state":"Andhra Pradesh","state_code":"02","district":"Prakasam","district_code":"549","address1":"Kanigiri","address2":"","latitude":"15.4841","longitude":"79.5097","accuracy":"4"},{"address3":"Kambalapadu","state":"Andhra Pradesh","state_code":"02","district":"Prakasam","district_code":"549","address1":"Kanigiri","address2":"","latitude":"15.6213","longitude":"79.5158","accuracy":"4"},{"address3":"Madalavaripalem","state":"Andhra Pradesh","state_code":"02","district":"Prakasam","district_code":"549","address1":"Kanigiri","address2":"","latitude":"15.6107","longitude":"79.5882","accuracy":"4"},{"address3":"Buchannapalem","state":"Andhra Pradesh","state_code":"02","district":"Prakasam","district_code":"549","address1":"Kanigiri","address2":"","latitude":"15.5746","longitude":"79.3119","accuracy":"3"},{"address3":"Baduguleru","state":"Andhra Pradesh","state_code":"02","district":"Prakasam","district_code":"549","address1":"Kanigiri","address2":"","latitude":"15.4853","longitude":"79.4772","accuracy":"4"},{"address3":"Dirisavancha","state":"Andhra Pradesh","state_code":"02","district":"Prakasam","district_code":"549","address1":"Kanigiri","address2":"","latitude":"15.5746","longitude":"79.3119","accuracy":"3"},{"address3":"Irsalagundam","state":"Andhra Pradesh","state_code":"02","district":"Prakasam","district_code":"549","address1":"Kanigiri","address2":"","latitude":"15.5746","longitude":"79.3119","accuracy":"3"}],"523246":[{"address3":"Vemulapadu","state":"Andhra Pradesh","state_code":"02","district":"Prakasam","district_code":"549","address1":"Kanigiri","address2":"","latitude":"15.5321","longitude":"79.3402","accuracy":"4"},{"address3":"Nagampalli","state":"Andhra Pradesh","state_code":"02","district":"Prakasam","district_code":"549","address1":"Kanigiri","address2":"","latitude":"15.6213","longitude":"79.5158","accuracy":"4"},{"address3":"Katragunta","state":"Andhra Pradesh","state_code":"02","district":"Prakasam","district_code":"549","address1":"Kanigiri","address2":"","latitude":"15.6008","longitude":"79.4431","accuracy":"4"},{"address3":"Perareddipalli","state":"Andhra Pradesh","state_code":"02","district":"Prakasam","district_code":"549","address1":"Kanigiri","address2":"","latitude":"15.2081","longitude":"79.4434","accuracy":"3"},{"address3":"Pathapadu","state":"Andhra Pradesh","state_code":"02","district":"Prakasam","district_code":"549","address1":"Kanigiri","address2":"","latitude":"15.2634","longitude":"79.4215","accuracy":"4"},{"address3":"Mohammadapuram","state":"Andhra Pradesh","state_code":"02","district":"Prakasam","district_code":"549","address1":"Kanigiri","address2":"","latitude":"15.2081","longitude":"79.4434","accuracy":"3"},{"address3":"Garimenapenta","state":"Andhra Pradesh","state_code":"02","district":"Prakasam","district_code":"549","address1":"Kanigiri","address2":"","latitude":"15.5722","longitude":"79.4375","accuracy":"4"},{"address3":"Gayamvaripalli","state":"Andhra Pradesh","state_code":"02","district":"Prakasam","district_code":"549","address1":"Kanigiri","address2":"","latitude":"15.2081","longitude":"79.4434","accuracy":"3"},{"address3":"Gotlagattu","state":"Andhra Pradesh","state_code":"02","district":"Prakasam","district_code":"549","address1":"Kanigiri","address2":"","latitude":"15.5519","longitude":"79.4201","accuracy":"4"},{"address3":"Gajulaplli","state":"Andhra Pradesh","state_code":"02","district":"Prakasam","district_code":"549","address1":"Kanigiri","address2":"","latitude":"15.2081","longitude":"79.4434","accuracy":"3"},{"address3":"Chinamanagundam","state":"Andhra Pradesh","state_code":"02","district":"Prakasam","district_code":"549","address1":"Kanigiri","address2":"","latitude":"15.2081","longitude":"79.4434","accuracy":"3"},{"address3":"Batchalakurapadu","state":"Andhra Pradesh","state_code":"02","district":"Prakasam","district_code":"549","address1":"Kanigiri","address2":"","latitude":"15.2081","longitude":"79.4434","accuracy":"3"},{"address3":"Naidupet","state":"Andhra Pradesh","state_code":"02","district":"Prakasam","district_code":"549","address1":"Kanigiri","address2":"","latitude":"15.2081","longitude":"79.4434","accuracy":"3"}],"523247":[{"address3":"Chalivendram","state":"Andhra Pradesh","state_code":"02","district":"Prakasam","district_code":"549","address1":"Kanigiri","address2":"","latitude":"15.083","longitude":"79.4956","accuracy":"3"},{"address3":"Devavaram","state":"Andhra Pradesh","state_code":"02","district":"Prakasam","district_code":"549","address1":"Kanigiri","address2":"","latitude":"15.8494","longitude":"79.7019","accuracy":"4"},{"address3":"Kothapalli","state":"Andhra Pradesh","state_code":"02","district":"Prakasam","district_code":"549","address1":"Kanigiri","address2":"","latitude":"15.6213","longitude":"79.5158","accuracy":"4"},{"address3":"Darsi","state":"Andhra Pradesh","state_code":"02","district":"Prakasam","district_code":"549","address1":"Kanigiri","address2":"","latitude":"15.7698","longitude":"79.6794","accuracy":"4"},{"address3":"Gollapalli","state":"Andhra Pradesh","state_code":"02","district":"Prakasam","district_code":"549","address1":"Kanigiri","address2":"","latitude":"15.6213","longitude":"79.5158","accuracy":"4"},{"address3":"Pulipadu","state":"Andhra Pradesh","state_code":"02","district":"Prakasam","district_code":"549","address1":"Kanigiri","address2":"","latitude":"15.7849","longitude":"79.7114","accuracy":"4"},{"address3":"Ramachandrapuram","state":"Andhra Pradesh","state_code":"02","district":"Prakasam","district_code":"549","address1":"Kanigiri","address2":"","latitude":"15.718","longitude":"79.6422","accuracy":"4"},{"address3":"Ramulaveedu","state":"Andhra Pradesh","state_code":"02","district":"Prakasam","district_code":"549","address1":"Kanigiri","address2":"","latitude":"15.083","longitude":"79.4956","accuracy":"3"},{"address3":"Venkatapuram","state":"Andhra Pradesh","state_code":"02","district":"Prakasam","district_code":"549","address1":"Kanigiri","address2":"","latitude":"15.1187","longitude":"79.391","accuracy":"4"},{"address3":"Kunchepalli","state":"Andhra Pradesh","state_code":"02","district":"Prakasam","district_code":"549","address1":"Kanigiri","address2":"","latitude":"15.083","longitude":"79.4956","accuracy":"3"},{"address3":"Venkatachalampalli","state":"Andhra Pradesh","state_code":"02","district":"Prakasam","district_code":"549","address1":"Kanigiri","address2":"","latitude":"15.083","longitude":"79.4956","accuracy":"3"},{"address3":"Thurupuchavatapalem","state":"Andhra Pradesh","state_code":"02","district":"Prakasam","district_code":"549","address1":"Kanigiri","address2":"","latitude":"15.083","longitude":"79.4956","accuracy":"3"},{"address3":"Raja,mpalli","state":"Andhra Pradesh","state_code":"02","district":"Prakasam","district_code":"549","address1":"Kanigiri","address2":"","latitude":"15.083","longitude":"79.4956","accuracy":"3"},{"address3":"Pothavaram","state":"Andhra Pradesh","state_code":"02","district":"Prakasam","district_code":"549","address1":"Kanigiri","address2":"","latitude":"15.083","longitude":"79.4956","accuracy":"3"},{"address3":"Nimmareddipalem","state":"Andhra Pradesh","state_code":"02","district":"Prakasam","district_code":"549","address1":"Kanigiri","address2":"","latitude":"15.083","longitude":"79.4956","accuracy":"3"}],"523252":[{"address3":"Pothakamur","state":"Andhra Pradesh","state_code":"02","district":"Prakasam","district_code":"549","address1":"Kanigiri","address2":"","latitude":"15.7321","longitude":"79.7953","accuracy":"3"},{"address3":"Bellamkondavaripalem","state":"Andhra Pradesh","state_code":"02","district":"Prakasam","district_code":"549","address1":"Kanigiri","address2":"","latitude":"15.7229","longitude":"79.8185","accuracy":"4"},{"address3":"East Veerayapalem","state":"Andhra Pradesh","state_code":"02","district":"Prakasam","district_code":"549","address1":"Kanigiri","address2":"","latitude":"15.7321","longitude":"79.7953","accuracy":"3"},{"address3":"Singanapalem","state":"Andhra Pradesh","state_code":"02","district":"Prakasam","district_code":"549","address1":"Kanigiri","address2":"","latitude":"15.7408","longitude":"79.799","accuracy":"4"},{"address3":"Thotavenganapalem","state":"Andhra Pradesh","state_code":"02","district":"Prakasam","district_code":"549","address1":"Kanigiri","address2":"","latitude":"15.7321","longitude":"79.7953","accuracy":"3"},{"address3":"Botlapalem","state":"Andhra Pradesh","state_code":"02","district":"Prakasam","district_code":"549","address1":"Kanigiri","address2":"","latitude":"15.7326","longitude":"79.7684","accuracy":"4"}],"523253":[{"address3":"Uppalapadu (P)","state":"Andhra Pradesh","state_code":"02","district":"Prakasam","district_code":"549","address1":"Kanigiri","address2":"","latitude":"15.5352","longitude":"79.7119","accuracy":"3"},{"address3":"Ankepalli","state":"Andhra Pradesh","state_code":"02","district":"Prakasam","district_code":"549","address1":"Kanigiri","address2":"","latitude":"15.5352","longitude":"79.7119","accuracy":"3"},{"address3":"Annavaram","state":"Andhra Pradesh","state_code":"02","district":"Prakasam","district_code":"549","address1":"Kanigiri","address2":"","latitude":"15.6221","longitude":"79.7006","accuracy":"4"},{"address3":"Sivarayunipeta","state":"Andhra Pradesh","state_code":"02","district":"Prakasam","district_code":"549","address1":"Kanigiri","address2":"","latitude":"15.5352","longitude":"79.7119","accuracy":"3"},{"address3":"Kellampalli","state":"Andhra Pradesh","state_code":"02","district":"Prakasam","district_code":"549","address1":"Kanigiri","address2":"","latitude":"15.5352","longitude":"79.7119","accuracy":"3"},{"address3":"Gundlasamudram","state":"Andhra Pradesh","state_code":"02","district":"Prakasam","district_code":"549","address1":"Kanigiri","address2":"","latitude":"15.5556","longitude":"79.6531","accuracy":"4"},{"address3":"Veluru","state":"Andhra Pradesh","state_code":"02","district":"Prakasam","district_code":"549","address1":"Kanigiri","address2":"","latitude":"15.5352","longitude":"79.7119","accuracy":"3"},{"address3":"Nippatlapadu","state":"Andhra Pradesh","state_code":"02","district":"Prakasam","district_code":"549","address1":"Kanigiri","address2":"","latitude":"15.6012","longitude":"79.7635","accuracy":"4"},{"address3":"Boddikurapadu","state":"Andhra Pradesh","state_code":"02","district":"Prakasam","district_code":"549","address1":"Kanigiri","address2":"","latitude":"15.6591","longitude":"79.7509","accuracy":"4"},{"address3":"Chimata","state":"Andhra Pradesh","state_code":"02","district":"Prakasam","district_code":"549","address1":"Kanigiri","address2":"","latitude":"15.4916","longitude":"79.7447","accuracy":"4"},{"address3":"Vallayapalem","state":"Andhra Pradesh","state_code":"02","district":"Prakasam","district_code":"549","address1":"Kanigiri","address2":"","latitude":"15.5096","longitude":"79.6962","accuracy":"4"},{"address3":"Tripurasundaripuram","state":"Andhra Pradesh","state_code":"02","district":"Prakasam","district_code":"549","address1":"Kanigiri","address2":"","latitude":"15.6445","longitude":"79.7257","accuracy":"4"},{"address3":"Bodavada","state":"Andhra Pradesh","state_code":"02","district":"Prakasam","district_code":"549","address1":"Kanigiri","address2":"","latitude":"15.0741","longitude":"79.6108","accuracy":"4"},{"address3":"Devarapalem","state":"Andhra Pradesh","state_code":"02","district":"Prakasam","district_code":"549","address1":"Kanigiri","address2":"","latitude":"15.6331","longitude":"79.7689","accuracy":"4"},{"address3":"Kakarla","state":"Andhra Pradesh","state_code":"02","district":"Prakasam","district_code":"549","address1":"Prakasam","address2":"","latitude":"15.5236","longitude":"79.7514","accuracy":"4"},{"address3":"Marripudi","state":"Andhra Pradesh","state_code":"02","district":"Prakasam","district_code":"549","address1":"Kanigiri","address2":"","latitude":"15.5135","longitude":"79.6532","accuracy":"4"},{"address3":"Talamalla","state":"Andhra Pradesh","state_code":"02","district":"Prakasam","district_code":"549","address1":"Kanigiri","address2":"","latitude":"15.5944","longitude":"79.7238","accuracy":"4"}],"523254":[{"address3":"Kothayeruvaripalli","state":"Andhra Pradesh","state_code":"02","district":"Prakasam","district_code":"549","address1":"Kanigiri","address2":"","latitude":"15.381","longitude":"79.5457","accuracy":"3"},{"address3":"Garlapeta","state":"Andhra Pradesh","state_code":"02","district":"Prakasam","district_code":"549","address1":"Kanigiri","address2":"","latitude":"15.412","longitude":"79.5927","accuracy":"4"},{"address3":"Bommireddipalli","state":"Andhra Pradesh","state_code":"02","district":"Prakasam","district_code":"549","address1":"Kanigiri","address2":"","latitude":"15.381","longitude":"79.5457","accuracy":"3"},{"address3":"Sankhavaram","state":"Andhra Pradesh","state_code":"02","district":"Prakasam","district_code":"549","address1":"Kanigiri","address2":"","latitude":"15.3907","longitude":"79.5254","accuracy":"4"},{"address3":"Chinairlapadu","state":"Andhra Pradesh","state_code":"02","district":"Prakasam","district_code":"549","address1":"Kanigiri","address2":"","latitude":"15.381","longitude":"79.5457","accuracy":"3"},{"address3":"Kalagotla","state":"Andhra Pradesh","state_code":"02","district":"Prakasam","district_code":"549","address1":"Kanigiri","address2":"","latitude":"15.3402","longitude":"79.519","accuracy":"4"}],"523260":[{"address3":"Darsiagraharam","state":"Andhra Pradesh","state_code":"02","district":"Prakasam","district_code":"549","address1":"Ongole","address2":"","latitude":"15.9263","longitude":"80.0481","accuracy":"3"},{"address3":"Dharmavaram","state":"Andhra Pradesh","state_code":"02","district":"Prakasam","district_code":"549","address1":"Ongole","address2":"","latitude":"15.9071","longitude":"80.0049","accuracy":"4"},{"address3":"Sankavarappadu","state":"Andhra Pradesh","state_code":"02","district":"Prakasam","district_code":"549","address1":"Ongole","address2":"","latitude":"15.9263","longitude":"80.0481","accuracy":"3"},{"address3":"Konanki","state":"Andhra Pradesh","state_code":"02","district":"Prakasam","district_code":"549","address1":"Ongole","address2":"","latitude":"15.9214","longitude":"80.0812","accuracy":"4"},{"address3":"Ramkur","state":"Andhra Pradesh","state_code":"02","district":"Prakasam","district_code":"549","address1":"Ongole","address2":"","latitude":"15.9263","longitude":"80.0481","accuracy":"3"},{"address3":"Valaparla","state":"Andhra Pradesh","state_code":"02","district":"Prakasam","district_code":"549","address1":"Ongole","address2":"","latitude":"15.9241","longitude":"80.0492","accuracy":"4"},{"address3":"Pedjangalapalli","state":"Andhra Pradesh","state_code":"02","district":"Prakasam","district_code":"549","address1":"Ongole","address2":"","latitude":"15.9263","longitude":"80.0481","accuracy":"3"},{"address3":"Chimmiribanda","state":"Andhra Pradesh","state_code":"02","district":"Prakasam","district_code":"549","address1":"Ongole","address2":"","latitude":"15.9299","longitude":"80.1136","accuracy":"4"},{"address3":"Chinakothapalli","state":"Andhra Pradesh","state_code":"02","district":"Prakasam","district_code":"549","address1":"Ongole","address2":"","latitude":"15.9263","longitude":"80.0481","accuracy":"3"},{"address3":"Komminenivaripalem","state":"Andhra Pradesh","state_code":"02","district":"Prakasam","district_code":"549","address1":"Ongole","address2":"","latitude":"15.9489","longitude":"79.9916","accuracy":"4"}],"523261":[{"address3":"Bollapalli","state":"Andhra Pradesh","state_code":"02","district":"Prakasam","district_code":"549","address1":"Ongole","address2":"","latitude":"15.8601","longitude":"80.0676","accuracy":"3"},{"address3":"Kondamuru","state":"Andhra Pradesh","state_code":"02","district":"Prakasam","district_code":"549","address1":"Ongole","address2":"","latitude":"15.8312","longitude":"80.0653","accuracy":"4"},{"address3":"Reningavaram","state":"Andhra Pradesh","state_code":"02","district":"Prakasam","district_code":"549","address1":"Ongole","address2":"","latitude":"15.8601","longitude":"80.0676","accuracy":"3"},{"address3":"Muppavaram","state":"Andhra Pradesh","state_code":"02","district":"Prakasam","district_code":"549","address1":"Ongole","address2":"","latitude":"15.8451","longitude":"80.0529","accuracy":"4"},{"address3":"Kondamanjulur","state":"Andhra Pradesh","state_code":"02","district":"Prakasam","district_code":"549","address1":"Ongole","address2":"","latitude":"15.8601","longitude":"80.0676","accuracy":"3"},{"address3":"Kolalapudi","state":"Andhra Pradesh","state_code":"02","district":"Prakasam","district_code":"549","address1":"Ongole","address2":"","latitude":"15.8922","longitude":"80.1039","accuracy":"4"},{"address3":"Baitamanjuluru","state":"Andhra Pradesh","state_code":"02","district":"Prakasam","district_code":"549","address1":"Ongole","address2":"","latitude":"15.8639","longitude":"80.0555","accuracy":"4"},{"address3":"Bhagavanrajupalem","state":"Andhra Pradesh","state_code":"02","district":"Prakasam","district_code":"549","address1":"Ongole","address2":"","latitude":"15.8682","longitude":"80.0603","accuracy":"4"}],"523262":[{"address3":"Throvagunta","state":"Andhra Pradesh","state_code":"02","district":"Prakasam","district_code":"549","address1":"Ongole","address2":"","latitude":"15.5716","longitude":"80.0646","accuracy":"3"},{"address3":"Mukthinuthalapadu","state":"Andhra Pradesh","state_code":"02","district":"Prakasam","district_code":"549","address1":"Ongole","address2":"","latitude":"15.5716","longitude":"80.0646","accuracy":"3"},{"address3":"Lingamgunta","state":"Andhra Pradesh","state_code":"02","district":"Prakasam","district_code":"549","address1":"Ongole","address2":"","latitude":"15.5581","longitude":"80.0378","accuracy":"4"},