{"532001":[{"address3":"Srikakulam Zilla Parishad","state":"Andhra Pradesh","state_code":"02","district":"Srikakulam","district_code":"542","address1":"Srikakulam","address2":"","latitude":"15.8948","longitude":"81.4787","accuracy":"1"},{"address3":"Srikakulam H.O","state":"Andhra Pradesh","state_code":"02","district":"Srikakulam","district_code":"542","address1":"Srikakulam","address2":"","latitude":"15.8948","longitude":"81.4787","accuracy":"1"},{"address3":"Srikakulam District Court","state":"Andhra Pradesh","state_code":"02","district":"Srikakulam","district_code":"542","address1":"Srikakulam","address2":"","latitude":"15.8948","longitude":"81.4787","accuracy":"1"},{"address3":"Srikakulam Collectorate","state":"Andhra Pradesh","state_code":"02","district":"Srikakulam","district_code":"542","address1":"Srikakulam","address2":"","latitude":"15.8948","longitude":"81.4787","accuracy":"1"},{"address3":"Srikakulam New Colony","state":"Andhra Pradesh","state_code":"02","district":"Srikakulam","district_code":"542","address1":"Srikakulam","address2":"","latitude":"15.8948","longitude":"81.4787","accuracy":"1"},{"address3":"Srikakulam Official Colony","state":"Andhra Pradesh","state_code":"02","district":"Srikakulam","district_code":"542","address1":"Srikakulam","address2":"","latitude":"15.8948","longitude":"81.4787","accuracy":"1"},{"address3":"Srikakulam Town","state":"Andhra Pradesh","state_code":"02","district":"Srikakulam","district_code":"542","address1":"Srikakulam","address2":"","latitude":"15.8948","longitude":"81.4787","accuracy":"1"},{"address3":"Srikakulam Market","state":"Andhra Pradesh","state_code":"02","district":"Srikakulam","district_code":"542","address1":"Srikakulam","address2":"","latitude":"15.8948","longitude":"81.4787","accuracy":"1"}],"532005":[{"address3":"Muddada","state":"Andhra Pradesh","state_code":"02","district":"Srikakulam","district_code":"542","address1":"Etcherla","address2":"","latitude":"18.2385","longitude":"83.8687","accuracy":"4"},{"address3":"Kothapeta","state":"Andhra Pradesh","state_code":"02","district":"Srikakulam","district_code":"542","address1":"Etcherla Mandal","address2":"","latitude":"18.5786","longitude":"83.9881","accuracy":"4"},{"address3":"Gujarathipeta","state":"Andhra Pradesh","state_code":"02","district":"Srikakulam","district_code":"542","address1":"Srikakulam","address2":"","latitude":"15.8948","longitude":"81.4787","accuracy":"3"},{"address3":"Thotapalem","state":"Andhra Pradesh","state_code":"02","district":"Srikakulam","district_code":"542","address1":"Etcherla","address2":"","latitude":"15.8948","longitude":"81.4787","accuracy":"3"}],"532122":[{"address3":"Galavilli","state":"Andhra Pradesh","state_code":"02","district":"Srikakulam","district_code":"542","address1":"Regidi Mandal","address2":"","latitude":"18.5357","longitude":"83.6185","accuracy":"4"},{"address3":"Arasada","state":"Andhra Pradesh","state_code":"02","district":"Srikakulam","district_code":"542","address1":"Vangara Mandal","address2":"","latitude":"18.5428","longitude":"83.6473","accuracy":"4"},{"address3":"Nayaralavalasa","state":"Andhra Pradesh","state_code":"02","district":"Srikakulam","district_code":"542","address1":"Regidi Mandal","address2":"","latitude":"18.5461","longitude":"83.7011","accuracy":"4"},{"address3":"Neelayyavalasa","state":"Andhra Pradesh","state_code":"02","district":"Srikakulam","district_code":"542","address1":"Vangara Mandal","address2":"","latitude":"18.5519","longitude":"83.6568","accuracy":"3"},{"address3":"Parampeta","state":"Andhra Pradesh","state_code":"02","district":"Srikakulam","district_code":"542","address1":"Regidi Mandal","address2":"","latitude":"18.5133","longitude":"83.6502","accuracy":"4"},{"address3":"Uddavolu","state":"Andhra Pradesh","state_code":"02","district":"Srikakulam","district_code":"542","address1":"Regidi Mandal","address2":"","latitude":"18.5251","longitude":"83.6056","accuracy":"4"},{"address3":"Venkampeta","state":"Andhra Pradesh","state_code":"02","district":"Srikakulam","district_code":"542","address1":"Regidi Amadalavalasa","address2":"","latitude":"18.6089","longitude":"83.763","accuracy":"4"},{"address3":"Pedasirlam","state":"Andhra Pradesh","state_code":"02","district":"Srikakulam","district_code":"542","address1":"Regidi Mandal","address2":"","latitude":"18.5519","longitude":"83.6568","accuracy":"3"},{"address3":"Kodisa","state":"Andhra Pradesh","state_code":"02","district":"Srikakulam","district_code":"542","address1":"Regidi Mandal","address2":"","latitude":"18.5538","longitude":"83.6621","accuracy":"4"},{"address3":"Kandisa","state":"Andhra Pradesh","state_code":"02","district":"Srikakulam","district_code":"542","address1":"Regidi Mandal","address2":"","latitude":"18.5788","longitude":"83.662","accuracy":"4"},{"address3":"Tunivada","state":"Andhra Pradesh","state_code":"02","district":"Srikakulam","district_code":"542","address1":"Regidi Mandal","address2":"","latitude":"18.5757","longitude":"83.6843","accuracy":"4"},{"address3":"Sarasanapalli","state":"Andhra Pradesh","state_code":"02","district":"Srikakulam","district_code":"542","address1":"Regidi Mandal","address2":"","latitude":"18.5519","longitude":"83.6568","accuracy":"3"},{"address3":"Madduvalasa","state":"Andhra Pradesh","state_code":"02","district":"Srikakulam","district_code":"542","address1":"Vangara Mandal","address2":"","latitude":"18.58","longitude":"83.6238","accuracy":"4"},{"address3":"Vunukuru","state":"Andhra Pradesh","state_code":"02","district":"Srikakulam","district_code":"542","address1":"Regidi Mandal","address2":"","latitude":"18.5519","longitude":"83.6568","accuracy":"3"},{"address3":"Ambada","state":"Andhra Pradesh","state_code":"02","district":"Srikakulam","district_code":"542","address1":"Regidi Amadalavalasa","address2":"","latitude":"18.5426","longitude":"83.678","accuracy":"4"},{"address3":"Bhagempeta","state":"Andhra Pradesh","state_code":"02","district":"Srikakulam","district_code":"542","address1":"Vangara Mandal","address2":"","latitude":"18.5519","longitude":"83.6568","accuracy":"3"},{"address3":"Sundarada","state":"Andhra Pradesh","state_code":"02","district":"Vizianagaram","district_code":"543","address1":"Therlam Mandal","address2":"","latitude":"18.5195","longitude":"83.5861","accuracy":"4"}],"532123":[{"address3":"Santhakaviti","state":"Andhra Pradesh","state_code":"02","district":"Srikakulam","district_code":"542","address1":"Santhakaviti Mandal","address2":"","latitude":"18.4547","longitude":"83.7375","accuracy":"3"},{"address3":"Vavilavalasa","state":"Andhra Pradesh","state_code":"02","district":"Srikakulam","district_code":"542","address1":"Regidi Mandal","address2":"","latitude":"18.4982","longitude":"83.7213","accuracy":"4"},{"address3":"Govindapuram","state":"Andhra Pradesh","state_code":"02","district":"Srikakulam","district_code":"542","address1":"Santhakaviti Mandal","address2":"","latitude":"18.4453","longitude":"83.7649","accuracy":"4"},{"address3":"S.R.Puram","state":"Andhra Pradesh","state_code":"02","district":"Srikakulam","district_code":"542","address1":"Santhakaviti Mandal","address2":"","latitude":"18.4547","longitude":"83.7375","accuracy":"3"},{"address3":"Mamidipalli","state":"Andhra Pradesh","state_code":"02","district":"Srikakulam","district_code":"542","address1":"Santhakaviti Mandal","address2":"","latitude":"18.4547","longitude":"83.7375","accuracy":"3"},{"address3":"Vungarada","state":"Andhra Pradesh","state_code":"02","district":"Srikakulam","district_code":"542","address1":"Regidi Mandal","address2":"","latitude":"18.4547","longitude":"83.7375","accuracy":"3"},{"address3":"Lingalavalasa","state":"Andhra Pradesh","state_code":"02","district":"Srikakulam","district_code":"542","address1":"Regidi Mandal","address2":"","latitude":"18.2752","longitude":"83.6803","accuracy":"4"},{"address3":"Vasudevapatnam","state":"Andhra Pradesh","state_code":"02","district":"Srikakulam","district_code":"542","address1":"Santhakaviti Mandal","address2":"","latitude":"18.4547","longitude":"83.7375","accuracy":"3"},{"address3":"Mamidivalasa","state":"Andhra Pradesh","state_code":"02","district":"Srikakulam","district_code":"542","address1":"Regidi Mandal","address2":"","latitude":"18.5333","longitude":"83.7375","accuracy":"4"},{"address3":"Ambakhandi","state":"Andhra Pradesh","state_code":"02","district":"Srikakulam","district_code":"542","address1":"Regidi Mandal","address2":"","latitude":"18.4998","longitude":"83.734","accuracy":"4"},{"address3":"Mandarada","state":"Andhra Pradesh","state_code":"02","district":"Srikakulam","district_code":"542","address1":"Santhakaviti Mandal","address2":"","latitude":"18.4574","longitude":"83.7821","accuracy":"4"},{"address3":"Talada","state":"Andhra Pradesh","state_code":"02","district":"Srikakulam","district_code":"542","address1":"Santhakaviti Mandal","address2":"","latitude":"18.474","longitude":"83.7422","accuracy":"4"}],"532127":[{"address3":"Rajam","state":"Andhra Pradesh","state_code":"02","district":"Srikakulam","district_code":"542","address1":"Rajam","address2":"","latitude":"18.4491","longitude":"83.6596","accuracy":"4"},{"address3":"G.M.R.Nagar","state":"Andhra Pradesh","state_code":"02","district":"Srikakulam","district_code":"542","address1":"Rajam","address2":"","latitude":"18.4311","longitude":"83.5901","accuracy":"3"},{"address3":"Vommi","state":"Andhra Pradesh","state_code":"02","district":"Srikakulam","district_code":"542","address1":"Rajam Mandal","address2":"","latitude":"18.4311","longitude":"83.5901","accuracy":"3"},{"address3":"Gadimudidam","state":"Andhra Pradesh","state_code":"02","district":"Srikakulam","district_code":"542","address1":"Rajam Mandal","address2":"","latitude":"18.4924","longitude":"83.6299","accuracy":"4"},{"address3":"Agurukancharam","state":"Andhra Pradesh","state_code":"02","district":"Srikakulam","district_code":"542","address1":"Rajam Mandal","address2":"","latitude":"18.4311","longitude":"83.5901","accuracy":"3"},{"address3":"Gopalapuram","state":"Andhra Pradesh","state_code":"02","district":"Srikakulam","district_code":"542","address1":"Rajam","address2":"","latitude":"18.4405","longitude":"83.6356","accuracy":"4"},{"address3":"Anthakapalli","state":"Andhra Pradesh","state_code":"02","district":"Srikakulam","district_code":"542","address1":"Rajam Mandal","address2":"","latitude":"18.4311","longitude":"83.5901","accuracy":"3"},{"address3":"Aguru","state":"Andhra Pradesh","state_code":"02","district":"Srikakulam","district_code":"542","address1":"Rajam Mandal","address2":"","latitude":"18.4777","longitude":"83.6061","accuracy":"4"},{"address3":"Bomminaiduvalasa","state":"Andhra Pradesh","state_code":"02","district":"Srikakulam","district_code":"542","address1":"Rajam Mandal","address2":"","latitude":"18.4311","longitude":"83.5901","accuracy":"3"},{"address3":"Penubaka","state":"Andhra Pradesh","state_code":"02","district":"Srikakulam","district_code":"542","address1":"Rajam Mandal","address2":"","latitude":"18.4175","longitude":"83.6421","accuracy":"4"},{"address3":"Dasariraminaiduvalasa","state":"Andhra Pradesh","state_code":"02","district":"Srikakulam","district_code":"542","address1":"Rajam Mandal","address2":"","latitude":"18.4311","longitude":"83.5901","accuracy":"3"},{"address3":"Nagulavalasa","state":"Andhra Pradesh","state_code":"02","district":"Srikakulam","district_code":"542","address1":"Sigadam Mandal","address2":"","latitude":"18.4309","longitude":"83.7077","accuracy":"4"},{"address3":"Maredubaka","state":"Andhra Pradesh","state_code":"02","district":"Srikakulam","district_code":"542","address1":"Rajam Mandal","address2":"","latitude":"18.4317","longitude":"83.6182","accuracy":"4"},{"address3":"Korallavalasa","state":"Andhra Pradesh","state_code":"02","district":"Srikakulam","district_code":"542","address1":"Regidi Mandal","address2":"","latitude":"18.5008","longitude":"83.6602","accuracy":"4"},{"address3":"Guravam","state":"Andhra Pradesh","state_code":"02","district":"Srikakulam","district_code":"542","address1":"Rajam Mandal","address2":"","latitude":"18.4803","longitude":"83.6711","accuracy":"4"},{"address3":"Bodduru","state":"Andhra Pradesh","state_code":"02","district":"Srikakulam","district_code":"542","address1":"Santhakaviti Mandal","address2":"","latitude":"18.4736","longitude":"83.6921","accuracy":"4"},{"address3":"Perumali","state":"Andhra Pradesh","state_code":"02","district":"Vizianagaram","district_code":"543","address1":"Therlam Mandal","address2":"","latitude":"18.4448","longitude":"83.5636","accuracy":"4"},{"address3":"Sathamvalasa","state":"Andhra Pradesh","state_code":"02","district":"Vizianagaram","district_code":"543","address1":"Merakamudidam","address2":"","latitude":"18.4311","longitude":"83.5901","accuracy":"3"},{"address3":"Marrivalasa","state":"Andhra Pradesh","state_code":"02","district":"Vizianagaram","district_code":"543","address1":"Merakamudidam Mandal","address2":"","latitude":"18.3003","longitude":"83.2703","accuracy":"4"},{"address3":"Kagam","state":"Andhra Pradesh","state_code":"02","district":"Vizianagaram","district_code":"543","address1":"Therlam Mandal","address2":"","latitude":"18.4743","longitude":"83.5813","accuracy":"4"},{"address3":"Rachagumadam","state":"Andhra Pradesh","state_code":"02","district":"Vizianagaram","district_code":"543","address1":"Merakamudidam Mandal","address2":"","latitude":"18.222","longitude":"83.3238","accuracy":"4"}],"532148":[{"address3":"Pogiri","state":"Andhra Pradesh","state_code":"02","district":"Srikakulam","district_code":"542","address1":"Sigadam Mandal","address2":"","latitude":"18.4018","longitude":"83.6937","accuracy":"4"},{"address3":"Yenduva","state":"Andhra Pradesh","state_code":"02","district":"Srikakulam","district_code":"542","address1":"Sigaam","address2":"","latitude":"18.3755","longitude":"83.6735","accuracy":"3"},{"address3":"Ramachandrapuram Agraharam","state":"Andhra Pradesh","state_code":"02","district":"Srikakulam","district_code":"542","address1":"Sigadam Mandal","address2":"","latitude":"18.3586","longitude":"83.6758","accuracy":"4"},{"address3":"Nandabalaga","state":"Andhra Pradesh","state_code":"02","district":"Srikakulam","district_code":"542","address1":"Regidi Mandal","address2":"","latitude":"18.395","longitude":"83.6605","accuracy":"4"},{"address3":"Chandraiahpeta","state":"Andhra Pradesh","state_code":"02","district":"Srikakulam","district_code":"542","address1":"Sigadam Mandal","address2":"","latitude":"18.3755","longitude":"83.6735","accuracy":"3"},{"address3":"Gedda Kancharam","state":"Andhra Pradesh","state_code":"02","district":"Srikakulam","district_code":"542","address1":"Sigadam","address2":"","latitude":"18.3377","longitude":"83.651","accuracy":"4"},{"address3":"Jada","state":"Andhra Pradesh","state_code":"02","district":"Srikakulam","district_code":"542","address1":"Sigadam Mandal","address2":"","latitude":"18.3703","longitude":"83.6382","accuracy":"4"},{"address3":"Gobburu","state":"Andhra Pradesh","state_code":"02","district":"Srikakulam","district_code":"542","address1":"Sigadam Mandal","address2":"","latitude":"18.3812","longitude":"83.6965","accuracy":"4"},{"address3":"Chettupodilam","state":"Andhra Pradesh","state_code":"02","district":"Srikakulam","district_code":"542","address1":"Sigadam Mandal","address2":"","latitude":"18.3544","longitude":"83.6947","accuracy":"4"},{"address3":"Niddam","state":"Andhra Pradesh","state_code":"02","district":"Srikakulam","district_code":"542","address1":"Sigadam Mandal","address2":"","latitude":"18.3691","longitude":"83.7119","accuracy":"4"},{"address3":"Sigadam","state":"Andhra Pradesh","state_code":"02","district":"Srikakulam","district_code":"542","address1":"Ganguvada Sigadam Mandal","address2":"","latitude":"18.3787","longitude":"83.6817","accuracy":"4"},{"address3":"Boddam","state":"Andhra Pradesh","state_code":"02","district":"Srikakulam","district_code":"542","address1":"Sigadam Mandal","address2":"","latitude":"18.4079","longitude":"83.6306","accuracy":"4"}],"532168":[{"address3":"Buridikancharam","state":"Andhra Pradesh","state_code":"02","district":"Srikakulam","district_code":"542","address1":"Ponduru Mandal","address2":"","latitude":"18.386","longitude":"83.7677","accuracy":"3"},{"address3":"Thandyam","state":"Andhra Pradesh","state_code":"02","district":"Srikakulam","district_code":"542","address1":"Ponduru Mandal","address2":"","latitude":"18.386","longitude":"83.7677","accuracy":"3"},{"address3":"Chittarupuram","state":"Andhra Pradesh","state_code":"02","district":"Srikakulam","district_code":"542","address1":"Santhakaviti Mandal","address2":"","latitude":"18.4212","longitude":"83.8278","accuracy":"4"},{"address3":"Laidam","state":"Andhra Pradesh","state_code":"02","district":"Srikakulam","district_code":"542","address1":"Ponduru Mandal","address2":"","latitude":"18.386","longitude":"83.7677","accuracy":"3"},{"address3":"Walteru","state":"Andhra Pradesh","state_code":"02","district":"Srikakulam","district_code":"542","address1":"Santhakaviti Mandal","address2":"","latitude":"18.386","longitude":"83.7677","accuracy":"3"},{"address3":"Siripuram","state":"Andhra Pradesh","state_code":"02","district":"Srikakulam","district_code":"542","address1":"Santhakaviti Mandal","address2":"","latitude":"18.3922","longitude":"83.7883","accuracy":"4"},{"address3":"Gokarnapalli","state":"Andhra Pradesh","state_code":"02","district":"Srikakulam","district_code":"542","address1":"Ponduru Mandal","address2":"","latitude":"18.386","longitude":"83.7677","accuracy":"3"},{"address3":"Manthina","state":"Andhra Pradesh","state_code":"02","district":"Srikakulam","district_code":"542","address1":"Santhakaviti Mandal","address2":"","latitude":"18.386","longitude":"83.7677","accuracy":"3"},{"address3":"Rapaka","state":"Andhra Pradesh","state_code":"02","district":"Srikakulam","district_code":"542","address1":"Ponduru Mandal","address2":"","latitude":"18.3491","longitude":"83.7792","accuracy":"4"},{"address3":"Palakhandyam","state":"Andhra Pradesh","state_code":"02","district":"Srikakulam","district_code":"542","address1":"Sigadam Mandal","address2":"","latitude":"18.386","longitude":"83.7677","accuracy":"3"},{"address3":"Anandapuram","state":"Andhra Pradesh","state_code":"02","district":"Srikakulam","district_code":"542","address1":"Sigadam Mandal","address2":"","latitude":"18.3692","longitude":"83.7542","accuracy":"4"},{"address3":"Suravam","state":"Andhra Pradesh","state_code":"02","district":"Srikakulam","district_code":"542","address1":"Santhakaviti Mandal","address2":"","latitude":"18.386","longitude":"83.7677","accuracy":"3"},{"address3":"Mirtivalasa","state":"Andhra Pradesh","state_code":"02","district":"Srikakulam","district_code":"542","address1":"Santhakaviti Mandal","address2":"","latitude":"18.4296","longitude":"83.7793","accuracy":"4"},{"address3":"Pathakumkam","state":"Andhra Pradesh","state_code":"02","district":"Srikakulam","district_code":"542","address1":"Laveru Mandal","address2":"","latitude":"18.386","longitude":"83.7677","accuracy":"3"},{"address3":"Ponduru","state":"Andhra Pradesh","state_code":"02","district":"Srikakulam","district_code":"542","address1":"Ponduru","address2":"","latitude":"18.3496","longitude":"83.7565","accuracy":"4"},{"address3":"Tankaladuggivalasa","state":"Andhra Pradesh","state_code":"02","district":"Srikakulam","district_code":"542","address1":"G.sigadam Mandal","address2":"","latitude":"18.386","longitude":"83.7677","accuracy":"3"},{"address3":"Honjaram","state":"Andhra Pradesh","state_code":"02","district":"Srikakulam","district_code":"542","address1":"Santhakaviti Mandal","address2":"","latitude":"18.444","longitude":"83.8083","accuracy":"4"},{"address3":"Santhavuriti","state":"Andhra Pradesh","state_code":"02","district":"Srikakulam","district_code":"542","address1":"Sigadam Mandal","address2":"","latitude":"18.386","longitude":"83.7677","accuracy":"3"},{"address3":"Mettavalasa","state":"Andhra Pradesh","state_code":"02","district":"Srikakulam","district_code":"542","address1":"Ponduru","address2":"","latitude":"18.3896","longitude":"83.7135","accuracy":"4"},{"address3":"Lolugu","state":"Andhra Pradesh","state_code":"02","district":"Srikakulam","district_code":"542","address1":"Ponduru Mandal","address2":"","latitude":"18.386","longitude":"83.7677","accuracy":"3"},{"address3":"Devaravalasa","state":"Andhra Pradesh","state_code":"02","district":"Srikakulam","district_code":"542","address1":"Sigadam Mandal","address2":"","latitude":"18.3296","longitude":"83.7025","accuracy":"4"},{"address3":"Mandavakuriti","state":"Andhra Pradesh","state_code":"02","district":"Srikakulam","district_code":"542","address1":"Santhakaviti Mandal","address2":"","latitude":"18.386","longitude":"83.7677","accuracy":"3"}],"532185":[{"address3":"Amadalavalasa H.O","state":"Andhra Pradesh","state_code":"02","district":"Srikakulam","district_code":"542","address1":"Amadalavalasa","address2":"","latitude":"18.4049","longitude":"83.908","accuracy":"1"}],"532186":[{"address3":"Turakapeta","state":"Andhra Pradesh","state_code":"02","district":"Srikakulam","district_code":"542","address1":"Amadalavalasa Mandal","address2":"","latitude":"18.4386","longitude":"83.8455","accuracy":"4"},{"address3":"Chittivalasa","state":"Andhra Pradesh","state_code":"02","district":"Srikakulam","district_code":"542","address1":"Amadalavalasa Manal","address2":"","latitude":"18.4408","longitude":"83.9183","accuracy":"4"},{"address3":"Uppinivalasa","state":"Andhra Pradesh","state_code":"02","district":"Srikakulam","district_code":"542","address1":"Burja Mandal","address2":"","latitude":"18.4049","longitude":"83.908","accuracy":"3"},{"address3":"Ponnam","state":"Andhra Pradesh","state_code":"02","district":"Srikakulam","district_code":"542","address1":"Srikakulam Mandal","address2":"","latitude":"18.4109","longitude":"83.9425","accuracy":"4"},{"address3":"Chintada","state":"Andhra Pradesh","state_code":"02","district":"Srikakulam","district_code":"542","address1":"Srikakulam","address2":"","latitude":"18.3898","longitude":"83.9013","accuracy":"4"},{"address3":"Korlakota","state":"Andhra Pradesh","state_code":"02","district":"Srikakulam","district_code":"542","address1":"Amadalavalasa Mandal","address2":"","latitude":"18.4098","longitude":"83.8716","accuracy":"4"},{"address3":"Cheemalavalasa","state":"Andhra Pradesh","state_code":"02","district":"Srikakulam","district_code":"542","address1":"Amadalavalasa Mandal","address2":"","latitude":"18.4049","longitude":"83.908","accuracy":"3"},{"address3":"Alikam","state":"Andhra Pradesh","state_code":"02","district":"Srikakulam","district_code":"542","address1":"Srikakulam Mandal","address2":"","latitude":"18.3768","longitude":"83.9446","accuracy":"4"},{"address3":"Kasimivalasa","state":"Andhra Pradesh","state_code":"02","district":"Srikakulam","district_code":"542","address1":"Srikakulam Mandal","address2":"","latitude":"18.4049","longitude":"83.908","accuracy":"3"},{"address3":"Kanugulavalasa","state":"Andhra Pradesh","state_code":"02","district":"Srikakulam","district_code":"542","address1":"Amadalavalasa","address2":"","latitude":"18.3878","longitude":"83.8806","accuracy":"4"},{"address3":"B.S.Puram","state":"Andhra Pradesh","state_code":"02","district":"Srikakulam","district_code":"542","address1":"Srikakulam Mandal","address2":"","latitude":"18.4049","longitude":"83.908","accuracy":"3"},{"address3":"Tandemvalasa","state":"Andhra Pradesh","state_code":"02","district":"Srikakulam","district_code":"542","address1":"Srikakulam Mandal","address2":"","latitude":"18.3556","longitude":"83.945","accuracy":"4"},{"address3":"Vengala Rao Colony","state":"Andhra Pradesh","state_code":"02","district":"Srikakulam","district_code":"542","address1":"Amadalavalasa","address2":"","latitude":"18.4049","longitude":"83.908","accuracy":"3"},{"address3":"Akkulapeta","state":"Andhra Pradesh","state_code":"02","district":"Srikakulam","district_code":"542","address1":"Amadalavalasa Mandal","address2":"","latitude":"18.4476","longitude":"83.8726","accuracy":"4"},{"address3":"Opivada Venkampeta","state":"Andhra Pradesh","state_code":"02","district":"Srikakulam","district_code":"542","address1":"Burja Mandal","address2":"","latitude":"18.4049","longitude":"83.908","accuracy":"3"},{"address3":"Naira","state":"Andhra Pradesh","state_code":"02","district":"Srikakulam","district_code":"542","address1":"Srikakulam","address2":"","latitude":"18.3917","longitude":"83.9581","accuracy":"4"}],"532190":[{"address3":"Kondavalasa","state":"Andhra Pradesh","state_code":"02","district":"Srikakulam","district_code":"542","address1":"Sarubujjili Mandal","address2":"","latitude":"18.5605","longitude":"83.6385","accuracy":"4"},{"address3":"Shalantri","state":"Andhra Pradesh","state_code":"02","district":"Srikakulam","district_code":"542","address1":"Sarubujjili Mandal","address2":"","latitude":"18.5093","longitude":"83.9122","accuracy":"4"},{"address3":"Chiguruvalasa","state":"Andhra Pradesh","state_code":"02","district":"Srikakulam","district_code":"542","address1":"Sarubujjili Mandal","address2":"","latitude":"18.5147","longitude":"83.8175","accuracy":"3"},{"address3":"Rottavalasa","state":"Andhra Pradesh","state_code":"02","district":"Srikakulam","district_code":"542","address1":"Sarubujjili Mandal","address2":"","latitude":"18.4744","longitude":"83.9018","accuracy":"4"},{"address3":"P.S.Puram","state":"Andhra Pradesh","state_code":"02","district":"Srikakulam","district_code":"542","address1":"Sarubujjili","address2":"","latitude":"18.5147","longitude":"83.8175","accuracy":"3"},{"address3":"Alamajipeta","state":"Andhra Pradesh","state_code":"02","district":"Srikakulam","district_code":"542","address1":"Sarubujjili Mandal","address2":"","latitude":"18.5147","longitude":"83.8175","accuracy":"3"}],"532195":[{"address3":"Jarjangi","state":"Andhra Pradesh","state_code":"02","district":"Srikakulam","district_code":"542","address1":"Kotabommali Mandal","address2":"","latitude":"18.5251","longitude":"84.0773","accuracy":"3"},{"address3":"Gangaram","state":"Andhra Pradesh","state_code":"02","district":"Srikakulam","district_code":"542","address1":"Kotabommali Mandal","address2":"","latitude":"18.5786","longitude":"83.9881","accuracy":"3"},{"address3":"Kotabommali","state":"Andhra Pradesh","state_code":"02","district":"Srikakulam","district_code":"542","address1":"Kotabommali Mandal","address2":"","latitude":"18.5202","longitude":"84.1625","accuracy":"4"},{"address3":"Kistupuram","state":"Andhra Pradesh","state_code":"02","district":"Srikakulam","district_code":"542","address1":"Kotabommali Mandal","address2":"","latitude":"18.5251","longitude":"84.0773","accuracy":"3"},{"address3":"Kamalanabhapuram","state":"Andhra Pradesh","state_code":"02","district":"Srikakulam","district_code":"542","address1":"Kotabommali","address2":"","latitude":"18.5251","longitude":"84.0773","accuracy":"3"},{"address3":"Kotabomma R.S.","state":"Andhra Pradesh","state_code":"02","district":"Srikakulam","district_code":"542","address1":"Santabommali Mandal","address2":"","latitude":"18.5251","longitude":"84.0773","accuracy":"3"},{"address3":"Danta","state":"Andhra Pradesh","state_code":"02","district":"Srikakulam","district_code":"542","address1":"Kotabommali Mandal","address2":"","latitude":"18.5251","longitude":"84.0773","accuracy":"3"},{"address3":"T.Lingalapadu","state":"Andhra Pradesh","state_code":"02","district":"Srikakulam","district_code":"542","address1":"Jalumuru","address2":"","latitude":"18.5251","longitude":"84.0773","accuracy":"3"},{"address3":"Borubhadra","state":"Andhra Pradesh","state_code":"02","district":"Srikakulam","district_code":"542","address1":"Santabommali Mandal","address2":"","latitude":"18.5251","longitude":"84.0773","accuracy":"3"},{"address3":"Santhabommali","state":"Andhra Pradesh","state_code":"02","district":"Srikakulam","district_code":"542","address1":"Santhabommali Mandal","address2":"","latitude":"18.5251","longitude":"84.0773","accuracy":"3"},{"address3":"Pattupuram","state":"Andhra Pradesh","state_code":"02","district":"Srikakulam","district_code":"542","address1":"Kotabommalimandal","address2":"","latitude":"18.5251","longitude":"84.0773","accuracy":"3"},{"address3":"Kurudu","state":"Andhra Pradesh","state_code":"02","district":"Srikakulam","district_code":"542","address1":"Kotabommali Mandal","address2":"","latitude":"18.5251","longitude":"84.0773","accuracy":"3"},{"address3":"Elamanchili","state":"Andhra Pradesh","state_code":"02","district":"Srikakulam","district_code":"542","address1":"Kotabommali Mandal","address2":"","latitude":"18.5301","longitude":"83.9921","accuracy":"4"}],"532201":[{"address3":"Tekkali H.O","state":"Andhra Pradesh","state_code":"02","district":"Srikakulam","district_code":"542","address1":"Tekkali","address2":"","latitude":"18.5492","longitude":"83.9602","accuracy":"1"}],"532203":[{"address3":"Venugopalapuram","state":"Andhra Pradesh","state_code":"02","district":"Srikakulam","district_code":"542","address1":"Nandigam Mandal","address2":"","latitude":"18.5786","longitude":"83.9881","accuracy":"3"},{"address3":"Aitam Engg.College","state":"Andhra Pradesh","state_code":"02","district":"Srikakulam","district_code":"542","address1":"Tekkali","address2":"","latitude":"18.5492","longitude":"83.9602","accuracy":"3"},{"address3":"Lingalavalasa","state":"Andhra Pradesh","state_code":"02","district":"Srikakulam","district_code":"542","address1":"Tekkali Mandal","address2":"","latitude":"18.3641","longitude":"83.9113","accuracy":"4"},{"address3":"Kothapalli","state":"Andhra Pradesh","state_code":"02","district":"Srikakulam","district_code":"542","address1":"Kotabommali Mandal","address2":"","latitude":"18.5786","longitude":"83.9881","accuracy":"3"},{"address3":"Chakipalli","state":"Andhra Pradesh","state_code":"02","district":"Srikakulam","district_code":"542","address1":"Tekkali Mandal","address2":"","latitude":"18.5492","longitude":"83.9602","accuracy":"3"},{"address3":"Polavaram","state":"Andhra Pradesh","state_code":"02","district":"Srikakulam","district_code":"542","address1":"Tekkali Mandal","address2":"","latitude":"18.809","longitude":"83.8397","accuracy":"4"},{"address3":"Venkateswara Colony","state":"Andhra Pradesh","state_code":"02","district":"Srikakulam","district_code":"542","address1":"Tekkali Mandal","address2":"","latitude":"18.5492","longitude":"83.9602","accuracy":"3"},{"address3":"Gudem","state":"Andhra Pradesh","state_code":"02","district":"Srikakulam","district_code":"542","address1":"Tekkali Mandal","address2":"","latitude":"18.344","longitude":"83.9105","accuracy":"4"},{"address3":"Dimidijola","state":"Andhra Pradesh","state_code":"02","district":"Srikakulam","district_code":"542","address1":"Nandigam Mandal","address2":"","latitude":"18.5492","longitude":"83.9602","accuracy":"3"},{"address3":"Temburu","state":"Andhra Pradesh","state_code":"02","district":"Srikakulam","district_code":"542","address1":"Nandigam Mandal","address2":"","latitude":"18.6307","longitude":"84.129","accuracy":"4"},{"address3":"Kommusariapalli","state":"Andhra Pradesh","state_code":"02","district":"Srikakulam","district_code":"542","address1":"Saravakota Mandal","address2":"","latitude":"18.5492","longitude":"83.9602","accuracy":"3"},{"address3":"Parasurampuram","state":"Andhra Pradesh","state_code":"02","district":"Srikakulam","district_code":"542","address1":"Tekkali Mandal","address2":"","latitude":"18.4932","longitude":"83.6658","accuracy":"4"},{"address3":"Narasingupalli","state":"Andhra Pradesh","state_code":"02","district":"Srikakulam","district_code":"542","address1":"Tekkali Mandal","address2":"","latitude":"18.5492","longitude":"83.9602","accuracy":"3"},{"address3":"Nandigam","state":"Andhra Pradesh","state_code":"02","district":"Srikakulam","district_code":"542","address1":"Nandigam Mandal","address2":"","latitude":"18.6542","longitude":"84.3047","accuracy":"4"},{"address3":"Narsipuram","state":"Andhra Pradesh","state_code":"02","district":"Srikakulam","district_code":"542","address1":"Nandigam Mandal","address2":"","latitude":"18.5492","longitude":"83.9602","accuracy":"3"},{"address3":"Nowgam","state":"Andhra Pradesh","state_code":"02","district":"Srikakulam","district_code":"542","address1":"Nandigam Mandal","address2":"","latitude":"18.5492","longitude":"83.9602","accuracy":"3"},{"address3":"Sasanam","state":"Andhra Pradesh","state_code":"02","district":"Srikakulam","district_code":"542","address1":"Tekkali Mandal","address2":"","latitude":"18.5492","longitude":"83.9602","accuracy":"3"},{"address3":"Seethapuram","state":"Andhra Pradesh","state_code":"02","district":"Srikakulam","district_code":"542","address1":"Tekkali Mandal","address2":"","latitude":"18.5492","longitude":"83.9602","accuracy":"3"},{"address3":"Pedalavunipalli","state":"Andhra Pradesh","state_code":"02","district":"Srikakulam","district_code":"542","address1":"Nandigam Mandal","address2":"","latitude":"18.5492","longitude":"83.9602","accuracy":"3"}],"532211":[{"address3":"Naupada (Srikakulam)","state":"Andhra Pradesh","state_code":"02","district":"Srikakulam","district_code":"542","address1":"Santhabommali","address2":"","latitude":"18.5619","longitude":"84.2989","accuracy":"4"},{"address3":"Devanaltada","state":"Andhra Pradesh","state_code":"02","district":"Srikakulam","district_code":"542","address1":"Vajrapukotturu Mandal","address2":"","latitude":"18.5714","longitude":"84.0466","accuracy":"3"},{"address3":"Marripadu","state":"Andhra Pradesh","state_code":"02","district":"Srikakulam","district_code":"542","address1":"Santabommali Mandal","address2":"","latitude":"18.5809","longitude":"83.7944","accuracy":"4"},{"address3":"Meghavaram","state":"Andhra Pradesh","state_code":"02","district":"Srikakulam","district_code":"542","address1":"Santabommali Mandal","address2":"","latitude":"18.5714","longitude":"84.0466","accuracy":"3"},{"address3":"Lakkivalasa","state":"Andhra Pradesh","state_code":"02","district":"Srikakulam","district_code":"542","address1":"Santabommali Mandal","address2":"","latitude":"18.5714","longitude":"84.0466","accuracy":"3"},{"address3":"Kothalingudu","state":"Andhra Pradesh","state_code":"02","district":"Srikakulam","district_code":"542","address1":"Santhabommali Mandal","address2":"","latitude":"18.5714","longitude":"84.0466","accuracy":"3"}],"532212":[{"address3":"Dandugopalapuram","state":"Andhra Pradesh","state_code":"02","district":"Srikakulam","district_code":"542","address1":"Santabommali Mandal","address2":"","latitude":"18.5657","longitude":"83.759","accuracy":"3"},{"address3":"Naupada RS","state":"Andhra Pradesh","state_code":"02","district":"Srikakulam","district_code":"542","address1":"Santabommali Mandal","address2":"","latitude":"18.5657","longitude":"83.759","accuracy":"3"},{"address3":"Ravivalasa","state":"Andhra Pradesh","state_code":"02","district":"Srikakulam","district_code":"542","address1":"Tekkali Mandal","address2":"","latitude":"18.4836","longitude":"83.9182","accuracy":"4"},{"address3":"Buragam","state":"Andhra Pradesh","state_code":"02","district":"Srikakulam","district_code":"542","address1":"Tekkali Mandal","address2":"","latitude":"18.5657","longitude":"83.759","accuracy":"3"},{"address3":"Talagam","state":"Andhra Pradesh","state_code":"02","district":"Srikakulam","district_code":"542","address1":"Tekkali Mandal","address2":"","latitude":"18.6478","longitude":"83.5998","accuracy":"4"},{"address3":"Dimilada","state":"Andhra Pradesh","state_code":"02","district":"Srikakulam","district_code":"542","address1":"Nandigam Mandal","address2":"","latitude":"18.5657","longitude":"83.759","accuracy":"3"},{"address3":"Jandapeta","state":"Andhra Pradesh","state_code":"02","district":"Srikakulam","district_code":"542","address1":"Tekkali Mandal","address2":"","latitude":"18.5657","longitude":"83.759","accuracy":"3"}],"532213":[{"address3":"Labara","state":"Andhra Pradesh","state_code":"02","district":"Srikakulam","district_code":"542","address1":"Pathapatnam","address2":"","latitude":"18.5609","longitude":"83.7854","accuracy":"1"},{"address3":"Pathapatnam","state":"Andhra Pradesh","state_code":"02","district":"Srikakulam","district_code":"542","address1":"Pathapatnam Mandal","address2":"","latitude":"18.5609","longitude":"83.7854","accuracy":"1"},{"address3":"Tiddimi","state":"Andhra Pradesh","state_code":"02","district":"Srikakulam","district_code":"542","address1":"Pathapatnam Mandal","address2":"","latitude":"18.5609","longitude":"83.7854","accuracy":"1"},{"address3":"Seetarampalli","state":"Andhra Pradesh","state_code":"02","district":"Srikakulam","district_code":"542","address1":"Pathapatnam Mandal","address2":"","latitude":"18.5609","longitude":"83.7854","accuracy":"1"},{"address3":"Sarali","state":"Andhra Pradesh","state_code":"02","district":"Srikakulam","district_code":"542","address1":"Pathapatnam","address2":"","latitude":"18.5609","longitude":"83.7854","accuracy":"1"},{"address3":"R.L.Puram","state":"Andhra Pradesh","state_code":"02","district":"Srikakulam","district_code":"542","address1":"Pathapatnam Mandal","address2":"","latitude":"18.5609","longitude":"83.7854","accuracy":"1"},{"address3":"Peddamallipuram","state":"Andhra Pradesh","state_code":"02","district":"Srikakulam","district_code":"542","address1":"Pathapatnam Mandal","address2":"","latitude":"18.5609","longitude":"83.7854","accuracy":"1"},{"address3":"Peddalogidi","state":"Andhra Pradesh","state_code":"02","district":"Srikakulam","district_code":"542","address1":"Pathapatnam","address2":"","latitude":"18.5609","longitude":"83.7854","accuracy":"1"}],"532214":[{"address3":"Borubhadra","state":"Andhra Pradesh","state_code":"02","district":"Srikakulam","district_code":"542","address1":"Pathapatnam Mandal","address2":"","latitude":"18.5609","longitude":"83.7854","accuracy":"1"},{"address3":"Komanapalle","state":"Andhra Pradesh","state_code":"02","district":"Srikakulam","district_code":"542","address1":"Pathapatnam","address2":"","latitude":"18.5609","longitude":"83.7854","accuracy":"1"},{"address3":"Peddaseedhi","state":"Andhra Pradesh","state_code":"02","district":"Srikakulam","district_code":"542","address1":"Pathapatnam Mandal","address2":"","latitude":"18.5609","longitude":"83.7854","accuracy":"1"},{"address3":"Dhanupuram","state":"Andhra Pradesh","state_code":"02","district":"Srikakulam","district_code":"542","address1":"Pathapatnam","address2":"","latitude":"18.5609","longitude":"83.7854","accuracy":"1"},{"address3":"Kallata","state":"Andhra Pradesh","state_code":"02","district":"Srikakulam","district_code":"542","address1":"Hiramandalam Mandal","address2":"","latitude":"18.5609","longitude":"83.7854","accuracy":"1"},{"address3":"Chinakittalapadu","state":"Andhra Pradesh","state_code":"02","district":"Srikakulam","district_code":"542","address1":"Saravakota Mandal","address2":"","latitude":"18.5609","longitude":"83.7854","accuracy":"1"},{"address3":"Korasavada","state":"Andhra Pradesh","state_code":"02","district":"Srikakulam","district_code":"542","address1":"Pathapatnam","address2":"","latitude":"18.5609","longitude":"83.7854","accuracy":"1"},{"address3":"Dharmalaxmipuram","state":"Andhra Pradesh","state_code":"02","district":"Srikakulam","district_code":"542","address1":"Saravakota Mandal","address2":"","latitude":"18.5609","longitude":"83.7854","accuracy":"1"},{"address3":"Romadala","state":"Andhra Pradesh","state_code":"02","district":"Srikakulam","district_code":"542","address1":"Pathapatnam Mandal","address2":"","latitude":"18.5609","longitude":"83.7854","accuracy":"1"},{"address3":"Pedalamba","state":"Andhra Pradesh","state_code":"02","district":"Srikakulam","district_code":"542","address1":"Saravakota Mandal","address2":"","latitude":"18.5609","longitude":"83.7854","accuracy":"1"}],"532215":[{"address3":"Vasundhara","state":"Andhra Pradesh","state_code":"02","district":"Srikakulam","district_code":"542","address1":"Meliaputti Mandal","address2":"","latitude":"18.7883","longitude":"83.8048","accuracy":"3"},{"address3":"Marripadu","state":"Andhra Pradesh","state_code":"02","district":"Srikakulam","district_code":"542","address1":"Meliaputti Mandal","address2":"","latitude":"18.7883","longitude":"83.8048","accuracy":"4"},{"address3":"Siriakhandi","state":"Andhra Pradesh","state_code":"02","district":"Srikakulam","district_code":"542","address1":"Meliaputti Mandal","address2":"","latitude":"18.7883","longitude":"83.8048","accuracy":"3"},{"address3":"Meliaputti","state":"Andhra Pradesh","state_code":"02","district":"Srikakulam","district_code":"542","address1":"Meliaputti Mandal","address2":"","latitude":"18.7883","longitude":"83.8048","accuracy":"3"},{"address3":"Pedapadmapuram","state":"Andhra Pradesh","state_code":"02","district":"Srikakulam","district_code":"542","address1":"Meliaputti Mandal","address2":"","latitude":"18.7883","longitude":"83.8048","accuracy":"3"}],"532216":[{"address3":"Chapara","state":"Andhra Pradesh","state_code":"02","district":"Srikakulam","district_code":"542","address1":"Meliaputti Mandal","address2":"","latitude":"18.7704","longitude":"84.1853","accuracy":"4"},{"address3":"Jhadupalli","state":"Andhra Pradesh","state_code":"02","district":"Srikakulam","district_code":"542","address1":"Meliaputti Mandal","address2":"","latitude":"18.7704","longitude":"84.1853","accuracy":"3"},{"address3":"Pedalaxmipuram","state":"Andhra Pradesh","state_code":"02","district":"Srikakulam","district_code":"542","address1":"Meliaputti Mandal","address2":"","latitude":"18.7704","longitude":"84.1853","accuracy":"3"},{"address3":"Sekharapuram","state":"Andhra Pradesh","state_code":"02","district":"Srikakulam","district_code":"542","address1":"Meliaputti Mandal","address2":"","latitude":"18.7704","longitude":"84.1853","accuracy":"3"}],"532218":[{"address3":"Amalapadu","state":"Andhra Pradesh","state_code":"02","district":"Srikakulam","district_code":"542","address1":"Vajrapukotturu Mandal","address2":"","latitude":"17.9114","longitude":"82.7772","accuracy":"3"},{"address3":"Pundi R S","state":"Andhra Pradesh","state_code":"02","district":"Srikakulam","district_code":"542","address1":"Vajrapukothuru","address2":"","latitude":"17.9114","longitude":"82.7772","accuracy":"3"},{"address3":"Reyyipadu","state":"Andhra Pradesh","state_code":"02","district":"Srikakulam","district_code":"542","address1":"Vajrapukotturu Mandal","address2":"","latitude":"17.9114","longitude":"82.7772","accuracy":"3"},{"address3":"Kambalarayudupeta","state":"Andhra Pradesh","state_code":"02","district":"Srikakulam","district_code":"542","address1":"Vajrapukotturu Mandal","address2":"","latitude":"17.9114","longitude":"82.7772","accuracy":"3"},{"address3":"Kurmanadhapuram","state":"Andhra Pradesh","state_code":"02","district":"Srikakulam","district_code":"542","address1":"Vajrapukotturu Mandal","address2":"","latitude":"18.5786","longitude":"83.9881","accuracy":"4"},{"address3":"Kanitivooru","state":"Andhra Pradesh","state_code":"02","district":"Srikakulam","district_code":"542","address1":"Nandigam Mandal","address2":"","latitude":"17.9114","longitude":"82.7772","accuracy":"3"},{"address3":"Haridasupuram","state":"Andhra Pradesh","state_code":"02","district":"Srikakulam","district_code":"542","address1":"Nandigam Mandal","address2":"","latitude":"17.9114","longitude":"82.7772","accuracy":"3"},{"address3":"Pedamuraharipuram","state":"Andhra Pradesh","state_code":"02","district":"Srikakulam","district_code":"542","address1":"Vajrapukotturu Mandal","address2":"","latitude":"17.9114","longitude":"82.7772","accuracy":"3"},{"address3":"Borubhadra","state":"Andhra Pradesh","state_code":"02","district":"Srikakulam","district_code":"542","address1":"Nandigam Mandal","address2":"","latitude":"17.9114","longitude":"82.7772","accuracy":"3"},{"address3":"Pathatekkali","state":"Andhra Pradesh","state_code":"02","district":"Srikakulam","district_code":"542","address1":"Vajrapukotturu Mandal","address2":"","latitude":"17.9114","longitude":"82.7772","accuracy":"3"},{"address3":"Komaraltada","state":"Andhra Pradesh","state_code":"02","district":"Srikakulam","district_code":"542","address1":"Vajrapukotturu Mandal","address2":"","latitude":"17.9114","longitude":"82.7772","accuracy":"3"},{"address3":"Kondavooru","state":"Andhra Pradesh","state_code":"02","district":"Srikakulam","district_code":"542","address1":"Vajrapukotturu Mandal","address2":"","latitude":"17.9114","longitude":"82.7772","accuracy":"3"}],"532219":[{"address3":"Akkupalli","state":"Andhra Pradesh","state_code":"02","district":"Srikakulam","district_code":"542","address1":"Vajrapukotturu Mandal","address2":"","latitude":"18.7433","longitude":"83.9049","accuracy":"3"},{"address3":"Vonkuluru","state":"Andhra Pradesh","state_code":"02","district":"Srikakulam","district_code":"542","address1":"Vajrapukotturu Mandal","address2":"","latitude":"18.7433","longitude":"83.9049","accuracy":"3"},{"address3":"Metturu","state":"Andhra Pradesh","state_code":"02","district":"Srikakulam","district_code":"542","address1":"Vajrapukotturu Mandal","address2":"","latitude":"18.7433","longitude":"83.9049","accuracy":"4"},{"address3":"Bathupuram","state":"Andhra Pradesh","state_code":"02","district":"Srikakulam","district_code":"542","address1":"Vajrapukotturu Mandal","address2":"","latitude":"18.7433","longitude":"83.9049","accuracy":"3"}],"532220":[{"address3":"Kavitaagraharam","state":"Andhra Pradesh","state_code":"02","district":"Srikakulam","district_code":"542","address1":"Nandigam Mandal","address2":"","latitude":"18.3675","longitude":"83.5148","accuracy":"3"},{"address3":"Brahmanatarla","state":"Andhra Pradesh","state_code":"02","district":"Srikakulam","district_code":"542","address1":"Palasa Mandal","address2":"","latitude":"18.3675","longitude":"83.5148","accuracy":"3"},{"address3":"Venkatapuram","state":"Andhra Pradesh","state_code":"02","district":"Srikakulam","district_code":"542","address1":"Vajrapukotturu Mandal","address2":"","latitude":"18.3675","longitude":"83.5148","accuracy":"4"},{"address3":"Pedanarayanapuram","state":"Andhra Pradesh","state_code":"02","district":"Srikakulam","district_code":"542","address1":"Palasa Mandal","address2":"","latitude":"18.3675","longitude":"83.5148","accuracy":"3"},{"address3":"Tekkalipatnam","state":"Andhra Pradesh","state_code":"02","district":"Srikakulam","district_code":"542","address1":"Palasa Mandal","address2":"","latitude":"18.3675","longitude":"83.5148","accuracy":"3"},{"address3":"Bendi","state":"Andhra Pradesh","state_code":"02","district":"Srikakulam","district_code":"542","address1":"Palasa Mandal","address2":"","latitude":"18.3675","longitude":"83.5148","accuracy":"3"},{"address3":"Garudakhandi","state":"Andhra Pradesh","state_code":"02","district":"Srikakulam","district_code":"542","address1":"Palasa Mandal","address2":"","latitude":"18.3675","longitude":"83.5148","accuracy":"3"},{"address3":"Kothagraharam","state":"Andhra Pradesh","state_code":"02","district":"Srikakulam","district_code":"542","address1":"Nandigam Mandal","address2":"","latitude":"18.3675","longitude":"83.5148","accuracy":"3"}],"532221":[{"address3":"Goppili","state":"Andhra Pradesh","state_code":"02","district":"Srikakulam","district_code":"542","address1":"Meliaputti Mandal","address2":"","latitude":"18.8229","longitude":"84.3539","accuracy":"4"},{"address3":"Tarlakota","state":"Andhra Pradesh","state_code":"02","district":"Srikakulam","district_code":"542","address1":"Palasa Mandal","address2":"","latitude":"18.8031","longitude":"84.4028","accuracy":"4"},{"address3":"Rentikota","state":"Andhra Pradesh","state_code":"02","district":"Srikakulam","district_code":"542","address1":"Palasa Mandal","address2":"","latitude":"18.6929","longitude":"84.2872","accuracy":"3"},{"address3":"Karajada","state":"Andhra Pradesh","state_code":"02","district":"Srikakulam","district_code":"542","address1":"Meliaputti","address2":"","latitude":"18.3729","longitude":"83.9818","accuracy":"4"},{"address3":"Palasa","state":"Andhra Pradesh","state_code":"02","district":"Srikakulam","district_code":"542","address1":"Palasa Mandal","address2":"","latitude":"18.7726","longitude":"84.4101","accuracy":"4"},{"address3":"Kedaripuram","state":"Andhra Pradesh","state_code":"02","district":"Srikakulam","district_code":"542","address1":"Palasa Mandal","address2":"","latitude":"18.6929","longitude":"84.2872","accuracy":"3"}],"532222":[{"address3":"Dokulapadu","state":"Andhra Pradesh","state_code":"02","district":"Srikakulam","district_code":"542","address1":"Vajrapukothuru","address2":"","latitude":"18.7205","longitude":"84.4593","accuracy":"4"},{"address3":"Boddapadu","state":"Andhra Pradesh","state_code":"02","district":"Srikakulam","district_code":"542","address1":"Palasa Mandal","address2":"","latitude":"18.4756","longitude":"83.8726","accuracy":"4"},{"address3":"Anthrakudda","state":"Andhra Pradesh","state_code":"02","district":"Srikakulam","district_code":"542","address1":"Palasa Mandal","address2":"","latitude":"18.6518","longitude":"84.2494","accuracy":"3"},{"address3":"Kasibugga (Srikakulam)","state":"Andhra Pradesh","state_code":"02","district":"Srikakulam","district_code":"542","address1":"Palasa","address2":"","latitude":"18.7593","longitude":"84.4161","accuracy":"4"},{"address3":"Chinabadam","state":"Andhra Pradesh","state_code":"02","district":"Srikakulam","district_code":"542","address1":"Palasa Mandal","address2":"","latitude":"18.6518","longitude":"84.2494","accuracy":"3"},{"address3":"Pallisaradhi","state":"Andhra Pradesh","state_code":"02","district":"Srikakulam","district_code":"542","address1":"Vajrapukotturu Mandal","address2":"","latitude":"18.6518","longitude":"84.2494","accuracy":"3"},{"address3":"Vajrapukotturu","state":"Andhra Pradesh","state_code":"02","district":"Srikakulam","district_code":"542","address1":"Vajrapukotturu Mandal","address2":"","latitude":"18.6518","longitude":"84.2494","accuracy":"3"},{"address3":"Garudabhadra","state":"Andhra Pradesh","state_code":"02","district":"Srikakulam","district_code":"542","address1":"Palasa Mandal","address2":"","latitude":"18.6518","longitude":"84.2494","accuracy":"3"},{"address3":"Laxmidevipeta","state":"Andhra Pradesh","state_code":"02","district":"Srikakulam","district_code":"542","address1":"Vajrapukotturu Mandal","address2":"","latitude":"18.6518","longitude":"84.2494","accuracy":"3"},{"address3":"Nagarampalli","state":"Andhra Pradesh","state_code":"02","district":"Srikakulam","district_code":"542","address1":"Vajrapukotturu Mandal","address2":"","latitude":"18.6518","longitude":"84.2494","accuracy":"3"}],"532242":[{"address3":"Kothapalli","state":"Andhra Pradesh","state_code":"02","district":"Srikakulam","district_code":"542","address1":"Mandasa Mandal","address2":"","latitude":"18.5786","longitude":"83.9881","accuracy":"3"},{"address3":"Mandasa","state":"Andhra Pradesh","state_code":"02","district":"Srikakulam","district_code":"542","address1":"Mandasa Mandal","address2":"","latitude":"18.8683","longitude":"84.463","accuracy":"4"},{"address3":"Gudarurajamanipuram","state":"Andhra Pradesh","state_code":"02","district":"Srikakulam","district_code":"542","address1":"Mandasa Mandal","address2":"","latitude":"18.8683","longitude":"84.463","accuracy":"3"},{"address3":"Cheepi","state":"Andhra Pradesh","state_code":"02","district":"Srikakulam","district_code":"542","address1":"Mandasa Mandal","address2":"","latitude":"18.8683","longitude":"84.463","accuracy":"3"},{"address3":"Killoyicolony","state":"Andhra Pradesh","state_code":"02","district":"Srikakulam","district_code":"542","address1":"Mandasa","address2":"","latitude":"18.8683","longitude":"84.463","accuracy":"3"},{"address3":"Sondipudi","state":"Andhra Pradesh","state_code":"02","district":"Srikakulam","district_code":"542","address1":"Mandasa Mandal","address2":"","latitude":"18.8683","longitude":"84.463","accuracy":"3"}],"532243":[{"address3":"Ganguvada","state":"Andhra Pradesh","state_code":"02","district":"Srikakulam","district_code":"542","address1":"Palasa","address2":"","latitude":"18.6667","longitude":"84.1167","accuracy":"4"},{"address3":"Kondalogam","state":"Andhra Pradesh","state_code":"02","district":"Srikakulam","district_code":"542","address1":"Mandasa Mandal","address2":"","latitude":"18.6893","longitude":"84.0081","accuracy":"3"},{"address3":"Haripuram","state":"Andhra Pradesh","state_code":"02","district":"Srikakulam","district_code":"542","address1":"Mandasa","address2":"","latitude":"18.7119","longitude":"83.8996","accuracy":"4"},{"address3":"Tallabhadra","state":"Andhra Pradesh","state_code":"02","district":"Srikakulam","district_code":"542","address1":"Sompeta Mandal","address2":"","latitude":"18.6893","longitude":"84.0081","accuracy":"3"},{"address3":"Suvarnapuram","state":"Andhra Pradesh","state_code":"02","district":"Srikakulam","district_code":"542","address1":"Mandasa Mandal","address2":"","latitude":"18.6893","longitude":"84.0081","accuracy":"3"},{"address3":"Rangoi","state":"Andhra Pradesh","state_code":"02","district":"Srikakulam","district_code":"542","address1":"Palasa Mandal","address2":"","latitude":"18.6893","longitude":"84.0081","accuracy":"3"},{"address3":"Neelavathi","state":"Andhra Pradesh","state_code":"02","district":"Srikakulam","district_code":"542","address1":"Palasa Mandal","address2":"","latitude":"18.6893","longitude":"84.0081","accuracy":"3"}],"532263":[{"address3":"Gollagandi","state":"Andhra Pradesh","state_code":"02","district":"Srikakulam","district_code":"542","address1":"Sompeta Mandal","address2":"","latitude":"18.8826","longitude":"84.582","accuracy":"3"},{"address3":"Baruva","state":"Andhra Pradesh","state_code":"02","district":"Srikakulam","district_code":"542","address1":"Sompeta Mandal","address2":"","latitude":"18.8826","longitude":"84.582","accuracy":"4"},{"address3":"Yerramukkam","state":"Andhra Pradesh","state_code":"02","district":"Srikakulam","district_code":"542","address1":"Sompeta Mandal","address2":"","latitude":"18.8826","longitude":"84.582","accuracy":"3"},{"address3":"Nadumuru","state":"Andhra Pradesh","state_code":"02","district":"Srikakulam","district_code":"542","address1":"Sompeta Mandal","address2":"","latitude":"18.8826","longitude":"84.582","accuracy":"3"},{"address3":"Uppalam","state":"Andhra Pradesh","state_code":"02","district":"Srikakulam","district_code":"542","address1":"Sompeta Mandal","address2":"","latitude":"18.8826","longitude":"84.582","accuracy":"3"}],"532264":[{"address3":"Palavalasa","state":"Andhra Pradesh","state_code":"02","district":"Srikakulam","district_code":"542","address1":"Sompeta Mandal","address2":"","latitude":"18.4819","longitude":"83.9238","accuracy":"4"},{"address3":"Bhogapuram","state":"Andhra Pradesh","state_code":"02","district":"Srikakulam","district_code":"542","address1":"Mandasa Mandal","address2":"","latitude":"18.5786","longitude":"83.9881","accuracy":"3"},{"address3":"Turakasasanam","state":"Andhra Pradesh","state_code":"02","district":"Srikakulam","district_code":"542","address1":"Sompeta Mandal","address2":"","latitude":"18.4819","longitude":"83.9238","accuracy":"3"},{"address3":"Baruva R S","state":"Andhra Pradesh","state_code":"02","district":"Srikakulam","district_code":"542","address1":"Mandasa Mandal","address2":"","latitude":"18.4819","longitude":"83.9238","accuracy":"3"},{"address3":"Chowkipeta","state":"Andhra Pradesh","state_code":"02","district":"Srikakulam","district_code":"542","address1":"Mandasa Mandal","address2":"","latitude":"18.4819","longitude":"83.9238","accuracy":"3"},{"address3":"Badupuram","state":"Andhra Pradesh","state_code":"02","district":"Srikakulam","district_code":"542","address1":"Sompeta Mandal","address2":"","latitude":"18.4819","longitude":"83.9238","accuracy":"3"},{"address3":"Mamidipalli","state":"Andhra Pradesh","state_code":"02","district":"Srikakulam","district_code":"542","address1":"Sompeta Mandal","address2":"","latitude":"18.4819","longitude":"83.9238","accuracy":"3"},{"address3":"Potrakonda","state":"Andhra Pradesh","state_code":"02","district":"Srikakulam","district_code":"542","address1":"Sompeta Mandal","address2":"","latitude":"18.4819","longitude":"83.9238","accuracy":"3"}],"532284":[{"address3":"Sompeta","state":"Andhra Pradesh","state_code":"02","district":"Srikakulam","district_code":"542","address1":"Sompeta Mandal","address2":"","latitude":"18.9442","longitude":"84.5845","accuracy":"4"},{"address3":"Jinkibhadra","state":"Andhra Pradesh","state_code":"02","district":"Srikakulam","district_code":"542","address1":"Sompeta Mandal","address2":"","latitude":"18.9442","longitude":"84.5845","accuracy":"3"},{"address3":"Sasanam","state":"Andhra Pradesh","state_code":"02","district":"Srikakulam","district_code":"542","address1":"Sompeta Mandal","address2":"","latitude":"18.9442","longitude":"84.5845","accuracy":"3"},{"address3":"Brc Puram","state":"Andhra Pradesh","state_code":"02","district":"Srikakulam","district_code":"542","address1":"Sompeta Mandal","address2":"","latitude":"18.9442","longitude":"84.5845","accuracy":"3"},{"address3":"Buragam","state":"Andhra Pradesh","state_code":"02","district":"Srikakulam","district_code":"542","address1":"Kanchili Mandal","address2":"","latitude":"18.9442","longitude":"84.5845","accuracy":"3"},{"address3":"Palasapuram","state":"Andhra Pradesh","state_code":"02","district":"Srikakulam","district_code":"542","address1":"Sompeta Mandal","address2":"","latitude":"18.9442","longitude":"84.5845","accuracy":"3"},{"address3":"Jalantrakota","state":"Andhra Pradesh","state_code":"02","district":"Srikakulam","district_code":"542","address1":"Kanchili Mandal","address2":"","latitude":"18.9442","longitude":"84.5845","accuracy":"3"}],"532290":[{"address3":"Makarampuram","state":"Andhra Pradesh","state_code":"02","district":"Srikakulam","district_code":"542","address1":"Kanchili Mandal","address2":"","latitude":"18.8941","longitude":"84.0171","accuracy":"3"},{"address3":"Belagam","state":"Andhra Pradesh","state_code":"02","district":"Srikakulam","district_code":"542","address1":"Kaviti Mandal","address2":"","latitude":"18.5786","longitude":"83.9881","accuracy":"4"},{"address3":"Khajuru","state":"Andhra Pradesh","state_code":"02","district":"Srikakulam","district_code":"542","address1":"Kaviti Mandal","address2":"","latitude":"18.8941","longitude":"84.0171","accuracy":"3"},{"address3":"Jhadupudi","state":"Andhra Pradesh","state_code":"02","district":"Srikakulam","district_code":"542","address1":"Kanchili Mandal","address2":"","latitude":"19.016","longitude":"84.61","accuracy":"4"},{"address3":"Gorlapadu","state":"Andhra Pradesh","state_code":"02","district":"Srikakulam","district_code":"542","address1":"Kaviti Mandal","address2":"","latitude":"18.8941","longitude":"84.0171","accuracy":"3"},{"address3":"Peddakojjiria","state":"Andhra Pradesh","state_code":"02","district":"Srikakulam","district_code":"542","address1":"Kanchili Mandal","address2":"","latitude":"18.8941","longitude":"84.0171","accuracy":"3"},{"address3":"Pedasrirampuram","state":"Andhra Pradesh","state_code":"02","district":"Srikakulam","district_code":"542","address1":"Kanchili Mandal","address2":"","latitude":"18.8941","longitude":"84.0171","accuracy":"3"},{"address3":"Kanchili","state":"Andhra Pradesh","state_code":"02","district":"Srikakulam","district_code":"542","address1":"Kanchili Mandal","address2":"","latitude":"18.8941","longitude":"84.0171","accuracy":"3"},{"address3":"Sahalalaputtuga","state":"Andhra Pradesh","state_code":"02","district":"Srikakulam","district_code":"542","address1":"Kaviti Mandal","address2":"","latitude":"18.8941","longitude":"84.0171","accuracy":"3"}],"532291":[{"address3":"Ms Palli","state":"Andhra Pradesh","state_code":"02","district":"Srikakulam","district_code":"542","address1":"Kanchili Mandal","address2":"","latitude":"18.7493","longitude":"83.9151","accuracy":"1"},{"address3":"Kesaripada","state":"Andhra Pradesh","state_code":"02","district":"Srikakulam","district_code":"542","address1":"Kanchili Mandal","address2":"","latitude":"18.7493","longitude":"83.9151","accuracy":"1"},{"address3":"Dolagovindapuram","state":"Andhra Pradesh","state_code":"02","district":"Srikakulam","district_code":"542","address1":"Kanchili Mandal","address2":"","latitude":"18.7493","longitude":"83.9151","accuracy":"1"},{"address3":"Mundala","state":"Andhra Pradesh","state_code":"02","district":"Srikakulam","district_code":"542","address1":"Kanchili Mandal","address2":"","latitude":"18.7493","longitude":"83.9151","accuracy":"1"},{"address3":"Poleru","state":"Andhra Pradesh","state_code":"02","district":"Srikakulam","district_code":"542","address1":"Kanchili Mandal","address2":"","latitude":"18.7493","longitude":"83.9151","accuracy":"1"}],"532292":[{"address3":"Rushikudda","state":"Andhra Pradesh","state_code":"02","district":"Srikakulam","district_code":"542","address1":"Sompeta Mandal","address2":"","latitude":"18.4598","longitude":"83.7112","accuracy":"3"},{"address3":"Talatampara","state":"Andhra Pradesh","state_code":"02","district":"Srikakulam","district_code":"542","address1":"Kanchili Mandal","address2":"","latitude":"18.4598","longitude":"83.7112","accuracy":"4"},{"address3":"Gonapaputtuga","state":"Andhra Pradesh","state_code":"02","district":"Srikakulam","district_code":"542","address1":"NA","address2":"","latitude":"18.4598","longitude":"83.7112","accuracy":"3"},{"address3":"Borivanka","state":"Andhra Pradesh","state_code":"02","district":"Srikakulam","district_code":"542","address1":"Kaviti Mandal","address2":"","latitude":"18.4598","longitude":"83.7112","accuracy":"3"},{"address3":"Manikyapuram","state":"Andhra Pradesh","state_code":"02","district":"Srikakulam","district_code":"542","address1":"Kaviti Mandal","address2":"","latitude":"18.4598","longitude":"83.7112","accuracy":"3"},{"address3":"Isakalapalem","state":"Andhra Pradesh","state_code":"02","district":"Srikakulam","district_code":"542","address1":"Sompeta Mandal","address2":"","latitude":"18.4598","longitude":"83.7112","accuracy":"3"},{"address3":"Kusumapuram","state":"Andhra Pradesh","state_code":"02","district":"Srikakulam","district_code":"542","address1":"Kaviti Mandal","address2":"","latitude":"18.4598","longitude":"83.7112","accuracy":"3"}],"532312":[{"address3":"Purushothapur (IPR)","state":"Andhra Pradesh","state_code":"02","district":"Srikakulam","district_code":"542","address1":"Ichchapuram","address2":"","latitude":"18.7179","longitude":"84.1331","accuracy":"3"},{"address3":"Haripuram","state":"Andhra Pradesh","state_code":"02","district":"Srikakulam","district_code":"542","address1":"Ichchapuram","address2":"","latitude":"18.7119","longitude":"83.8996","accuracy":"4"},{"address3":"Rattakanna","state":"Andhra Pradesh","state_code":"02","district":"Srikakulam","district_code":"542","address1":"Ichchapuram","address2":"","latitude":"18.7179","longitude":"84.1331","accuracy":"3"},{"address3":"Muchindra","state":"Andhra Pradesh","state_code":"02","district":"Srikakulam","district_code":"542","address1":"Sompeta Mandal","address2":"","latitude":"18.7179","longitude":"84.1331","accuracy":"3"},{"address3":"Burjapadu","state":"Andhra Pradesh","state_code":"02","district":"Srikakulam","district_code":"542","address1":"Ichchapuram","address2":"","latitude":"18.7179","longitude":"84.1331","accuracy":"3"},{"address3":"Ichchapuram Bus Stand","state":"Andhra Pradesh","state_code":"02","district":"Srikakulam","district_code":"542","address1":"Ichchapuram","address2":"","latitude":"18.7179","longitude":"84.1331","accuracy":"3"},{"address3":"Mandapalli","state":"Andhra Pradesh","state_code":"02","district":"Srikakulam","district_code":"542","address1":"Ichchapuram Mandal","address2":"","latitude":"18.5786","longitude":"83.9881","accuracy":"3"},{"address3":"Loddaputti","state":"Andhra Pradesh","state_code":"02","district":"Srikakulam","district_code":"542","address1":"Ichchapuram Mandal","address2":"","latitude":"18.7179","longitude":"84.1331","accuracy":"3"},{"address3":"Karapadu","state":"Andhra Pradesh","state_code":"02","district":"Srikakulam","district_code":"542","address1":"Kaviti Mandal","address2":"","latitude":"18.7179","longitude":"84.1331","accuracy":"3"},{"address3":"Dharmapuram","state":"Andhra Pradesh","state_code":"02","district":"Srikakulam","district_code":"542","address1":"Ichchapuram Mandal","address2":"","latitude":"18.328","longitude":"83.8126","accuracy":"4"},{"address3":"Ichchapuram","state":"Andhra Pradesh","state_code":"02","district":"Srikakulam","district_code":"542","address1":"Ichchapuram","address2":"","latitude":"19.1139","longitude":"84.6872","accuracy":"4"},{"address3":"Kesupuram","state":"Andhra Pradesh","state_code":"02","district":"Srikakulam","district_code":"542","address1":"Ichchapuram Mandal","address2":"","latitude":"18.7179","longitude":"84.1331","accuracy":"3"},{"address3":"Edupuram","state":"Andhra Pradesh","state_code":"02","district":"Srikakulam","district_code":"542","address1":"Ichchapuram Mandal","address2":"","latitude":"18.7179","longitude":"84.1331","accuracy":"3"},{"address3":"Koligam","state":"Andhra Pradesh","state_code":"02","district":"Srikakulam","district_code":"542","address1":"Ichchapuram Mandal","address2":"","latitude":"18.7179","longitude":"84.1331","accuracy":"3"},{"address3":"Deppilugonapaputtuga","state":"Andhra Pradesh","state_code":"02","district":"Srikakulam","district_code":"542","address1":"Kaviti","address2":"","latitude":"18.7179","longitude":"84.1331","accuracy":"3"},{"address3":"Bhirlangi","state":"Andhra Pradesh","state_code":"02","district":"Srikakulam","district_code":"542","address1":"Ichchapuram Mandal","address2":"","latitude":"18.7179","longitude":"84.1331","accuracy":"3"}],"532322":[{"address3":"Jagathi","state":"Andhra Pradesh","state_code":"02","district":"Srikakulam","district_code":"542","address1":"Kaviti Mandal","address2":"","latitude":"18.577","longitude":"83.7074","accuracy":"3"},{"address3":"Rajapuram","state":"Andhra Pradesh","state_code":"02","district":"Srikakulam","district_code":"542","address1":"Kaviti Mandal","address2":"","latitude":"18.6835","longitude":"83.6359","accuracy":"4"},{"address3":"Silagam","state":"Andhra Pradesh","state_code":"02","district":"Srikakulam","district_code":"542","address1":"Kaviti Mandal","address2":"","latitude":"18.577","longitude":"83.7074","accuracy":"3"},{"address3":"Kaviti","state":"Andhra Pradesh","state_code":"02","district":"Srikakulam","district_code":"542","address1":"Kaviti Mandal","address2":"","latitude":"18.4705","longitude":"83.7789","accuracy":"4"},{"address3":"Kapaskudda","state":"Andhra Pradesh","state_code":"02","district":"Srikakulam","district_code":"542","address1":"Kaviti Mandal","address2":"","latitude":"18.577","longitude":"83.7074","accuracy":"3"},{"address3":"Beejiputti","state":"Andhra Pradesh","state_code":"02","district":"Srikakulam","district_code":"542","address1":"Kaviti Mandal","address2":"","latitude":"18.577","longitude":"83.7074","accuracy":"3"}],"532401":[{"address3":"Vadada","state":"Andhra Pradesh","state_code":"02","district":"Srikakulam","district_code":"542","address1":"Gara Mandal","address2":"","latitude":"18.2679","longitude":"83.9358","accuracy":"4"},{"address3":"Arasavilli","state":"Andhra Pradesh","state_code":"02","district":"Srikakulam","district_code":"542","address1":"Srikakulam","address2":"","latitude":"18.2907","longitude":"83.9367","accuracy":"3"},{"address3":"Mofusbandar","state":"Andhra Pradesh","state_code":"02","district":"Srikakulam","district_code":"542","address1":"Srikakulam Mandal","address2":"","latitude":"18.2907","longitude":"83.9367","accuracy":"3"},{"address3":"Ippili","state":"Andhra Pradesh","state_code":"02","district":"Srikakulam","district_code":"542","address1":"Srikakulam Mandal","address2":"","latitude":"18.2483","longitude":"83.9615","accuracy":"4"},{"address3":"Peddapadu","state":"Andhra Pradesh","state_code":"02","district":"Srikakulam","district_code":"542","address1":"Srikakulam Mandal","address2":"","latitude":"18.3138","longitude":"83.9258","accuracy":"4"},{"address3":"Sanivada","state":"Andhra Pradesh","state_code":"02","district":"Srikakulam","district_code":"542","address1":"Srikakulam","address2":"","latitude":"18.3018","longitude":"83.942","accuracy":"4"},{"address3":"Patrunivalasa","state":"Andhra Pradesh","state_code":"02","district":"Srikakulam","district_code":"542","address1":"Srikakulam Mandal","address2":"","latitude":"18.3219","longitude":"83.9187","accuracy":"4"}],"532402":[{"address3":"Kinthali","state":"Andhra Pradesh","state_code":"02","district":"Srikakulam","district_code":"542","address1":"Ponduru Mandal","address2":"","latitude":"18.3317","longitude":"83.8267","accuracy":"3"},{"address3":"Dallavalasa","state":"Andhra Pradesh","state_code":"02","district":"Srikakulam","district_code":"542","address1":"Ponduru Mandal","address2":"","latitude":"18.3413","longitude":"83.8198","accuracy":"4"},{"address3":"S.M.Puram","state":"Andhra Pradesh","state_code":"02","district":"Srikakulam","district_code":"542","address1":"Etcherla Mandal","address2":"","latitude":"18.3317","longitude":"83.8267","accuracy":"3"},{"address3":"Dharmapuram","state":"Andhra Pradesh","state_code":"02","district":"Srikakulam","district_code":"542","address1":"Ponduru Mandal","address2":"","latitude":"18.328","longitude":"83.8126","accuracy":"4"},{"address3":"Tholapi","state":"Andhra Pradesh","state_code":"02","district":"Srikakulam","district_code":"542","address1":"Ponduru Mandal","address2":"","latitude":"18.3317","longitude":"83.8267","accuracy":"3"},{"address3":"Kanimetta","state":"Andhra Pradesh","state_code":"02","district":"Srikakulam","district_code":"542","address1":"Ponduru Mandal","address2":"","latitude":"18.326","longitude":"83.8478","accuracy":"4"}],"532403":[{"address3":"Tamavada","state":"Andhra Pradesh","state_code":"02","district":"Srikakulam","district_code":"542","address1":"Laveru Mandal","address2":"","latitude":"18.2226","longitude":"83.7742","accuracy":"3"},{"address3":"Murapaka","state":"Andhra Pradesh","state_code":"02","district":"Srikakulam","district_code":"542","address1":"Laveru","address2":"","latitude":"18.2282","longitude":"83.7926","accuracy":"4"},{"address3":"Ajjaram","state":"Andhra Pradesh","state_code":"02","district":"Srikakulam","district_code":"542","address1":"Etcherla","address2":"","latitude":"18.2125","longitude":"83.8278","accuracy":"4"},{"address3":"Allinagaram","state":"Andhra Pradesh","state_code":"02","district":"Srikakulam","district_code":"542","address1":"Etcherla Mandal","address2":"","latitude":"18.5786","longitude":"83.9881","accuracy":"3"},{"address3":"Bejjipuram","state":"Andhra Pradesh","state_code":"02","district":"Srikakulam","district_code":"542","address1":"Laveru Mandal","address2":"","latitude":"18.2301","longitude":"83.7296","accuracy":"4"},{"address3":"Budumuru","state":"Andhra Pradesh","state_code":"02","district":"Srikakulam","district_code":"542","address1":"Laveru Mandal","address2":"","latitude":"18.2464","longitude":"83.7663","accuracy":"4"},{"address3":"Kuppili","state":"Andhra Pradesh","state_code":"02","district":"Srikakulam","district_code":"542","address1":"Etcherla Mandal","address2":"","latitude":"18.1767","longitude":"83.8078","accuracy":"4"},{"address3":"Kesavarayunipalem","state":"Andhra Pradesh","state_code":"02","district":"Srikakulam","district_code":"542","address1":"Laveru Mandal","address2":"","latitude":"18.2049","longitude":"83.7867","accuracy":"4"},{"address3":"Budatavalasa","state":"Andhra Pradesh","state_code":"02","district":"Srikakulam","district_code":"542","address1":"Laveru Mandal","address2":"","latitude":"18.2156","longitude":"83.7476","accuracy":"4"},{"address3":"Adapaka","state":"Andhra Pradesh","state_code":"02","district":"Srikakulam","district_code":"542","address1":"Laveru Mandal","address2":"","latitude":"18.2668","longitude":"83.7351","accuracy":"4"}],"532404":[{"address3":"Vatsavalasa","state":"Andhra Pradesh","state_code":"02","district":"Srikakulam","district_code":"542","address1":"Gara","address2":"","latitude":"18.319","longitude":"83.9668","accuracy":"3"},{"address3":"Lingalavalasa","state":"Andhra Pradesh","state_code":"02","district":"Srikakulam","district_code":"542","address1":"Gara Mandal","address2":"","latitude":"18.3641","longitude":"83.9113","accuracy":"4"},{"address3":"Ampolu","state":"Andhra Pradesh","state_code":"02","district":"Srikakulam","district_code":"542","address1":"Gara Mandal","address2":"","latitude":"18.3221","longitude":"83.9846","accuracy":"4"},{"address3":"Chinavatsavalasa","state":"Andhra Pradesh","state_code":"02","district":"Srikakulam","district_code":"542","address1":"Gara Mandal","address2":"","latitude":"18.319","longitude":"83.9668","accuracy":"3"},{"address3":"Srikurmam","state":"Andhra Pradesh","state_code":"02","district":"Srikakulam","district_code":"542","address1":"Gara","address2":"","latitude":"18.2708","longitude":"84.0044","accuracy":"4"}],"532405":[{"address3":"Buravilli","state":"Andhra Pradesh","state_code":"02","district":"Srikakulam","district_code":"542","address1":"Gara","address2":"","latitude":"18.3545","longitude":"83.8508","accuracy":"3"},{"address3":"Sathivada","state":"Andhra Pradesh","state_code":"02","district":"Srikakulam","district_code":"542","address1":"Gara Mandal","address2":"","latitude":"18.3545","longitude":"83.8508","accuracy":"3"},{"address3":"Salihundam","state":"Andhra Pradesh","state_code":"02","district":"Srikakulam","district_code":"542","address1":"Gara Mandal","address2":"","latitude":"18.3545","longitude":"83.8508","accuracy":"3"},{"address3":"Gara","state":"Andhra Pradesh","state_code":"02","district":"Srikakulam","district_code":"542","address1":"Gara","address2":"","latitude":"18.3226","longitude":"84.0687","accuracy":"4"},{"address3":"Tulugu","state":"Andhra Pradesh","state_code":"02","district":"Srikakulam","district_code":"542","address1":"Gara","address2":"","latitude":"18.3545","longitude":"83.8508","accuracy":"3"},{"address3":"Korlam","state":"Andhra Pradesh","state_code":"02","district":"Srikakulam","district_code":"542","address1":"Gara Mandal","address2":"","latitude":"18.3756","longitude":"83.496","accuracy":"4"},{"address3":"Bhairi","state":"Andhra Pradesh","state_code":"02","district":"Srikakulam","district_code":"542","address1":"Srikakulam Mandal","address2":"","latitude":"18.3655","longitude":"83.9878","accuracy":"4"}],"532406":[{"address3":"Tonangi","state":"Andhra Pradesh","state_code":"02","district":"Srikakulam","district_code":"542","address1":"Gara Mandal","address2":"","latitude":"18.2461","longitude":"83.7781","accuracy":"1"},{"address3":"Calingapatnam","state":"Andhra Pradesh","state_code":"02","district":"Srikakulam","district_code":"542","address1":"Gara","address2":"","latitude":"18.2461","longitude":"83.7781","accuracy":"1"},{"address3":"Bandaruvanipeta","state":"Andhra Pradesh","state_code":"02","district":"Srikakulam","district_code":"542","address1":"Gara Mandal","address2":"","latitude":"18.2461","longitude":"83.7781","accuracy":"1"},{"address3":"Vommaravilli","state":"Andhra Pradesh","state_code":"02","district":"Srikakulam","district_code":"542","address1":"Gara Mandal","address2":"","latitude":"18.2461","longitude":"83.7781","accuracy":"1"}],"532407":[{"address3":"Laveru","state":"Andhra Pradesh","state_code":"02","district":"Srikakulam","district_code":"542","address1":"Laveru Mandal","address2":"","latitude":"18.2385","longitude":"83.693","accuracy":"4"},{"address3":"Jeerupalem","state":"Andhra Pradesh","state_code":"02","district":"Srikakulam","district_code":"542","address1":"Ranasthalam Mandal","address2":"","latitude":"18.1973","longitude":"83.5909","accuracy":"3"},{"address3":"Ranasthalam","state":"Andhra Pradesh","state_code":"02","district":"Srikakulam","district_code":"542","address1":"Ranasthalam Mandal","address2":"","latitude":"18.1979","longitude":"83.704","accuracy":"4"},{"address3":"Venkatapuram","state":"Andhra Pradesh","state_code":"02","district":"Srikakulam","district_code":"542","address1":"Laveru Mandal","address2":"","latitude":"18.2692","longitude":"83.6771","accuracy":"4"},{"address3":"Kovvadamachilesam","state":"Andhra Pradesh","state_code":"02","district":"Srikakulam","district_code":"542","address1":"Ranasthalam Mandal","address2":"","latitude":"18.1973","longitude":"83.5909","accuracy":"3"},{"address3":"Gumadam","state":"Andhra Pradesh","state_code":"02","district":"Srikakulam","district_code":"542","address1":"Laveru Mandal","address2":"","latitude":"18.5786","longitude":"83.9881","accuracy":"4"},{"address3":"Tallavalasa","state":"Andhra Pradesh","state_code":"02","district":"Srikakulam","district_code":"542","address1":"Laveru Mandal","address2":"","latitude":"18.2273","longitude":"83.7148","accuracy":"4"},{"address3":"Patharlapalli","state":"Andhra Pradesh","state_code":"02","district":"Srikakulam","district_code":"542","address1":"Ranasthalam Mandal","address2":"","latitude":"18.1973","longitude":"83.5909","accuracy":"3"},{"address3":"Kotapalem","state":"Andhra Pradesh","state_code":"02","district":"Srikakulam","district_code":"542","address1":"Ranasthalam Mandal","address2":"","latitude":"18.1357","longitude":"83.7308","accuracy":"4"},{"address3":"J.R.Puram","state":"Andhra Pradesh","state_code":"02","district":"Srikakulam","district_code":"542","address1":"Ranastalam","address2":"","latitude":"18.1973","longitude":"83.5909","accuracy":"3"},{"address3":"Teppalavalasa","state":"Andhra Pradesh","state_code":"02","district":"Srikakulam","district_code":"542","address1":"Ranasthalam Mandal","address2":"","latitude":"18.155","longitude":"83.7305","accuracy":"4"},{"address3":"Gollalapalem","state":"Andhra Pradesh","state_code":"02","district":"Vizianagaram","district_code":"543","address1":"Cheepurupalle","address2":"","latitude":"18.1535","longitude":"83.221","accuracy":"4"}],"532408":[{"address3":"D. Matchilesam","state":"Andhra Pradesh","state_code":"02","district":"Srikakulam","district_code":"542","address1":"Etcherla","address2":"","latitude":"18.22","longitude":"83.8798","accuracy":"3"},{"address3":"Bontalakoduru","state":"Andhra Pradesh","state_code":"02","district":"Srikakulam","district_code":"542","address1":"Etcherla","address2":"","latitude":"18.22","longitude":"83.8798","accuracy":"3"},{"address3":"Koyyam","state":"Andhra Pradesh","state_code":"02","district":"Srikakulam","district_code":"542","address1":"Etcherla","address2":"","latitude":"18.19","longitude":"83.8526","accuracy":"4"},{"address3":"Dharmavaram","state":"Andhra Pradesh","state_code":"02","district":"Srikakulam","district_code":"542","address1":"Etcherla","address2":"","latitude":"18.2164","longitude":"83.8856","accuracy":"4"},{"address3":"Ponnada","state":"Andhra Pradesh","state_code":"02","district":"Srikakulam","district_code":"542","address1":"Etcherla","address2":"","latitude":"18.2536","longitude":"83.9012","accuracy":"4"}],"532409":[{"address3":"Pathivadapalem","state":"Andhra Pradesh","state_code":"02","district":"Srikakulam","district_code":"542","address1":"Ranasthalam Mandal","address2":"","latitude":"18.1542","longitude":"83.6531","accuracy":"3"},{"address3":"Pydibheemavaram","state":"Andhra Pradesh","state_code":"02","district":"Srikakulam","district_code":"542","address1":"Ranastalam","address2":"","latitude":"18.1542","longitude":"83.6531","accuracy":"3"},{"address3":"Devunipalavalasa","state":"Andhra Pradesh","state_code":"02","district":"Srikakulam","district_code":"542","address1":"Ranasthalam Mandal","address2":"","latitude":"18.1542","longitude":"83.6531","accuracy":"3"},{"address3":"Rajam","state":"Andhra Pradesh","state_code":"02","district":"Srikakulam","district_code":"542","address1":"Ranasthalam Mandal","address2":"","latitude":"18.1266","longitude":"83.6645","accuracy":"4"},{"address3":"Sancham","state":"Andhra Pradesh","state_code":"02","district":"Srikakulam","district_code":"542","address1":"Ranasthalam Mandal","address2":"","latitude":"18.1542","longitude":"83.6531","accuracy":"3"},{"address3":"Arjunavalasa","state":"Andhra Pradesh","state_code":"02","district":"Srikakulam","district_code":"542","address1":"Ranasthalam Mandal","address2":"","latitude":"18.197","longitude":"83.6228","accuracy":"4"},{"address3":"Derasam","state":"Andhra Pradesh","state_code":"02","district":"Srikakulam","district_code":"542","address1":"Ranasthalam Mandal","address2":"","latitude":"18.1476","longitude":"83.6839","accuracy":"4"},{"address3":"Varisam","state":"Andhra Pradesh","state_code":"02","district":"Srikakulam","district_code":"542","address1":"Ranasthalam Mandal","address2":"","latitude":"18.1454","longitude":"83.6413","accuracy":"4"}],"532410":[{"address3":"Etcherla","state":"Andhra Pradesh","state_code":"02","district":"Srikakulam","district_code":"542","address1":"Etcherla","address2":"","latitude":"18.4949","longitude":"83.786","accuracy":"1"},{"address3":"Fareedpeta","state":"Andhra Pradesh","state_code":"02","district":"Srikakulam","district_code":"542","address1":"Etcherla Mandal","address2":"","latitude":"18.4949","longitude":"83.786","accuracy":"1"}],"532421":[{"address3":"Narasannapeta Market","state":"Andhra Pradesh","state_code":"02","district":"Srikakulam","district_code":"542","address1":"Narasannapeta","address2":"","latitude":"18.3099","longitude":"83.7606","accuracy":"3"},{"address3":"Kambakaya","state":"Andhra Pradesh","state_code":"02","district":"Srikakulam","district_code":"542","address1":"Narasannapeta Mandal","address2":"","latitude":"18.3099","longitude":"83.7606","accuracy":"3"},{"address3":"Makivalasa","state":"Andhra Pradesh","state_code":"02","district":"Srikakulam","district_code":"542","address1":"Narasannapeta Mandal","address2":"","latitude":"18.5002","longitude":"83.9637","accuracy":"4"},{"address3":"Idulavalasa","state":"Andhra Pradesh","state_code":"02","district":"Srikakulam","district_code":"542","address1":"Polaki Mandal","address2":"","latitude":"18.3099","longitude":"83.7606","accuracy":"3"},{"address3":"Madapam","state":"Andhra Pradesh","state_code":"02","district":"Srikakulam","district_code":"542","address1":"Narasannapeta Mandal","address2":"","latitude":"18.3738","longitude":"83.994","accuracy":"4"},{"address3":"Jaduru","state":"Andhra Pradesh","state_code":"02","district":"Srikakulam","district_code":"542","address1":"Polaki Mandal","address2":"","latitude":"18.3099","longitude":"83.7606","accuracy":"3"},{"address3":"Satyavaram","state":"Andhra Pradesh","state_code":"02","district":"Srikakulam","district_code":"542","address1":"Narasannapeta Mandal","address2":"","latitude":"18.5786","longitude":"83.9881","accuracy":"4"},{"address3":"Piruvada","state":"Andhra Pradesh","state_code":"02","district":"Srikakulam","district_code":"542","address1":"Polaki Mandal","address2":"","latitude":"18.3099","longitude":"83.7606","accuracy":"3"},{"address3":"Devadi","state":"Andhra Pradesh","state_code":"02","district":"Srikakulam","district_code":"542","address1":"Narasannapeta","address2":"","latitude":"18.3808","longitude":"84.0133","accuracy":"4"},{"address3":"Mabagam","state":"Andhra Pradesh","state_code":"02","district":"Srikakulam","district_code":"542","address1":"Polaki Mandal","address2":"","latitude":"18.3099","longitude":"83.7606","accuracy":"3"},{"address3":"Narasannapeta","state":"Andhra Pradesh","state_code":"02","district":"Srikakulam","district_code":"542","address1":"Narasannapeta Mandal","address2":"","latitude":"18.4143","longitude":"84.0446","accuracy":"4"},{"address3":"Komarti","state":"Andhra Pradesh","state_code":"02","district":"Srikakulam","district_code":"542","address1":"Narasannapeta Mandal","address2":"","latitude":"18.3099","longitude":"83.7606","accuracy":"3"}],"532425":[{"address3":"Allada","state":"Andhra Pradesh","state_code":"02","district":"Srikakulam","district_code":"542","address1":"Jalumuru Mandal","address2":"","latitude":"18.4804","longitude":"83.975","accuracy":"4"},{"address3":"Lukulam","state":"Andhra Pradesh","state_code":"02","district":"Srikakulam","district_code":"542","address1":"Narasannapeta Mandal","address2":"","latitude":"18.4145","longitude":"83.9561","accuracy":"4"},{"address3":"Andhavaram","state":"Andhra Pradesh","state_code":"02","district":"Srikakulam","district_code":"542","address1":"Jalumuru Mandal","address2":"","latitude":"18.4778","longitude":"83.9559","accuracy":"4"},{"address3":"Kameswaripeta","state":"Andhra Pradesh","state_code":"02","district":"Srikakulam","district_code":"542","address1":"Narasannapeta Mandal","address2":"","latitude":"18.457","longitude":"83.9698","accuracy":"3"},{"address3":"Parlam","state":"Andhra Pradesh","state_code":"02","district":"Srikakulam","district_code":"542","address1":"Jalumuru Mandal","address2":"","latitude":"18.497","longitude":"83.9429","accuracy":"4"},{"address3":"Paraselli","state":"Andhra Pradesh","state_code":"02","district":"Srikakulam","district_code":"542","address1":"Narasannapeta Mandal","address2":"","latitude":"18.4644","longitude":"83.9868","accuracy":"4"},{"address3":"Nadagam","state":"Andhra Pradesh","state_code":"02","district":"Srikakulam","district_code":"542","address1":"Narasannapeta Mandal","address2":"","latitude":"18.4353","longitude":"83.9839","accuracy":"4"},{"address3":"Chodavaram","state":"Andhra Pradesh","state_code":"02","district":"Srikakulam","district_code":"542","address1":"Narasannapeta Mandal","address2":"","latitude":"18.4666","longitude":"83.9662","accuracy":"4"},{"address3":"Urlam","state":"Andhra Pradesh","state_code":"02","district":"Srikakulam","district_code":"542","address1":"Narasannapeta Mandal","address2":"","latitude":"18.4199","longitude":"83.992","accuracy":"4"}],"532426":[{"address3":"Aludu","state":"Andhra Pradesh","state_code":"02","district":"Srikakulam","district_code":"542","address1":"Saravakota Mandal","address2":"","latitude":"18.6022","longitude":"83.9724","accuracy":"3"},{"address3":"Savaraddapanasa","state":"Andhra Pradesh","state_code":"02","district":"Srikakulam","district_code":"542","address1":"Saravakota Mandal","address2":"","latitude":"18.6022","longitude":"83.9724","accuracy":"3"},{"address3":"Annupuram","state":"Andhra Pradesh","state_code":"02","district":"Srikakulam","district_code":"542","address1":"Saravakota Mandal","address2":"","latitude":"18.6022","longitude":"83.9724","accuracy":"4"},{"address3":"Saravakota","state":"Andhra Pradesh","state_code":"02","district":"Srikakulam","district_code":"542","address1":"Saravakota Mandal","address2":"","latitude":"18.6022","longitude":"83.9724","accuracy":"3"},{"address3":"Jamachakram","state":"Andhra Pradesh","state_code":"02","district":"Srikakulam","district_code":"542","address1":"Saravakota Mandal","address2":"","latitude":"18.6022","longitude":"83.9724","accuracy":"3"},{"address3":"Burujuvada","state":"Andhra Pradesh","state_code":"02","district":"Srikakulam","district_code":"542","address1":"Saravakota Mandal","address2":"","latitude":"18.6022","longitude":"83.9724","accuracy":"3"}],"532427":[{"address3":"Timadam","state":"Andhra Pradesh","state_code":"02","district":"Srikakulam","district_code":"542","address1":"Jalumuru Mandal","address2":"","latitude":"18.5152","longitude":"83.976","accuracy":"4"},{"address3":"Budithi","state":"Andhra Pradesh","state_code":"02","district":"Srikakulam","district_code":"542","address1":"Saravakota Mdl","address2":"","latitude":"18.5152","longitude":"83.976","accuracy":"3"},{"address3":"Togiri","state":"Andhra Pradesh","state_code":"02","district":"Srikakulam","district_code":"542","address1":"Saravakota Mandal","address2":"","latitude":"18.5152","longitude":"83.976","accuracy":"3"},{"address3":"Yalamanchili","state":"Andhra Pradesh","state_code":"02","district":"Srikakulam","district_code":"542","address1":"Jalumuru","address2":"","latitude":"18.5152","longitude":"83.976","accuracy":"3"},{"address3":"Bhadri","state":"Andhra Pradesh","state_code":"02","district":"Srikakulam","district_code":"542","address1":"Saravakota Mandal","address2":"","latitude":"18.5152","longitude":"83.976","accuracy":"3"},{"address3":"Kommanapalli","state":"Andhra Pradesh","state_code":"02","district":"Srikakulam","district_code":"542","address1":"Jalumuru Mandal","address2":"","latitude":"18.5152","longitude":"83.976","accuracy":"3"}],"532428":[{"address3":"Karakavalasa","state":"Andhra Pradesh","state_code":"02","district":"Srikakulam","district_code":"542","address1":"Jalumuru","address2":"","latitude":"18.5811","longitude":"83.9213","accuracy":"4"},{"address3":"Kittalapadu","state":"Andhra Pradesh","state_code":"02","district":"Srikakulam","district_code":"542","address1":"Hiramandalam Mandal","address2":"","latitude":"18.5856","longitude":"83.952","accuracy":"3"},{"address3":"Nagarikatakam","state":"Andhra Pradesh","state_code":"02","district":"Srikakulam","district_code":"542","address1":"Jalumuru Mandal","address2":"","latitude":"18.5793","longitude":"83.9713","accuracy":"4"},{"address3":"Mukhalingam","state":"Andhra Pradesh","state_code":"02","district":"Srikakulam","district_code":"542","address1":"Jalumuru Mandal","address2":"","latitude":"18.5965","longitude":"83.9634","accuracy":"4"}],"532429":[{"address3":"Talasamudram","state":"Andhra Pradesh","state_code":"02","district":"Srikakulam","district_code":"542","address1":"Polaki Mandal","address2":"","latitude":"18.4767","longitude":"83.7033","accuracy":"3"},{"address3":"Amapalam","state":"Andhra Pradesh","state_code":"02","district":"Srikakulam","district_code":"542","address1":"Polaki Mandal","address2":"","latitude":"18.4767","longitude":"83.7033","accuracy":"3"},{"address3":"Challayyavalasa","state":"Andhra Pradesh","state_code":"02","district":"Srikakulam","district_code":"542","address1":"Polaki Mandal","address2":"","latitude":"18.5786","longitude":"83.9881","accuracy":"4"},{"address3":"Urjam","state":"Andhra Pradesh","state_code":"02","district":"Srikakulam","district_code":"542","address1":"Polaki Mandal","address2":"","latitude":"18.4767","longitude":"83.7033","accuracy":"3"},{"address3":"Dola","state":"Andhra Pradesh","state_code":"02","district":"Srikakulam","district_code":"542","address1":"Polaki Mandal","address2":"","latitude":"18.4767","longitude":"83.7033","accuracy":"3"},{"address3":"Polaki","state":"Andhra Pradesh","state_code":"02","district":"Srikakulam","district_code":"542","address1":"Polaki Mandal","address2":"","latitude":"18.3721","longitude":"84.1027","accuracy":"4"},{"address3":"Deerghasi","state":"Andhra Pradesh","state_code":"02","district":"Srikakulam","district_code":"542","address1":"Polaki Mandal","address2":"","latitude":"18.4767","longitude":"83.7033","accuracy":"3"},{"address3":"Gollalavalasa","state":"Andhra Pradesh","state_code":"02","district":"Srikakulam","district_code":"542","address1":"Polaki Mandal","address2":"","latitude":"18.4043","longitude":"83.5922","accuracy":"4"}],"532430":[{"address3":"Nimmada","state":"Andhra Pradesh","state_code":"02","district":"Srikakulam","district_code":"542","address1":"Kotabommali Mandal","address2":"","latitude":"18.4135","longitude":"83.6814","accuracy":"3"},{"address3":"Jagannadhapuram","state":"Andhra Pradesh","state_code":"02","district":"Srikakulam","district_code":"542","address1":"Santhabommali Mandal","address2":"","latitude":"18.5497","longitude":"83.8163","accuracy":"4"},{"address3":"Koduru","state":"Andhra Pradesh","state_code":"02","district":"Srikakulam","district_code":"542","address1":"Kotabommali Mandal","address2":"","latitude":"18.2774","longitude":"83.5465","accuracy":"4"},{"address3":"Dandulaxmipuram","state":"Andhra Pradesh","state_code":"02","district":"Srikakulam","district_code":"542","address1":"Polaki Mandal","address2":"","latitude":"18.4135","longitude":"83.6814","accuracy":"3"},{"address3":"Umilada","state":"Andhra Pradesh","state_code":"02","district":"Srikakulam","district_code":"542","address1":"Santhabommali Mandal","address2":"","latitude":"18.4135","longitude":"83.6814","accuracy":"3"},{"address3":"Runku Hanumanthapuram","state":"Andhra Pradesh","state_code":"02","district":"Srikakulam","district_code":"542","address1":"Santhabommali Mandal","address2":"","latitude":"18.4135","longitude":"83.6814","accuracy":"3"},{"address3":"Priyagraharam","state":"Andhra Pradesh","state_code":"02","district":"Srikakulam","district_code":"542","address1":"Polaki Mandal","address2":"","latitude":"18.4135","longitude":"83.6814","accuracy":"3"},{"address3":"Belamara","state":"Andhra Pradesh","state_code":"02","district":"Srikakulam","district_code":"542","address1":"Polaki Mandal","address2":"","latitude":"18.4135","longitude":"83.6814","accuracy":"3"},{"address3":"Harischandrapuram","state":"Andhra Pradesh","state_code":"02","district":"Srikakulam","district_code":"542","address1":"Kotabommali Mandal","address2":"","latitude":"18.4135","longitude":"83.6814","accuracy":"3"}],"532432":[{"address3":"Karavanja","state":"Andhra Pradesh","state_code":"02","district":"Srikakulam","district_code":"542","address1":"Jalumuru Mandal","address2":"","latitude":"18.5577","longitude":"83.891","accuracy":"3"},{"address3":"Regulapadu","state":"Andhra Pradesh","state_code":"02","district":"Srikakulam","district_code":"542","address1":"Kotabommali Mandal","address2":"","latitude":"18.6693","longitude":"83.6436","accuracy":"4"},{"address3":"Challavanipeta","state":"Andhra Pradesh","state_code":"02","district":"Srikakulam","district_code":"542","address1":"Jalumuru Mandal","address2":"","latitude":"18.5577","longitude":"83.891","accuracy":"3"},{"address3":"Jalumuru","state":"Andhra Pradesh","state_code":"02","district":"Srikakulam","district_code":"542","address1":"Jalumuru Mandal","address2":"","latitude":"18.5112","longitude":"84.0387","accuracy":"4"},{"address3":"Gotivada","state":"Andhra Pradesh","state_code":"02","district":"Srikakulam","district_code":"542","address1":"Jalumuru Mandal","address2":"","latitude":"18.4925","longitude":"83.9909","accuracy":"4"}],"532440":[{"address3":"Gottamangalapuram","state":"Andhra Pradesh","state_code":"02","district":"Srikakulam","district_code":"542","address1":"Palakonda","address2":"","latitude":"18.5884","longitude":"83.742","accuracy":"3"},{"address3":"Pedakotipalli","state":"Andhra Pradesh","state_code":"02","district":"Srikakulam","district_code":"542","address1":"Palakonda","address2":"","latitude":"18.5884","longitude":"83.742","accuracy":"3"},{"address3":"Vatapagu","state":"Andhra Pradesh","state_code":"02","district":"Srikakulam","district_code":"542","address1":"Palakonda","address2":"","latitude":"18.6344","longitude":"83.7053","accuracy":"4"},{"address3":"Aradali","state":"Andhra Pradesh","state_code":"02","district":"Srikakulam","district_code":"542","address1":"Palakonda","address2":"","latitude":"18.5884","longitude":"83.742","accuracy":"3"},{"address3":"Purli","state":"Andhra Pradesh","state_code":"02","district":"Srikakulam","district_code":"542","address1":"R. Amadalavalasa","address2":"","latitude":"18.5884","longitude":"83.742","accuracy":"3"},{"address3":"Sankili","state":"Andhra Pradesh","state_code":"02","district":"Srikakulam","district_code":"542","address1":"R. Amadalavalasa","address2":"","latitude":"18.5622","longitude":"83.7432","accuracy":"4"},{"address3":"Komiri","state":"Andhra Pradesh","state_code":"02","district":"Srikakulam","district_code":"542","address1":"R. Amadalavalasa","address2":"","latitude":"18.5884","longitude":"83.742","accuracy":"3"},{"address3":"Tampatapalli","state":"Andhra Pradesh","state_code":"02","district":"Srikakulam","district_code":"542","address1":"Palakonda","address2":"","latitude":"18.5884","longitude":"83.742","accuracy":"3"},{"address3":"Palakonda","state":"Andhra Pradesh","state_code":"02","district":"Srikakulam","district_code":"542","address1":"Palakonda","address2":"","latitude":"18.6037","longitude":"83.7557","accuracy":"4"},{"address3":"Voni","state":"Andhra Pradesh","state_code":"02","district":"Srikakulam","district_code":"542","address1":"Palakonda","address2":"","latitude":"18.6308","longitude":"83.7653","accuracy":"4"},{"address3":"Bhasuru","state":"Andhra Pradesh","state_code":"02","district":"Srikakulam","district_code":"542","address1":"Palakonda","address2":"","latitude":"18.6316","longitude":"83.7313","accuracy":"4"},{"address3":"Kondapuram","state":"Andhra Pradesh","state_code":"02","district":"Srikakulam","district_code":"542","address1":"Palakonda","address2":"","latitude":"18.5915","longitude":"83.7712","accuracy":"4"},{"address3":"Bukkuru","state":"Andhra Pradesh","state_code":"02","district":"Srikakulam","district_code":"542","address1":"Palakonda","address2":"","latitude":"18.5946","longitude":"83.707","accuracy":"4"},{"address3":"Adavaram","state":"Andhra Pradesh","state_code":"02","district":"Srikakulam","district_code":"542","address1":"R.amadalavalasa","address2":"","latitude":"18.5295","longitude":"83.7626","accuracy":"4"},{"address3":"Regidi","state":"Andhra Pradesh","state_code":"02","district":"Srikakulam","district_code":"542","address1":"R. Amadalavalasa","address2":"","latitude":"18.5584","longitude":"83.7208","accuracy":"4"},{"address3":"Devudala","state":"Andhra Pradesh","state_code":"02","district":"Srikakulam","district_code":"542","address1":"R.amadalavalasa","address2":"","latitude":"18.5472","longitude":"83.758","accuracy":"4"}],"532443":[{"address3":"Kuddapalli","state":"Andhra Pradesh","state_code":"02","district":"Srikakulam","district_code":"542","address1":"Seethampeta","address2":"","latitude":"18.3625","longitude":"83.5005","accuracy":"3"},{"address3":"Gondi","state":"Andhra Pradesh","state_code":"02","district":"Srikakulam","district_code":"542","address1":"Seethampeta","address2":"","latitude":"18.5786","longitude":"83.9881","accuracy":"4"},{"address3":"Pedduru","state":"Andhra Pradesh","state_code":"02","district":"Srikakulam","district_code":"542","address1":"Seethampeta","address2":"","latitude":"18.682","longitude":"83.8285","accuracy":"4"},{"address3":"Manda","state":"Andhra Pradesh","state_code":"02","district":"Srikakulam","district_code":"542","address1":"Seethampeta","address2":"","latitude":"18.3625","longitude":"83.5005","accuracy":"3"},{"address3":"Seethampeta","state":"Andhra Pradesh","state_code":"02","district":"Srikakulam","district_code":"542","address1":"Seethampeta","address2":"","latitude":"18.3625","longitude":"83.5005","accuracy":"3"},{"address3":"Kodisa","state":"Andhra Pradesh","state_code":"02","district":"Srikakulam","district_code":"542","address1":"Seethampeta","address2":"","latitude":"18.5538","longitude":"83.6621","accuracy":"4"},{"address3":"Sambham","state":"Andhra Pradesh","state_code":"02","district":"Srikakulam","district_code":"542","address1":"Seethampeta","address2":"","latitude":"18.6437","longitude":"83.8515","accuracy":"4"},{"address3":"Kusimi","state":"Andhra Pradesh","state_code":"02","district":"Srikakulam","district_code":"542","address1":"Seethampeta","address2":"","latitude":"18.613","longitude":"83.8324","accuracy":"4"},{"address3":"Pedarama","state":"Andhra Pradesh","state_code":"02","district":"Srikakulam","district_code":"542","address1":"Seethampeta","address2":"","latitude":"18.3625","longitude":"83.5005","accuracy":"3"}],"532445":[{"address3":"Lakkupuram","state":"Andhra Pradesh","state_code":"02","district":"Srikakulam","district_code":"542","address1":"Burja Mandal","address2":"","latitude":"18.5689","longitude":"83.789","accuracy":"4"},{"address3":"Thotavada","state":"Andhra Pradesh","state_code":"02","district":"Srikakulam","district_code":"542","address1":"Burja","address2":"","latitude":"18.522","longitude":"83.7951","accuracy":"3"},{"address3":"Mamidivalasa","state":"Andhra Pradesh","state_code":"02","district":"Srikakulam","district_code":"542","address1":"Burja Mandal","address2":"","latitude":"18.5028","longitude":"83.8069","accuracy":"4"},