{"534001":[{"address3":"Eluru H.O","state":"Andhra Pradesh","state_code":"02","district":"West Godavari","district_code":"546","address1":"Eluru","address2":"","latitude":"16.57","longitude":"80.9808","accuracy":"1"},{"address3":"Eluru Bazar","state":"Andhra Pradesh","state_code":"02","district":"West Godavari","district_code":"546","address1":"Eluru","address2":"","latitude":"16.57","longitude":"80.9808","accuracy":"1"},{"address3":"Benerjipeta","state":"Andhra Pradesh","state_code":"02","district":"West Godavari","district_code":"546","address1":"Eluru","address2":"","latitude":"16.57","longitude":"80.9808","accuracy":"1"}],"534002":[{"address3":"Kothuru","state":"Andhra Pradesh","state_code":"02","district":"West Godavari","district_code":"546","address1":"Eluru","address2":"","latitude":"16.8946","longitude":"81.4023","accuracy":"4"},{"address3":"Chodimella","state":"Andhra Pradesh","state_code":"02","district":"West Godavari","district_code":"546","address1":"Eluru","address2":"","latitude":"16.7386","longitude":"81.0911","accuracy":"4"},{"address3":"Vangayagudem","state":"Andhra Pradesh","state_code":"02","district":"West Godavari","district_code":"546","address1":"Eluru","address2":"","latitude":"16.305","longitude":"80.7648","accuracy":"3"},{"address3":"Ponangi","state":"Andhra Pradesh","state_code":"02","district":"West Godavari","district_code":"546","address1":"Eluru","address2":"","latitude":"16.6626","longitude":"81.1083","accuracy":"4"},{"address3":"Mupparu","state":"Andhra Pradesh","state_code":"02","district":"West Godavari","district_code":"546","address1":"Eluru","address2":"","latitude":"16.305","longitude":"80.7648","accuracy":"3"},{"address3":"Malkapuram","state":"Andhra Pradesh","state_code":"02","district":"West Godavari","district_code":"546","address1":"Eluru","address2":"","latitude":"16.8946","longitude":"81.4023","accuracy":"4"},{"address3":"Power Peta","state":"Andhra Pradesh","state_code":"02","district":"West Godavari","district_code":"546","address1":"Eluru","address2":"","latitude":"16.305","longitude":"80.7648","accuracy":"3"},{"address3":"Vanguru","state":"Andhra Pradesh","state_code":"02","district":"West Godavari","district_code":"546","address1":"Eluru","address2":"","latitude":"16.7539","longitude":"81.0786","accuracy":"4"},{"address3":"Venkata Rao Peta","state":"Andhra Pradesh","state_code":"02","district":"West Godavari","district_code":"546","address1":"Eluru","address2":"","latitude":"16.305","longitude":"80.7648","accuracy":"3"},{"address3":"Pathebada","state":"Andhra Pradesh","state_code":"02","district":"West Godavari","district_code":"546","address1":"Eluru","address2":"","latitude":"16.305","longitude":"80.7648","accuracy":"3"},{"address3":"Ashok Nagar (West Godavari)","state":"Andhra Pradesh","state_code":"02","district":"West Godavari","district_code":"546","address1":"Eluru","address2":"","latitude":"16.305","longitude":"80.7648","accuracy":"3"}],"534003":[{"address3":"Koppaka","state":"Andhra Pradesh","state_code":"02","district":"West Godavari","district_code":"546","address1":"S.v. Peta","address2":"","latitude":"16.7495","longitude":"81.0301","accuracy":"4"},{"address3":"Sanivarapu Peta","state":"Andhra Pradesh","state_code":"02","district":"West Godavari","district_code":"546","address1":"Eluru","address2":"","latitude":"16.7536","longitude":"81.0397","accuracy":"3"},{"address3":"Ankannagudem","state":"Andhra Pradesh","state_code":"02","district":"West Godavari","district_code":"546","address1":"S.v.peta","address2":"","latitude":"16.7666","longitude":"81.0301","accuracy":"4"},{"address3":"Westren Street","state":"Andhra Pradesh","state_code":"02","district":"West Godavari","district_code":"546","address1":"Eluru","address2":"","latitude":"16.7536","longitude":"81.0397","accuracy":"3"},{"address3":"Pinakadimi","state":"Andhra Pradesh","state_code":"02","district":"West Godavari","district_code":"546","address1":"S.v.peta","address2":"","latitude":"16.7447","longitude":"81.0589","accuracy":"4"},{"address3":"Pedakadimi","state":"Andhra Pradesh","state_code":"02","district":"West Godavari","district_code":"546","address1":"S.v. Peta","address2":"","latitude":"16.7536","longitude":"81.0397","accuracy":"3"}],"534004":[{"address3":"Jalipudi","state":"Andhra Pradesh","state_code":"02","district":"West Godavari","district_code":"546","address1":"Chataparru","address2":"","latitude":"16.6822","longitude":"81.1401","accuracy":"4"},{"address3":"Sriparru","state":"Andhra Pradesh","state_code":"02","district":"West Godavari","district_code":"546","address1":"Chataparru","address2":"","latitude":"16.6412","longitude":"81.14","accuracy":"4"},{"address3":"Chataparru","state":"Andhra Pradesh","state_code":"02","district":"West Godavari","district_code":"546","address1":"Eluru","address2":"","latitude":"16.6987","longitude":"81.1396","accuracy":"4"},{"address3":"Prathikollanka","state":"Andhra Pradesh","state_code":"02","district":"West Godavari","district_code":"546","address1":"Chataparru","address2":"","latitude":"16.6645","longitude":"81.1581","accuracy":"3"},{"address3":"Gudivakalanka","state":"Andhra Pradesh","state_code":"02","district":"West Godavari","district_code":"546","address1":"Chataparru","address2":"","latitude":"16.6359","longitude":"81.2126","accuracy":"4"},{"address3":"Komadavole","state":"Andhra Pradesh","state_code":"02","district":"West Godavari","district_code":"546","address1":"Chataparru","address2":"","latitude":"16.6645","longitude":"81.1581","accuracy":"3"}],"534005":[{"address3":"Tangellamudi","state":"Andhra Pradesh","state_code":"02","district":"West Godavari","district_code":"546","address1":"Eluru","address2":"","latitude":"16.7212","longitude":"81.1052","accuracy":"4"},{"address3":"Eluru R.S","state":"Andhra Pradesh","state_code":"02","district":"West Godavari","district_code":"546","address1":"Eluru","address2":"","latitude":"16.7212","longitude":"81.1052","accuracy":"3"}],"534006":[{"address3":"Eluru Bus Station","state":"Andhra Pradesh","state_code":"02","district":"West Godavari","district_code":"546","address1":"Eluru","address2":"","latitude":"16.57","longitude":"80.9808","accuracy":"1"},{"address3":"Eluru Collectorate","state":"Andhra Pradesh","state_code":"02","district":"West Godavari","district_code":"546","address1":"Eluru","address2":"","latitude":"16.57","longitude":"80.9808","accuracy":"1"},{"address3":"Narasimharao Peta","state":"Andhra Pradesh","state_code":"02","district":"West Godavari","district_code":"546","address1":"Eluru","address2":"","latitude":"16.57","longitude":"80.9808","accuracy":"1"},{"address3":"Ramachandra Rao Peta","state":"Andhra Pradesh","state_code":"02","district":"West Godavari","district_code":"546","address1":"Eluru","address2":"","latitude":"16.57","longitude":"80.9808","accuracy":"1"}],"534007":[{"address3":"Bhogapuram","state":"Andhra Pradesh","state_code":"02","district":"West Godavari","district_code":"546","address1":"Eluru","address2":"","latitude":"16.7145","longitude":"81.0199","accuracy":"4"},{"address3":"Kalaparru","state":"Andhra Pradesh","state_code":"02","district":"West Godavari","district_code":"546","address1":"Eluru","address2":"","latitude":"16.6708","longitude":"81.0117","accuracy":"4"},{"address3":"Kokkiripadu","state":"Andhra Pradesh","state_code":"02","district":"West Godavari","district_code":"546","address1":"Eluru","address2":"","latitude":"16.6927","longitude":"81.0158","accuracy":"3"},{"address3":"Gandhinagaram (West Godavari)","state":"Andhra Pradesh","state_code":"02","district":"West Godavari","district_code":"546","address1":"Eluru","address2":"","latitude":"16.6927","longitude":"81.0158","accuracy":"3"},{"address3":"P&t Colony (West Godavari)","state":"Andhra Pradesh","state_code":"02","district":"West Godavari","district_code":"546","address1":"Eluru","address2":"","latitude":"16.6927","longitude":"81.0158","accuracy":"3"},{"address3":"Industrial Estate (West Godavari)","state":"Andhra Pradesh","state_code":"02","district":"West Godavari","district_code":"546","address1":"Eluru","address2":"","latitude":"16.6927","longitude":"81.0158","accuracy":"3"},{"address3":"Sb Colony","state":"Andhra Pradesh","state_code":"02","district":"West Godavari","district_code":"546","address1":"Eluru","address2":"","latitude":"16.6927","longitude":"81.0158","accuracy":"3"}],"534101":[{"address3":"Subbaraopeta","state":"Andhra Pradesh","state_code":"02","district":"West Godavari","district_code":"546","address1":"Tadepalligudem","address2":"","latitude":"16.8946","longitude":"81.4023","accuracy":"1"},{"address3":"Tadepalligudem H.O","state":"Andhra Pradesh","state_code":"02","district":"West Godavari","district_code":"546","address1":"Tadepalligudem","address2":"","latitude":"16.8059","longitude":"81.4021","accuracy":"1"},{"address3":"Pmmarket","state":"Andhra Pradesh","state_code":"02","district":"West Godavari","district_code":"546","address1":"Tadepalligudem","address2":"","latitude":"16.8059","longitude":"81.4021","accuracy":"1"},{"address3":"Aphb Colony","state":"Andhra Pradesh","state_code":"02","district":"West Godavari","district_code":"546","address1":"Tadepalligudem","address2":"","latitude":"16.8059","longitude":"81.4021","accuracy":"1"},{"address3":"Sv Peta","state":"Andhra Pradesh","state_code":"02","district":"West Godavari","district_code":"546","address1":"Tadepalligudem","address2":"","latitude":"16.8059","longitude":"81.4021","accuracy":"1"},{"address3":"Tadepalligudem Town","state":"Andhra Pradesh","state_code":"02","district":"West Godavari","district_code":"546","address1":"Tadepalligudem","address2":"","latitude":"16.8059","longitude":"81.4021","accuracy":"1"}],"534102":[{"address3":"Juvvalapalem","state":"Andhra Pradesh","state_code":"02","district":"West Godavari","district_code":"546","address1":"Tadepalligudem","address2":"","latitude":"16.8084","longitude":"81.5513","accuracy":"4"},{"address3":"Tadepalli","state":"Andhra Pradesh","state_code":"02","district":"West Godavari","district_code":"546","address1":"Tadepalligudem Mandalam","address2":"","latitude":"16.8946","longitude":"81.4023","accuracy":"4"},{"address3":"Kunchinapalli","state":"Andhra Pradesh","state_code":"02","district":"West Godavari","district_code":"546","address1":"Tadepalligudem Mandalam","address2":"","latitude":"16.8059","longitude":"81.4021","accuracy":"3"},{"address3":"Padala","state":"Andhra Pradesh","state_code":"02","district":"West Godavari","district_code":"546","address1":"Tadepalligudem Mandalam","address2":"","latitude":"16.8036","longitude":"81.5015","accuracy":"4"},{"address3":"Ramannagudem","state":"Andhra Pradesh","state_code":"02","district":"West Godavari","district_code":"546","address1":"Tadepalligudem Mandalam","address2":"","latitude":"16.8705","longitude":"81.4923","accuracy":"4"},{"address3":"Kadakatla","state":"Andhra Pradesh","state_code":"02","district":"West Godavari","district_code":"546","address1":"Tadepalligudem","address2":"","latitude":"16.8188","longitude":"81.5144","accuracy":"4"},{"address3":"Veerampalem","state":"Andhra Pradesh","state_code":"02","district":"West Godavari","district_code":"546","address1":"Tadepalligudem Mandalam","address2":"","latitude":"16.8059","longitude":"81.4021","accuracy":"3"},{"address3":"Kommugudem","state":"Andhra Pradesh","state_code":"02","district":"West Godavari","district_code":"546","address1":"Tadepalligudem Mandalam","address2":"","latitude":"16.9153","longitude":"81.5297","accuracy":"4"},{"address3":"Venkatramannagudem","state":"Andhra Pradesh","state_code":"02","district":"West Godavari","district_code":"546","address1":"Tadepalligudem Mandaolam","address2":"","latitude":"16.8059","longitude":"81.4021","accuracy":"3"},{"address3":"Kondruprolu","state":"Andhra Pradesh","state_code":"02","district":"West Godavari","district_code":"546","address1":"Tadepalligudem","address2":"","latitude":"16.855","longitude":"81.5285","accuracy":"4"},{"address3":"Jaggannapeta","state":"Andhra Pradesh","state_code":"02","district":"West Godavari","district_code":"546","address1":"Tadepalligudem Mandalam","address2":"","latitude":"16.8907","longitude":"81.4922","accuracy":"4"},{"address3":"Kadiyedda","state":"Andhra Pradesh","state_code":"02","district":"West Godavari","district_code":"546","address1":"Tadepalligudem Mandalam","address2":"","latitude":"16.8059","longitude":"81.4021","accuracy":"3"},{"address3":"Tadepalligudem Bazar","state":"Andhra Pradesh","state_code":"02","district":"West Godavari","district_code":"546","address1":"Tadepalligudem","address2":"","latitude":"16.8059","longitude":"81.4021","accuracy":"3"}],"534111":[{"address3":"Gundepalli","state":"Andhra Pradesh","state_code":"02","district":"West Godavari","district_code":"546","address1":"Nallajerla","address2":"","latitude":"16.9109","longitude":"81.4013","accuracy":"1"},{"address3":"Telikecharla","state":"Andhra Pradesh","state_code":"02","district":"West Godavari","district_code":"546","address1":"Nallajerla Mandalam","address2":"","latitude":"16.9109","longitude":"81.4013","accuracy":"1"},{"address3":"Ananthapallli","state":"Andhra Pradesh","state_code":"02","district":"West Godavari","district_code":"546","address1":"Nallajerla Mandal","address2":"","latitude":"16.9109","longitude":"81.4013","accuracy":"1"},{"address3":"Atchannapalem","state":"Andhra Pradesh","state_code":"02","district":"West Godavari","district_code":"546","address1":"Nallajerla Mandalam","address2":"","latitude":"16.9109","longitude":"81.4013","accuracy":"1"}],"534112":[{"address3":"Gantavarigudem","state":"Andhra Pradesh","state_code":"02","district":"West Godavari","district_code":"546","address1":"Nallajarla Mandalam","address2":"","latitude":"16.902","longitude":"81.3494","accuracy":"4"},{"address3":"Avapadu","state":"Andhra Pradesh","state_code":"02","district":"West Godavari","district_code":"546","address1":"Nallajarlamandalam","address2":"","latitude":"16.9032","longitude":"81.4185","accuracy":"4"},{"address3":"Dubacharla","state":"Andhra Pradesh","state_code":"02","district":"West Godavari","district_code":"546","address1":"Nallajarla Mandalam","address2":"","latitude":"16.9109","longitude":"81.4013","accuracy":"3"},{"address3":"Marellamudi","state":"Andhra Pradesh","state_code":"02","district":"West Godavari","district_code":"546","address1":"Nallajarlamandalam","address2":"","latitude":"16.9157","longitude":"81.3921","accuracy":"4"},{"address3":"Singarajupalem","state":"Andhra Pradesh","state_code":"02","district":"West Godavari","district_code":"546","address1":"Nallajarlamandalam","address2":"","latitude":"16.8804","longitude":"81.4091","accuracy":"4"},{"address3":"Nallajerla","state":"Andhra Pradesh","state_code":"02","district":"West Godavari","district_code":"546","address1":"Nallajerla Mandalam","address2":"","latitude":"16.9475","longitude":"81.406","accuracy":"4"},{"address3":"Pullalapadu","state":"Andhra Pradesh","state_code":"02","district":"West Godavari","district_code":"546","address1":"Nallajerlamandalam","address2":"","latitude":"16.9109","longitude":"81.4013","accuracy":"3"},{"address3":"Prakasaraopalem","state":"Andhra Pradesh","state_code":"02","district":"West Godavari","district_code":"546","address1":"Nallajarlamandalam","address2":"","latitude":"16.9167","longitude":"81.4329","accuracy":"4"}],"534122":[{"address3":"Jagannadhapurami","state":"Andhra Pradesh","state_code":"02","district":"West Godavari","district_code":"546","address1":"NA","address2":"","latitude":"16.6989","longitude":"81.0296","accuracy":"3"},{"address3":"Satyavaram","state":"Andhra Pradesh","state_code":"02","district":"West Godavari","district_code":"546","address1":"NA","address2":"","latitude":"16.8946","longitude":"81.4023","accuracy":"4"},{"address3":"Pandithavilluru","state":"Andhra Pradesh","state_code":"02","district":"West Godavari","district_code":"546","address1":"NA","address2":"","latitude":"16.6989","longitude":"81.0296","accuracy":"3"},{"address3":"Maruteru","state":"Andhra Pradesh","state_code":"02","district":"West Godavari","district_code":"546","address1":"Penumantra (mdl)","address2":"","latitude":"16.6237","longitude":"81.7394","accuracy":"4"},{"address3":"Neggipudi","state":"Andhra Pradesh","state_code":"02","district":"West Godavari","district_code":"546","address1":"NA","address2":"","latitude":"16.6989","longitude":"81.0296","accuracy":"3"}],"534123":[{"address3":"Mulaparru","state":"Andhra Pradesh","state_code":"02","district":"West Godavari","district_code":"546","address1":"NA","address2":"","latitude":"16.8946","longitude":"81.4023","accuracy":"4"},{"address3":"Atchanta","state":"Andhra Pradesh","state_code":"02","district":"West Godavari","district_code":"546","address1":"Atchanta (mdl)","address2":"","latitude":"16.3905","longitude":"81.2707","accuracy":"3"},{"address3":"Penumanchili","state":"Andhra Pradesh","state_code":"02","district":"West Godavari","district_code":"546","address1":"NA","address2":"","latitude":"16.3905","longitude":"81.2707","accuracy":"3"},{"address3":"Deva","state":"Andhra Pradesh","state_code":"02","district":"West Godavari","district_code":"546","address1":"NA","address2":"","latitude":"16.3905","longitude":"81.2707","accuracy":"3"}],"534124":[{"address3":"Brahmanacheruvu","state":"Andhra Pradesh","state_code":"02","district":"West Godavari","district_code":"546","address1":"NA","address2":"","latitude":"16.8946","longitude":"81.4023","accuracy":"3"},{"address3":"Velagalavariplalem","state":"Andhra Pradesh","state_code":"02","district":"West Godavari","district_code":"546","address1":"NA","address2":"","latitude":"16.6434","longitude":"81.6516","accuracy":"3"},{"address3":"Penumantra","state":"Andhra Pradesh","state_code":"02","district":"West Godavari","district_code":"546","address1":"Penumantra (mdl)","address2":"","latitude":"16.6434","longitude":"81.6516","accuracy":"4"},{"address3":"Mallipudi","state":"Andhra Pradesh","state_code":"02","district":"West Godavari","district_code":"546","address1":"NA","address2":"","latitude":"16.6434","longitude":"81.6516","accuracy":"3"},{"address3":"Juttiga","state":"Andhra Pradesh","state_code":"02","district":"West Godavari","district_code":"546","address1":"NA","address2":"","latitude":"16.6434","longitude":"81.6516","accuracy":"3"},{"address3":"Nattarameswaram","state":"Andhra Pradesh","state_code":"02","district":"West Godavari","district_code":"546","address1":"NA","address2":"","latitude":"16.6434","longitude":"81.6516","accuracy":"3"}],"534126":[{"address3":"Voduru","state":"Andhra Pradesh","state_code":"02","district":"West Godavari","district_code":"546","address1":"NA","address2":"","latitude":"16.8946","longitude":"81.4023","accuracy":"3"},{"address3":"Kanteru","state":"Andhra Pradesh","state_code":"02","district":"West Godavari","district_code":"546","address1":"NA","address2":"","latitude":"16.8946","longitude":"81.4023","accuracy":"4"},{"address3":"Bhatlamaguturu","state":"Andhra Pradesh","state_code":"02","district":"West Godavari","district_code":"546","address1":"NA","address2":"","latitude":"16.3927","longitude":"80.5026","accuracy":"3"},{"address3":"Podalada","state":"Andhra Pradesh","state_code":"02","district":"West Godavari","district_code":"546","address1":"NA","address2":"","latitude":"16.3927","longitude":"80.5026","accuracy":"3"},{"address3":"Alamuru (West Godavari)","state":"Andhra Pradesh","state_code":"02","district":"West Godavari","district_code":"546","address1":"NA","address2":"","latitude":"16.3927","longitude":"80.5026","accuracy":"3"},{"address3":"Nelamuru","state":"Andhra Pradesh","state_code":"02","district":"West Godavari","district_code":"546","address1":"NA","address2":"","latitude":"16.3927","longitude":"80.5026","accuracy":"3"},{"address3":"Kathavapadu","state":"Andhra Pradesh","state_code":"02","district":"West Godavari","district_code":"546","address1":"NA","address2":"","latitude":"16.3927","longitude":"80.5026","accuracy":"3"}],"534134":[{"address3":"Kommara","state":"Andhra Pradesh","state_code":"02","district":"West Godavari","district_code":"546","address1":"Attili (mdl)","address2":"","latitude":"16.7717","longitude":"81.4423","accuracy":"1"},{"address3":"Eduru","state":"Andhra Pradesh","state_code":"02","district":"West Godavari","district_code":"546","address1":"Attili (mdl)","address2":"","latitude":"16.8946","longitude":"81.4023","accuracy":"1"},{"address3":"Attili","state":"Andhra Pradesh","state_code":"02","district":"West Godavari","district_code":"546","address1":"Attili (mdl)","address2":"","latitude":"16.7717","longitude":"81.4423","accuracy":"1"},{"address3":"Moyyeru","state":"Andhra Pradesh","state_code":"02","district":"West Godavari","district_code":"546","address1":"Moyyeru(mdl)","address2":"","latitude":"16.7717","longitude":"81.4423","accuracy":"1"},{"address3":"Paluru","state":"Andhra Pradesh","state_code":"02","district":"West Godavari","district_code":"546","address1":"Attili (mdl)","address2":"","latitude":"16.8946","longitude":"81.4023","accuracy":"1"},{"address3":"Seethalm Kondepadu","state":"Andhra Pradesh","state_code":"02","district":"West Godavari","district_code":"546","address1":"NA","address2":"","latitude":"16.7717","longitude":"81.4423","accuracy":"1"},{"address3":"Minavilluru","state":"Andhra Pradesh","state_code":"02","district":"West Godavari","district_code":"546","address1":"Minavilluru(mdl)","address2":"","latitude":"16.7717","longitude":"81.4423","accuracy":"1"},{"address3":"Mupparthipadu","state":"Andhra Pradesh","state_code":"02","district":"West Godavari","district_code":"546","address1":"Attili (mdl)","address2":"","latitude":"16.7717","longitude":"81.4423","accuracy":"1"},{"address3":"Manchili","state":"Andhra Pradesh","state_code":"02","district":"West Godavari","district_code":"546","address1":"Manchili (mdl)","address2":"","latitude":"16.7717","longitude":"81.4423","accuracy":"1"},{"address3":"K.Samudrapugattu","state":"Andhra Pradesh","state_code":"02","district":"West Godavari","district_code":"546","address1":"Attili (mdl)","address2":"","latitude":"16.7717","longitude":"81.4423","accuracy":"1"},{"address3":"Komarru","state":"Andhra Pradesh","state_code":"02","district":"West Godavari","district_code":"546","address1":"Attili (mdl)","address2":"","latitude":"16.7717","longitude":"81.4423","accuracy":"1"}],"534145":[{"address3":"Madhavaram (West Godavari)","state":"Andhra Pradesh","state_code":"02","district":"West Godavari","district_code":"546","address1":"Tadepalligudem","address2":"","latitude":"16.89","longitude":"81.5937","accuracy":"4"},{"address3":"Pullayagudem","state":"Andhra Pradesh","state_code":"02","district":"West Godavari","district_code":"546","address1":"Tadepalligudem","address2":"","latitude":"16.8885","longitude":"81.5456","accuracy":"4"},{"address3":"Apparaopeta","state":"Andhra Pradesh","state_code":"02","district":"West Godavari","district_code":"546","address1":"Tadepalligudem Mandalam","address2":"","latitude":"16.7873","longitude":"81.3946","accuracy":"4"},{"address3":"Jagannadhapuram","state":"Andhra Pradesh","state_code":"02","district":"West Godavari","district_code":"546","address1":"Tadepalligudem","address2":"","latitude":"16.7883","longitude":"81.065","accuracy":"4"},{"address3":"Dandagarra","state":"Andhra Pradesh","state_code":"02","district":"West Godavari","district_code":"546","address1":"Tadepalligudem","address2":"","latitude":"16.8385","longitude":"81.3997","accuracy":"3"},{"address3":"Moduggunta","state":"Andhra Pradesh","state_code":"02","district":"West Godavari","district_code":"546","address1":"Tadepalligudem Mandalam","address2":"","latitude":"16.8385","longitude":"81.3997","accuracy":"3"}],"534146":[{"address3":"Konala","state":"Andhra Pradesh","state_code":"02","district":"West Godavari","district_code":"546","address1":"Pentapadu Mandalam","address2":"","latitude":"16.8182","longitude":"81.6304","accuracy":"4"},{"address3":"Nandamuru","state":"Andhra Pradesh","state_code":"02","district":"West Godavari","district_code":"546","address1":"Tadepalligudem Mandalam","address2":"","latitude":"16.8458","longitude":"81.6466","accuracy":"4"},{"address3":"Prattipadu","state":"Andhra Pradesh","state_code":"02","district":"West Godavari","district_code":"546","address1":"Pentapadu Mandall","address2":"","latitude":"16.8116","longitude":"81.5732","accuracy":"4"},{"address3":"Krishnayampalemi","state":"Andhra Pradesh","state_code":"02","district":"West Godavari","district_code":"546","address1":"Tadepalligudem Mandalam","address2":"","latitude":"16.8199","longitude":"81.6173","accuracy":"3"},{"address3":"Muddapuram","state":"Andhra Pradesh","state_code":"02","district":"West Godavari","district_code":"546","address1":"Tanuku Mandalam","address2":"","latitude":"16.804","longitude":"81.6192","accuracy":"4"},{"address3":"Allampuram","state":"Andhra Pradesh","state_code":"02","district":"West Godavari","district_code":"546","address1":"Pentapadu Mandalam","address2":"","latitude":"16.8199","longitude":"81.6173","accuracy":"3"},{"address3":"Navabpalem","state":"Andhra Pradesh","state_code":"02","district":"West Godavari","district_code":"546","address1":"Tadepalligudem Mandalam","address2":"","latitude":"16.8199","longitude":"81.6173","accuracy":"3"},{"address3":"Marampalli","state":"Andhra Pradesh","state_code":"02","district":"West Godavari","district_code":"546","address1":"Tadepalligudem Mandalam","address2":"","latitude":"16.8199","longitude":"81.6173","accuracy":"3"},{"address3":"Arugolanu","state":"Andhra Pradesh","state_code":"02","district":"West Godavari","district_code":"546","address1":"Pentapadu Mandalam","address2":"","latitude":"16.8199","longitude":"81.6173","accuracy":"3"}],"534156":[{"address3":"Ravipadu","state":"Andhra Pradesh","state_code":"02","district":"West Godavari","district_code":"546","address1":"NA","address2":"","latitude":"16.7667","longitude":"81.5847","accuracy":"4"},{"address3":"Korumilli","state":"Andhra Pradesh","state_code":"02","district":"West Godavari","district_code":"546","address1":"Pentapadu Mandalam","address2":"","latitude":"16.8946","longitude":"81.4023","accuracy":"4"},{"address3":"Duvva","state":"Andhra Pradesh","state_code":"02","district":"West Godavari","district_code":"546","address1":"Tanuku Mandal","address2":"","latitude":"16.7797","longitude":"81.6238","accuracy":"4"},{"address3":"Pasalapudi","state":"Andhra Pradesh","state_code":"02","district":"West Godavari","district_code":"546","address1":"Tanuku Mandalam","address2":"","latitude":"16.8141","longitude":"81.6576","accuracy":"4"},{"address3":"Surya Rao Palem","state":"Andhra Pradesh","state_code":"02","district":"West Godavari","district_code":"546","address1":"NA","address2":"","latitude":"16.9517","longitude":"81.6802","accuracy":"3"},{"address3":"B.Kondepadu","state":"Andhra Pradesh","state_code":"02","district":"West Godavari","district_code":"546","address1":"Pentapadu Mandalam","address2":"","latitude":"16.9517","longitude":"81.6802","accuracy":"3"}],"534165":[{"address3":"Kakarlamudi","state":"Andhra Pradesh","state_code":"02","district":"West Godavari","district_code":"546","address1":"Vunguturu Mandalam","address2":"","latitude":"16.7708","longitude":"81.4694","accuracy":"4"},{"address3":"Mounjipadu","state":"Andhra Pradesh","state_code":"02","district":"West Godavari","district_code":"546","address1":"Pentapadu Mandalam","address2":"","latitude":"16.7582","longitude":"81.4711","accuracy":"3"},{"address3":"West Vipparru","state":"Andhra Pradesh","state_code":"02","district":"West Godavari","district_code":"546","address1":"Pentapadu Mandal","address2":"","latitude":"16.7457","longitude":"81.4728","accuracy":"4"}],"534166":[{"address3":"Racharla","state":"Andhra Pradesh","state_code":"02","district":"West Godavari","district_code":"546","address1":"Pentapadumandalam","address2":"","latitude":"16.7582","longitude":"81.4711","accuracy":"1"},{"address3":"Jetlapalem","state":"Andhra Pradesh","state_code":"02","district":"West Godavari","district_code":"546","address1":"Pentapadumandalam","address2":"","latitude":"16.7582","longitude":"81.4711","accuracy":"1"},{"address3":"Parimalla","state":"Andhra Pradesh","state_code":"02","district":"West Godavari","district_code":"546","address1":"Pentapadumandalam","address2":"","latitude":"16.7582","longitude":"81.4711","accuracy":"1"},{"address3":"Darisaparru","state":"Andhra Pradesh","state_code":"02","district":"West Godavari","district_code":"546","address1":"Pentapadumandalam","address2":"","latitude":"16.7582","longitude":"81.4711","accuracy":"1"},{"address3":"Pentapadu","state":"Andhra Pradesh","state_code":"02","district":"West Godavari","district_code":"546","address1":"Pentapadu","address2":"","latitude":"16.7582","longitude":"81.4711","accuracy":"1"},{"address3":"Yanalapalli","state":"Andhra Pradesh","state_code":"02","district":"West Godavari","district_code":"546","address1":"Pentapadumandalam","address2":"","latitude":"16.7582","longitude":"81.4711","accuracy":"1"},{"address3":"K.Pentapadu","state":"Andhra Pradesh","state_code":"02","district":"West Godavari","district_code":"546","address1":"Pentapadumandalam","address2":"","latitude":"16.7582","longitude":"81.4711","accuracy":"1"}],"534176":[{"address3":"Nabipeta","state":"Andhra Pradesh","state_code":"02","district":"West Godavari","district_code":"546","address1":"Nallajarla Mandalam","address2":"","latitude":"16.8946","longitude":"81.4023","accuracy":"1"},{"address3":"Pothavaram","state":"Andhra Pradesh","state_code":"02","district":"West Godavari","district_code":"546","address1":"Nallajarla Mandal","address2":"","latitude":"16.7717","longitude":"81.4423","accuracy":"1"},{"address3":"Cheepurugudem","state":"Andhra Pradesh","state_code":"02","district":"West Godavari","district_code":"546","address1":"Nallajarla Mandalam","address2":"","latitude":"16.7717","longitude":"81.4423","accuracy":"1"},{"address3":"Pothineedipalem","state":"Andhra Pradesh","state_code":"02","district":"West Godavari","district_code":"546","address1":"Nallajarla Mandalam","address2":"","latitude":"16.7717","longitude":"81.4423","accuracy":"1"}],"534186":[{"address3":"Jallikakinada","state":"Andhra Pradesh","state_code":"02","district":"West Godavari","district_code":"546","address1":"Ganapavaram Mandalam","address2":"","latitude":"17.5283","longitude":"82.307","accuracy":"3"},{"address3":"Vundurru","state":"Andhra Pradesh","state_code":"02","district":"West Godavari","district_code":"546","address1":"Undi Mandalam","address2":"","latitude":"17.5283","longitude":"82.307","accuracy":"3"},{"address3":"Kesavaram","state":"Andhra Pradesh","state_code":"02","district":"West Godavari","district_code":"546","address1":"Ganapavaram Mandal","address2":"","latitude":"16.8946","longitude":"81.4023","accuracy":"4"},{"address3":"Garagaparru","state":"Andhra Pradesh","state_code":"02","district":"West Godavari","district_code":"546","address1":"Palakoderu Mandalam","address2":"","latitude":"17.5283","longitude":"82.307","accuracy":"3"},{"address3":"Mypa","state":"Andhra Pradesh","state_code":"02","district":"West Godavari","district_code":"546","address1":"Palakoderu Mandalam","address2":"","latitude":"17.5283","longitude":"82.307","accuracy":"3"},{"address3":"Yandagandi","state":"Andhra Pradesh","state_code":"02","district":"West Godavari","district_code":"546","address1":"Undi Mandalam","address2":"","latitude":"17.5283","longitude":"82.307","accuracy":"3"},{"address3":"Appannapeta","state":"Andhra Pradesh","state_code":"02","district":"West Godavari","district_code":"546","address1":"NA","address2":"","latitude":"17.5283","longitude":"82.307","accuracy":"3"}],"534195":[{"address3":"D.Gopavaram","state":"Andhra Pradesh","state_code":"02","district":"West Godavari","district_code":"546","address1":"Nidamarrumandalam","address2":"","latitude":"16.7216","longitude":"81.4294","accuracy":"3"},{"address3":"Nidamarru","state":"Andhra Pradesh","state_code":"02","district":"West Godavari","district_code":"546","address1":"Nidamarrumandalam","address2":"","latitude":"16.723","longitude":"81.4197","accuracy":"4"},{"address3":"P.N.Kolanu","state":"Andhra Pradesh","state_code":"02","district":"West Godavari","district_code":"546","address1":"Nidamarry Mandal","address2":"","latitude":"16.7216","longitude":"81.4294","accuracy":"3"},{"address3":"Mandalaparru","state":"Andhra Pradesh","state_code":"02","district":"West Godavari","district_code":"546","address1":"Nidamarrumandalam","address2":"","latitude":"16.7202","longitude":"81.439","accuracy":"4"}],"534196":[{"address3":"Vakapalli","state":"Andhra Pradesh","state_code":"02","district":"West Godavari","district_code":"546","address1":"Ganapavaram Mandalam","address2":"","latitude":"16.7497","longitude":"81.533","accuracy":"3"},{"address3":"Akuteegapadu","state":"Andhra Pradesh","state_code":"02","district":"West Godavari","district_code":"546","address1":"Pentapadu Mandalam","address2":"","latitude":"16.7497","longitude":"81.533","accuracy":"3"},{"address3":"Kasipadu","state":"Andhra Pradesh","state_code":"02","district":"West Godavari","district_code":"546","address1":"Ganapavaramm Andalam","address2":"","latitude":"16.7497","longitude":"81.533","accuracy":"3"},{"address3":"Mudunuru","state":"Andhra Pradesh","state_code":"02","district":"West Godavari","district_code":"546","address1":"Pentapadu Mandalam","address2":"","latitude":"16.7566","longitude":"81.5413","accuracy":"4"},{"address3":"Chintapalli Agraharam","state":"Andhra Pradesh","state_code":"02","district":"West Godavari","district_code":"546","address1":"Pentapadu Mandalam","address2":"","latitude":"16.7497","longitude":"81.533","accuracy":"3"},{"address3":"Kommara","state":"Andhra Pradesh","state_code":"02","district":"West Godavari","district_code":"546","address1":"Ganapavaram Mandalam","address2":"","latitude":"16.7281","longitude":"81.4939","accuracy":"4"},{"address3":"Ch.Agraharam","state":"Andhra Pradesh","state_code":"02","district":"West Godavari","district_code":"546","address1":"Pentapadu Mandal","address2":"","latitude":"16.7497","longitude":"81.533","accuracy":"3"},{"address3":"Bodapadu","state":"Andhra Pradesh","state_code":"02","district":"West Godavari","district_code":"546","address1":"Tadepalligudem","address2":"","latitude":"16.7645","longitude":"81.5637","accuracy":"4"}],"534197":[{"address3":"Muggalla","state":"Andhra Pradesh","state_code":"02","district":"West Godavari","district_code":"546","address1":"Ganapavarammandal","address2":"","latitude":"16.532","longitude":"81.1664","accuracy":"3"},{"address3":"Valluru","state":"Andhra Pradesh","state_code":"02","district":"West Godavari","district_code":"546","address1":"Ganapavarammandalam","address2":"","latitude":"16.8946","longitude":"81.4023","accuracy":"4"},{"address3":"A.Gopavaram","state":"Andhra Pradesh","state_code":"02","district":"West Godavari","district_code":"546","address1":"Ganapavaramandalam","address2":"","latitude":"16.532","longitude":"81.1664","accuracy":"3"},{"address3":"Pippara","state":"Andhra Pradesh","state_code":"02","district":"West Godavari","district_code":"546","address1":"Ganapavaram Mandal","address2":"","latitude":"16.7167","longitude":"81.55","accuracy":"4"},{"address3":"Ardhavaram","state":"Andhra Pradesh","state_code":"02","district":"West Godavari","district_code":"546","address1":"Ganapavarammandal","address2":"","latitude":"16.532","longitude":"81.1664","accuracy":"3"}],"534198":[{"address3":"Kothapalli","state":"Andhra Pradesh","state_code":"02","district":"West Godavari","district_code":"546","address1":"Ganapavaram Mandalam","address2":"","latitude":"16.8946","longitude":"81.4023","accuracy":"3"},{"address3":"Bhuvanapalli","state":"Andhra Pradesh","state_code":"02","district":"West Godavari","district_code":"546","address1":"Ganapavaram Mandal","address2":"","latitude":"16.6767","longitude":"81.449","accuracy":"3"},{"address3":"Kaligotla","state":"Andhra Pradesh","state_code":"02","district":"West Godavari","district_code":"546","address1":"Ganapavaram Mandalam","address2":"","latitude":"16.6652","longitude":"81.4527","accuracy":"4"},{"address3":"Bavaipalem","state":"Andhra Pradesh","state_code":"02","district":"West Godavari","district_code":"546","address1":"Vungutur","address2":"","latitude":"16.6767","longitude":"81.449","accuracy":"3"},{"address3":"Saripalli","state":"Andhra Pradesh","state_code":"02","district":"West Godavari","district_code":"546","address1":"Ganapavaram Mandalam","address2":"","latitude":"16.8946","longitude":"81.4023","accuracy":"3"},{"address3":"Velagapalli","state":"Andhra Pradesh","state_code":"02","district":"West Godavari","district_code":"546","address1":"Ganapavaram Mandalam","address2":"","latitude":"16.6767","longitude":"81.449","accuracy":"3"},{"address3":"Adavikolanu","state":"Andhra Pradesh","state_code":"02","district":"West Godavari","district_code":"546","address1":"Ganapavaram Mandalam","address2":"","latitude":"16.705","longitude":"81.4144","accuracy":"4"},{"address3":"Yenikepalli","state":"Andhra Pradesh","state_code":"02","district":"West Godavari","district_code":"546","address1":"Ganapavaram Mandalam","address2":"","latitude":"16.6767","longitude":"81.449","accuracy":"3"},{"address3":"Ganapavaram (West Godavari)","state":"Andhra Pradesh","state_code":"02","district":"West Godavari","district_code":"546","address1":"Ganapavarammandalam","address2":"","latitude":"16.6767","longitude":"81.449","accuracy":"3"},{"address3":"Aredu","state":"Andhra Pradesh","state_code":"02","district":"West Godavari","district_code":"546","address1":"Ganapavaram Mandalam","address2":"","latitude":"16.6686","longitude":"81.4685","accuracy":"4"},{"address3":"Chanamilli","state":"Andhra Pradesh","state_code":"02","district":"West Godavari","district_code":"546","address1":"Ganapavaram Mandal","address2":"","latitude":"16.6845","longitude":"81.4261","accuracy":"4"},{"address3":"Panduvva","state":"Andhra Pradesh","state_code":"02","district":"West Godavari","district_code":"546","address1":"Ganapavaram Mandalam","address2":"","latitude":"16.6645","longitude":"81.4899","accuracy":"4"},{"address3":"Krovvidi","state":"Andhra Pradesh","state_code":"02","district":"West Godavari","district_code":"546","address1":"Ganapavaram Mandalam","address2":"","latitude":"16.6726","longitude":"81.4425","accuracy":"4"}],"534199":[{"address3":"Uppuluru","state":"Andhra Pradesh","state_code":"02","district":"West Godavari","district_code":"546","address1":"NA","address2":"","latitude":"16.6429","longitude":"81.4885","accuracy":"4"},{"address3":"Arthamuru","state":"Andhra Pradesh","state_code":"02","district":"West Godavari","district_code":"546","address1":"NA","address2":"","latitude":"16.618","longitude":"81.4738","accuracy":"3"},{"address3":"Mahadevapatnam","state":"Andhra Pradesh","state_code":"02","district":"West Godavari","district_code":"546","address1":"NA","address2":"","latitude":"16.618","longitude":"81.4738","accuracy":"3"},{"address3":"Pamulaparru","state":"Andhra Pradesh","state_code":"02","district":"West Godavari","district_code":"546","address1":"NA","address2":"","latitude":"16.6204","longitude":"81.458","accuracy":"4"},{"address3":"Pedapulleru","state":"Andhra Pradesh","state_code":"02","district":"West Godavari","district_code":"546","address1":"NA","address2":"","latitude":"16.618","longitude":"81.4738","accuracy":"3"},{"address3":"Kolamuru","state":"Andhra Pradesh","state_code":"02","district":"West Godavari","district_code":"546","address1":"NA","address2":"","latitude":"16.6322","longitude":"81.4665","accuracy":"4"},{"address3":"N.R.P. Agraharam","state":"Andhra Pradesh","state_code":"02","district":"West Godavari","district_code":"546","address1":"NA","address2":"","latitude":"16.618","longitude":"81.4738","accuracy":"3"},{"address3":"Chilukuru","state":"Andhra Pradesh","state_code":"02","district":"West Godavari","district_code":"546","address1":"NA","address2":"","latitude":"16.6089","longitude":"81.4938","accuracy":"4"},{"address3":"Kalisipudi","state":"Andhra Pradesh","state_code":"02","district":"West Godavari","district_code":"546","address1":"NA","address2":"","latitude":"16.618","longitude":"81.4738","accuracy":"3"},{"address3":"Undi","state":"Andhra Pradesh","state_code":"02","district":"West Godavari","district_code":"546","address1":"Undi (mdl)","address2":"","latitude":"16.5854","longitude":"81.4621","accuracy":"4"},{"address3":"Cheurkuwada","state":"Andhra Pradesh","state_code":"02","district":"West Godavari","district_code":"546","address1":"NA","address2":"","latitude":"16.618","longitude":"81.4738","accuracy":"3"}],"534201":[{"address3":"Bhimavaram H.O","state":"Andhra Pradesh","state_code":"02","district":"West Godavari","district_code":"546","address1":"Bhimavaram (mdl)","address2":"","latitude":"16.5259","longitude":"81.4262","accuracy":"1"},{"address3":"Bhimavaram Railway Colony","state":"Andhra Pradesh","state_code":"02","district":"West Godavari","district_code":"546","address1":"Bhimavaram","address2":"","latitude":"16.5259","longitude":"81.4262","accuracy":"1"},{"address3":"Someswaralayam","state":"Andhra Pradesh","state_code":"02","district":"West Godavari","district_code":"546","address1":"Bhimavaram","address2":"","latitude":"16.5259","longitude":"81.4262","accuracy":"1"}],"534202":[{"address3":"Gollalakoderu","state":"Andhra Pradesh","state_code":"02","district":"West Godavari","district_code":"546","address1":"NA","address2":"","latitude":"16.8327","longitude":"80.8508","accuracy":"3"},{"address3":"Annavaram","state":"Andhra Pradesh","state_code":"02","district":"West Godavari","district_code":"546","address1":"NA","address2":"","latitude":"16.8946","longitude":"81.4023","accuracy":"4"},{"address3":"D.N.R.College","state":"Andhra Pradesh","state_code":"02","district":"West Godavari","district_code":"546","address1":"Bhimavaram","address2":"","latitude":"16.8327","longitude":"80.8508","accuracy":"3"},{"address3":"Taderu","state":"Andhra Pradesh","state_code":"02","district":"West Godavari","district_code":"546","address1":"NA","address2":"","latitude":"16.8327","longitude":"80.8508","accuracy":"3"},{"address3":"Sreeramapuram","state":"Andhra Pradesh","state_code":"02","district":"West Godavari","district_code":"546","address1":"Bhimavaram","address2":"","latitude":"16.8327","longitude":"80.8508","accuracy":"3"},{"address3":"Sivaraopeta","state":"Andhra Pradesh","state_code":"02","district":"West Godavari","district_code":"546","address1":"Bhimavaram","address2":"","latitude":"16.8327","longitude":"80.8508","accuracy":"3"},{"address3":"Bhimavaram Bazar","state":"Andhra Pradesh","state_code":"02","district":"West Godavari","district_code":"546","address1":"Bhimavaram","address2":"","latitude":"16.8327","longitude":"80.8508","accuracy":"3"}],"534204":[{"address3":"S.R.K.R .Engg.college","state":"Andhra Pradesh","state_code":"02","district":"West Godavari","district_code":"546","address1":"Kalla (mdl)","address2":"","latitude":"16.5259","longitude":"81.4262","accuracy":"1"},{"address3":"China-amiram","state":"Andhra Pradesh","state_code":"02","district":"West Godavari","district_code":"546","address1":"NA","address2":"","latitude":"16.5259","longitude":"81.4262","accuracy":"1"},{"address3":"Peda-amiram","state":"Andhra Pradesh","state_code":"02","district":"West Godavari","district_code":"546","address1":"NA","address2":"","latitude":"16.5259","longitude":"81.4262","accuracy":"1"}],"534206":[{"address3":"Vandram","state":"Andhra Pradesh","state_code":"02","district":"West Godavari","district_code":"546","address1":"NA","address2":"","latitude":"16.526","longitude":"81.4645","accuracy":"3"},{"address3":"Jakkaram","state":"Andhra Pradesh","state_code":"02","district":"West Godavari","district_code":"546","address1":"NA","address2":"","latitude":"16.5377","longitude":"81.4581","accuracy":"4"},{"address3":"Vempadu","state":"Andhra Pradesh","state_code":"02","district":"West Godavari","district_code":"546","address1":"NA","address2":"","latitude":"16.532","longitude":"81.4819","accuracy":"4"},{"address3":"Bondada","state":"Andhra Pradesh","state_code":"02","district":"West Godavari","district_code":"546","address1":"NA","address2":"","latitude":"16.5295","longitude":"81.4549","accuracy":"4"},{"address3":"Kopalle","state":"Andhra Pradesh","state_code":"02","district":"West Godavari","district_code":"546","address1":"Kalla (mdl)","address2":"","latitude":"16.5308","longitude":"81.4718","accuracy":"4"},{"address3":"Lakshminarasimhapuram","state":"Andhra Pradesh","state_code":"02","district":"West Godavari","district_code":"546","address1":"NA","address2":"","latitude":"16.4998","longitude":"81.4557","accuracy":"4"}],"534207":[{"address3":"Matsyapuri","state":"Andhra Pradesh","state_code":"02","district":"West Godavari","district_code":"546","address1":"NA","address2":"","latitude":"16.4807","longitude":"81.6278","accuracy":"4"},{"address3":"Bethapudi","state":"Andhra Pradesh","state_code":"02","district":"West Godavari","district_code":"546","address1":"NA","address2":"","latitude":"16.4662","longitude":"81.5964","accuracy":"3"},{"address3":"Vempa","state":"Andhra Pradesh","state_code":"02","district":"West Godavari","district_code":"546","address1":"NA","address2":"","latitude":"16.443","longitude":"81.5758","accuracy":"4"},{"address3":"Pedagaruvu","state":"Andhra Pradesh","state_code":"02","district":"West Godavari","district_code":"546","address1":"NA","address2":"","latitude":"16.4662","longitude":"81.5964","accuracy":"3"},{"address3":"Tundurru","state":"Andhra Pradesh","state_code":"02","district":"West Godavari","district_code":"546","address1":"Bhimavaram(mdl)","address2":"","latitude":"16.475","longitude":"81.5855","accuracy":"4"}],"534208":[{"address3":"Ankoderu","state":"Andhra Pradesh","state_code":"02","district":"West Godavari","district_code":"546","address1":"NA","address2":"","latitude":"16.4972","longitude":"81.5074","accuracy":"3"},{"address3":"Komarada","state":"Andhra Pradesh","state_code":"02","district":"West Godavari","district_code":"546","address1":"NA","address2":"","latitude":"16.4972","longitude":"81.5074","accuracy":"4"},{"address3":"Rayalam","state":"Andhra Pradesh","state_code":"02","district":"West Godavari","district_code":"546","address1":"Bhimavaram","address2":"","latitude":"16.4972","longitude":"81.5074","accuracy":"3"}],"534209":[{"address3":"Korukollu","state":"Andhra Pradesh","state_code":"02","district":"West Godavari","district_code":"546","address1":"NA","address2":"","latitude":"16.8946","longitude":"81.4023","accuracy":"4"},{"address3":"Lakshminarayanapuram","state":"Andhra Pradesh","state_code":"02","district":"West Godavari","district_code":"546","address1":"NA","address2":"","latitude":"16.8946","longitude":"81.4023","accuracy":"4"},{"address3":"Mogallu","state":"Andhra Pradesh","state_code":"02","district":"West Godavari","district_code":"546","address1":"Palakoderu (mdl)","address2":"","latitude":"16.6","longitude":"81.5667","accuracy":"4"}],"534210":[{"address3":"Kumudavalli","state":"Andhra Pradesh","state_code":"02","district":"West Godavari","district_code":"546","address1":"NA","address2":"","latitude":"16.7776","longitude":"81.6742","accuracy":"1"},{"address3":"Palakoderu","state":"Andhra Pradesh","state_code":"02","district":"West Godavari","district_code":"546","address1":"Palakoderu (mdl)","address2":"","latitude":"16.7776","longitude":"81.6742","accuracy":"1"},{"address3":"Vendra","state":"Andhra Pradesh","state_code":"02","district":"West Godavari","district_code":"546","address1":"NA","address2":"","latitude":"16.7776","longitude":"81.6742","accuracy":"1"},{"address3":"Kondepudi","state":"Andhra Pradesh","state_code":"02","district":"West Godavari","district_code":"546","address1":"NA","address2":"","latitude":"16.7776","longitude":"81.6742","accuracy":"1"}],"534211":[{"address3":"Tanuku H.O","state":"Andhra Pradesh","state_code":"02","district":"West Godavari","district_code":"546","address1":"Tanuku (mdl)","address2":"","latitude":"16.7593","longitude":"81.6753","accuracy":"3"},{"address3":"Sajjapuram","state":"Andhra Pradesh","state_code":"02","district":"West Godavari","district_code":"546","address1":"Tanuku","address2":"","latitude":"16.7593","longitude":"81.6753","accuracy":"4"},{"address3":"Tanuku Old Town","state":"Andhra Pradesh","state_code":"02","district":"West Godavari","district_code":"546","address1":"Tanuku","address2":"","latitude":"16.7593","longitude":"81.6753","accuracy":"3"},{"address3":"Hanumantharaopeta","state":"Andhra Pradesh","state_code":"02","district":"West Godavari","district_code":"546","address1":"Tanuku","address2":"","latitude":"16.7593","longitude":"81.6753","accuracy":"3"},{"address3":"Tanuku Bazar","state":"Andhra Pradesh","state_code":"02","district":"West Godavari","district_code":"546","address1":"Tanuku","address2":"","latitude":"16.7593","longitude":"81.6753","accuracy":"3"}],"534215":[{"address3":"Venkatrayapuram","state":"Andhra Pradesh","state_code":"02","district":"West Godavari","district_code":"546","address1":"Tanuku (mdl)","address2":"","latitude":"16.7776","longitude":"81.6742","accuracy":"1"}],"534216":[{"address3":"Vundrajavaram","state":"Andhra Pradesh","state_code":"02","district":"West Godavari","district_code":"546","address1":"Vundrajavaram (mdl)","address2":"","latitude":"16.7854","longitude":"81.686","accuracy":"3"},{"address3":"Chivatam","state":"Andhra Pradesh","state_code":"02","district":"West Godavari","district_code":"546","address1":"NA","address2":"","latitude":"16.7756","longitude":"81.6783","accuracy":"4"},{"address3":"Palangi","state":"Andhra Pradesh","state_code":"02","district":"West Godavari","district_code":"546","address1":"NA","address2":"","latitude":"16.7684","longitude":"81.697","accuracy":"4"},{"address3":"Chilakapadu","state":"Andhra Pradesh","state_code":"02","district":"West Godavari","district_code":"546","address1":"NA","address2":"","latitude":"16.8124","longitude":"81.6825","accuracy":"4"}],"534217":[{"address3":"K.Illindalaparru","state":"Andhra Pradesh","state_code":"02","district":"West Godavari","district_code":"546","address1":"NA","address2":"","latitude":"16.7776","longitude":"81.6742","accuracy":"1"},{"address3":"Arjunudupalem","state":"Andhra Pradesh","state_code":"02","district":"West Godavari","district_code":"546","address1":"NA","address2":"","latitude":"16.7776","longitude":"81.6742","accuracy":"1"},{"address3":"Goteru","state":"Andhra Pradesh","state_code":"02","district":"West Godavari","district_code":"546","address1":"NA","address2":"","latitude":"16.7776","longitude":"81.6742","accuracy":"1"},{"address3":"Kothapadu","state":"Andhra Pradesh","state_code":"02","district":"West Godavari","district_code":"546","address1":"NA","address2":"","latitude":"16.7776","longitude":"81.6742","accuracy":"1"},{"address3":"Iragavaram","state":"Andhra Pradesh","state_code":"02","district":"West Godavari","district_code":"546","address1":"Iragavaram (mdl)","address2":"","latitude":"16.7776","longitude":"81.6742","accuracy":"1"},{"address3":"Yeraih Cheruvu","state":"Andhra Pradesh","state_code":"02","district":"West Godavari","district_code":"546","address1":"NA","address2":"","latitude":"16.7776","longitude":"81.6742","accuracy":"1"}],"534218":[{"address3":"Pidiparru","state":"Andhra Pradesh","state_code":"02","district":"West Godavari","district_code":"546","address1":"NA","address2":"","latitude":"16.775","longitude":"81.656","accuracy":"3"},{"address3":"Vadluru","state":"Andhra Pradesh","state_code":"02","district":"West Godavari","district_code":"546","address1":"NA","address2":"","latitude":"16.78","longitude":"81.6556","accuracy":"4"},{"address3":"Satyawada","state":"Andhra Pradesh","state_code":"02","district":"West Godavari","district_code":"546","address1":"NA","address2":"","latitude":"16.775","longitude":"81.656","accuracy":"3"},{"address3":"Tetali","state":"Andhra Pradesh","state_code":"02","district":"West Godavari","district_code":"546","address1":"NA","address2":"","latitude":"16.77","longitude":"81.6564","accuracy":"4"},{"address3":"Mandapaka","state":"Andhra Pradesh","state_code":"02","district":"West Godavari","district_code":"546","address1":"Tanuku (mdl)","address2":"","latitude":"16.775","longitude":"81.656","accuracy":"3"}],"534222":[{"address3":"Komaravaram","state":"Andhra Pradesh","state_code":"02","district":"West Godavari","district_code":"546","address1":"NA","address2":"","latitude":"16.8946","longitude":"81.4023","accuracy":"4"},{"address3":"Veerabhadrapuram","state":"Andhra Pradesh","state_code":"02","district":"West Godavari","district_code":"546","address1":"NA","address2":"","latitude":"17.3827","longitude":"81.7704","accuracy":"3"},{"address3":"Velpur","state":"Andhra Pradesh","state_code":"02","district":"West Godavari","district_code":"546","address1":"Velpur (mdl)","address2":"","latitude":"17.3827","longitude":"81.7704","accuracy":"3"},{"address3":"Kavalipuram","state":"Andhra Pradesh","state_code":"02","district":"West Godavari","district_code":"546","address1":"NA","address2":"","latitude":"17.3827","longitude":"81.7704","accuracy":"3"}],"534225":[{"address3":"Ballipadu","state":"Andhra Pradesh","state_code":"02","district":"West Godavari","district_code":"546","address1":"Attili (mdl)","address2":"","latitude":"16.7167","longitude":"81.6667","accuracy":"3"},{"address3":"Relangi","state":"Andhra Pradesh","state_code":"02","district":"West Godavari","district_code":"546","address1":"Iragavaram(mdl)","address2":"","latitude":"16.7167","longitude":"81.6667","accuracy":"4"},{"address3":"Varighedu","state":"Andhra Pradesh","state_code":"02","district":"West Godavari","district_code":"546","address1":"Iragavaram(mdl)","address2":"","latitude":"16.7167","longitude":"81.6667","accuracy":"3"},{"address3":"Gavarlapalem","state":"Andhra Pradesh","state_code":"02","district":"West Godavari","district_code":"546","address1":"Iragavaram(mdl)","address2":"","latitude":"16.7167","longitude":"81.6667","accuracy":"3"},{"address3":"Tirupathipuram","state":"Andhra Pradesh","state_code":"02","district":"West Godavari","district_code":"546","address1":"NA","address2":"","latitude":"16.7167","longitude":"81.6667","accuracy":"3"},{"address3":"Pali Gds","state":"Andhra Pradesh","state_code":"02","district":"West Godavari","district_code":"546","address1":"Penumantra (mdl)","address2":"","latitude":"16.7167","longitude":"81.6667","accuracy":"3"},{"address3":"S.Illindalaparru","state":"Andhra Pradesh","state_code":"02","district":"West Godavari","district_code":"546","address1":"Iragavaram(mdl)","address2":"","latitude":"16.7167","longitude":"81.6667","accuracy":"3"},{"address3":"Gummampadu","state":"Andhra Pradesh","state_code":"02","district":"West Godavari","district_code":"546","address1":"Iragavaram(mdl)","address2":"","latitude":"16.7167","longitude":"81.6667","accuracy":"3"}],"534227":[{"address3":"Dammmennu","state":"Andhra Pradesh","state_code":"02","district":"West Godavari","district_code":"546","address1":"NA","address2":"","latitude":"16.7866","longitude":"81.7228","accuracy":"3"},{"address3":"Velagaduuru","state":"Andhra Pradesh","state_code":"02","district":"West Godavari","district_code":"546","address1":"NA","address2":"","latitude":"16.7866","longitude":"81.7228","accuracy":"3"},{"address3":"Tadiparru","state":"Andhra Pradesh","state_code":"02","district":"West Godavari","district_code":"546","address1":"NA","address2":"","latitude":"16.7866","longitude":"81.7228","accuracy":"4"},{"address3":"Mortha","state":"Andhra Pradesh","state_code":"02","district":"West Godavari","district_code":"546","address1":"U.varam(mdl)","address2":"","latitude":"16.7866","longitude":"81.7228","accuracy":"3"}],"534230":[{"address3":"Skinnerapuram","state":"Andhra Pradesh","state_code":"02","district":"West Godavari","district_code":"546","address1":"NA","address2":"","latitude":"16.5276","longitude":"81.109","accuracy":"3"},{"address3":"Unikili","state":"Andhra Pradesh","state_code":"02","district":"West Godavari","district_code":"546","address1":"NA","address2":"","latitude":"16.8946","longitude":"81.4023","accuracy":"4"},{"address3":"Aravalli","state":"Andhra Pradesh","state_code":"02","district":"West Godavari","district_code":"546","address1":"Attili (mdl)","address2":"","latitude":"16.5276","longitude":"81.109","accuracy":"3"},{"address3":"Kanchumarru","state":"Andhra Pradesh","state_code":"02","district":"West Godavari","district_code":"546","address1":"NA","address2":"","latitude":"16.5276","longitude":"81.109","accuracy":"3"}],"534235":[{"address3":"Apparaopeta","state":"Andhra Pradesh","state_code":"02","district":"West Godavari","district_code":"546","address1":"NA","address2":"","latitude":"16.6327","longitude":"81.3929","accuracy":"4"},{"address3":"Akividu","state":"Andhra Pradesh","state_code":"02","district":"West Godavari","district_code":"546","address1":"Akividu (mdl)","address2":"","latitude":"16.5823","longitude":"81.3811","accuracy":"4"},{"address3":"Gummuluru","state":"Andhra Pradesh","state_code":"02","district":"West Godavari","district_code":"546","address1":"NA","address2":"","latitude":"16.622","longitude":"81.4068","accuracy":"4"},{"address3":"Chinamallipadu","state":"Andhra Pradesh","state_code":"02","district":"West Godavari","district_code":"546","address1":"NA","address2":"","latitude":"16.5921","longitude":"81.3792","accuracy":"3"},{"address3":"Chinakapavaram","state":"Andhra Pradesh","state_code":"02","district":"West Godavari","district_code":"546","address1":"NA","address2":"","latitude":"16.5921","longitude":"81.3792","accuracy":"3"},{"address3":"Aibhimavaram","state":"Andhra Pradesh","state_code":"02","district":"West Godavari","district_code":"546","address1":"NA","address2":"","latitude":"16.5632","longitude":"81.3688","accuracy":"4"},{"address3":"Cherukumilli","state":"Andhra Pradesh","state_code":"02","district":"West Godavari","district_code":"546","address1":"NA","address2":"","latitude":"16.5403","longitude":"81.3641","accuracy":"4"},{"address3":"Kollaparru","state":"Andhra Pradesh","state_code":"02","district":"West Godavari","district_code":"546","address1":"NA","address2":"","latitude":"16.6202","longitude":"81.3878","accuracy":"4"},{"address3":"Sidhapuram","state":"Andhra Pradesh","state_code":"02","district":"West Godavari","district_code":"546","address1":"NA","address2":"","latitude":"16.5921","longitude":"81.3792","accuracy":"3"},{"address3":"Dumpagadapa","state":"Andhra Pradesh","state_code":"02","district":"West Godavari","district_code":"546","address1":"NA","address2":"","latitude":"16.5842","longitude":"81.3529","accuracy":"4"},{"address3":"Pedakapavaram","state":"Andhra Pradesh","state_code":"02","district":"West Godavari","district_code":"546","address1":"NA","address2":"","latitude":"16.5921","longitude":"81.3792","accuracy":"3"}],"534236":[{"address3":"Military Colony","state":"Andhra Pradesh","state_code":"02","district":"West Godavari","district_code":"546","address1":"NA","address2":"","latitude":"16.6353","longitude":"81.47","accuracy":"3"},{"address3":"Kalavapudi","state":"Andhra Pradesh","state_code":"02","district":"West Godavari","district_code":"546","address1":"NA","address2":"","latitude":"16.4623","longitude":"81.3887","accuracy":"4"},{"address3":"Juvvalapalem","state":"Andhra Pradesh","state_code":"02","district":"West Godavari","district_code":"546","address1":"NA","address2":"","latitude":"16.8084","longitude":"81.5513","accuracy":"4"},{"address3":"Prathalameraka","state":"Andhra Pradesh","state_code":"02","district":"West Godavari","district_code":"546","address1":"NA","address2":"","latitude":"16.6353","longitude":"81.47","accuracy":"3"},{"address3":"Yelurupadu","state":"Andhra Pradesh","state_code":"02","district":"West Godavari","district_code":"546","address1":"Kalla (mdl)","address2":"","latitude":"16.6353","longitude":"81.47","accuracy":"3"}],"534237":[{"address3":"Doddanapudi","state":"Andhra Pradesh","state_code":"02","district":"West Godavari","district_code":"546","address1":"NA","address2":"","latitude":"16.5247","longitude":"81.3949","accuracy":"4"},{"address3":"Kallakuru","state":"Andhra Pradesh","state_code":"02","district":"West Godavari","district_code":"546","address1":"NA","address2":"","latitude":"16.8946","longitude":"81.4023","accuracy":"4"},{"address3":"Kolanapalli","state":"Andhra Pradesh","state_code":"02","district":"West Godavari","district_code":"546","address1":"NA","address2":"","latitude":"16.5349","longitude":"81.3919","accuracy":"3"},{"address3":"Kalla","state":"Andhra Pradesh","state_code":"02","district":"West Godavari","district_code":"546","address1":"Kalla (mdl)","address2":"","latitude":"16.5371","longitude":"81.4099","accuracy":"4"},{"address3":"Kuppanapudi","state":"Andhra Pradesh","state_code":"02","district":"West Godavari","district_code":"546","address1":"NA","address2":"","latitude":"16.5672","longitude":"81.3963","accuracy":"4"},{"address3":"Sisali","state":"Andhra Pradesh","state_code":"02","district":"West Godavari","district_code":"546","address1":"NA","address2":"","latitude":"16.5424","longitude":"81.4333","accuracy":"4"}],"534238":[{"address3":"Polamuru","state":"Andhra Pradesh","state_code":"02","district":"West Godavari","district_code":"546","address1":"Penumantra (mdl)","address2":"","latitude":"16.5556","longitude":"81.4012","accuracy":"1"},{"address3":"Navuduru","state":"Andhra Pradesh","state_code":"02","district":"West Godavari","district_code":"546","address1":"NA","address2":"","latitude":"16.5556","longitude":"81.4012","accuracy":"1"},{"address3":"Andaluru","state":"Andhra Pradesh","state_code":"02","district":"West Godavari","district_code":"546","address1":"NA","address2":"","latitude":"16.5556","longitude":"81.4012","accuracy":"1"},{"address3":"Mamuduru","state":"Andhra Pradesh","state_code":"02","district":"West Godavari","district_code":"546","address1":"NA","address2":"","latitude":"16.5556","longitude":"81.4012","accuracy":"1"}],"534239":[{"address3":"Dirusumarru","state":"Andhra Pradesh","state_code":"02","district":"West Godavari","district_code":"546","address1":"Bhimavaram (mdl)","address2":"","latitude":"16.4708","longitude":"81.5388","accuracy":"4"},{"address3":"Enamadurru","state":"Andhra Pradesh","state_code":"02","district":"West Godavari","district_code":"546","address1":"NA","address2":"","latitude":"16.4896","longitude":"81.5278","accuracy":"4"},{"address3":"Deyyalatippa","state":"Andhra Pradesh","state_code":"02","district":"West Godavari","district_code":"546","address1":"NA","address2":"","latitude":"16.461","longitude":"81.5194","accuracy":"3"},{"address3":"Tokatippa","state":"Andhra Pradesh","state_code":"02","district":"West Godavari","district_code":"546","address1":"NA","address2":"","latitude":"16.4227","longitude":"81.4917","accuracy":"4"},{"address3":"Gollavanitippa","state":"Andhra Pradesh","state_code":"02","district":"West Godavari","district_code":"546","address1":"NA","address2":"","latitude":"16.461","longitude":"81.5194","accuracy":"3"},{"address3":"Losari-gutlapadu","state":"Andhra Pradesh","state_code":"02","district":"West Godavari","district_code":"546","address1":"NA","address2":"","latitude":"16.461","longitude":"81.5194","accuracy":"3"}],"534240":[{"address3":"Madugupolavaram","state":"Andhra Pradesh","state_code":"02","district":"West Godavari","district_code":"546","address1":"NA","address2":"","latitude":"16.5842","longitude":"81.4741","accuracy":"1"},{"address3":"Nelapogula","state":"Andhra Pradesh","state_code":"02","district":"West Godavari","district_code":"546","address1":"NA","address2":"","latitude":"16.5842","longitude":"81.4741","accuracy":"1"},{"address3":"Jonnalapalem","state":"Andhra Pradesh","state_code":"02","district":"West Godavari","district_code":"546","address1":"NA","address2":"","latitude":"16.5842","longitude":"81.4741","accuracy":"1"},{"address3":"Konithiwada","state":"Andhra Pradesh","state_code":"02","district":"West Godavari","district_code":"546","address1":"Viravasaram(mdl)","address2":"","latitude":"16.5842","longitude":"81.4741","accuracy":"1"}],"534243":[{"address3":"Perkipalem","state":"Andhra Pradesh","state_code":"02","district":"West Godavari","district_code":"546","address1":"NA","address2":"","latitude":"16.5842","longitude":"81.4741","accuracy":"1"},{"address3":"Srungavruksham","state":"Andhra Pradesh","state_code":"02","district":"West Godavari","district_code":"546","address1":"Palakoderu (mdl)","address2":"","latitude":"16.5842","longitude":"81.4741","accuracy":"1"},{"address3":"Bantummili","state":"Andhra Pradesh","state_code":"02","district":"West Godavari","district_code":"546","address1":"NA","address2":"","latitude":"16.5842","longitude":"81.4741","accuracy":"1"},{"address3":"Nandamurugaruvu","state":"Andhra Pradesh","state_code":"02","district":"West Godavari","district_code":"546","address1":"Palakoderu (mdl)","address2":"","latitude":"16.5842","longitude":"81.4741","accuracy":"1"},{"address3":"Dusanapudi","state":"Andhra Pradesh","state_code":"02","district":"West Godavari","district_code":"546","address1":"NA","address2":"","latitude":"16.5842","longitude":"81.4741","accuracy":"1"},{"address3":"Pennada","state":"Andhra Pradesh","state_code":"02","district":"West Godavari","district_code":"546","address1":"NA","address2":"","latitude":"16.5842","longitude":"81.4741","accuracy":"1"}],"534244":[{"address3":"Vankayalapalem","state":"Andhra Pradesh","state_code":"02","district":"West Godavari","district_code":"546","address1":"NA","address2":"","latitude":"16.5842","longitude":"81.4741","accuracy":"1"},{"address3":"Goraganamudi","state":"Andhra Pradesh","state_code":"02","district":"West Godavari","district_code":"546","address1":"NA","address2":"","latitude":"16.5842","longitude":"81.4741","accuracy":"1"},{"address3":"Vissakoderu","state":"Andhra Pradesh","state_code":"02","district":"West Godavari","district_code":"546","address1":"Palakoderu(mdl)","address2":"","latitude":"16.5842","longitude":"81.4741","accuracy":"1"}],"534245":[{"address3":"Sivadevunichikkala","state":"Andhra Pradesh","state_code":"02","district":"West Godavari","district_code":"546","address1":"NA","address2":"","latitude":"16.5842","longitude":"81.4741","accuracy":"1"},{"address3":"Viravasaram","state":"Andhra Pradesh","state_code":"02","district":"West Godavari","district_code":"546","address1":"Viravasaram (mdl)","address2":"","latitude":"16.5842","longitude":"81.4741","accuracy":"1"},{"address3":"Tillapudi","state":"Andhra Pradesh","state_code":"02","district":"West Godavari","district_code":"546","address1":"NA","address2":"","latitude":"16.5842","longitude":"81.4741","accuracy":"1"}],"534247":[{"address3":"Tokalapudi","state":"Andhra Pradesh","state_code":"02","district":"West Godavari","district_code":"546","address1":"NA","address2":"","latitude":"16.8946","longitude":"81.4023","accuracy":"1"},{"address3":"Panjavemavaram","state":"Andhra Pradesh","state_code":"02","district":"West Godavari","district_code":"546","address1":"NA","address2":"","latitude":"16.5842","longitude":"81.4741","accuracy":"1"},{"address3":"Rayakuduru","state":"Andhra Pradesh","state_code":"02","district":"West Godavari","district_code":"546","address1":"Viravasaram (mdl)","address2":"","latitude":"16.5842","longitude":"81.4741","accuracy":"1"},{"address3":"Toleru","state":"Andhra Pradesh","state_code":"02","district":"West Godavari","district_code":"546","address1":"NA","address2":"","latitude":"16.5842","longitude":"81.4741","accuracy":"1"}],"534250":[{"address3":"Velivela","state":"Andhra Pradesh","state_code":"02","district":"West Godavari","district_code":"546","address1":"NA","address2":"","latitude":"16.4959","longitude":"81.6508","accuracy":"4"},{"address3":"Agarru","state":"Andhra Pradesh","state_code":"02","district":"West Godavari","district_code":"546","address1":"Palakol (mdl)","address2":"","latitude":"16.4952","longitude":"81.6998","accuracy":"4"},{"address3":"Kapavaram","state":"Andhra Pradesh","state_code":"02","district":"West Godavari","district_code":"546","address1":"NA","address2":"","latitude":"17.2211","longitude":"81.3607","accuracy":"4"},{"address3":"Venkata Puram","state":"Andhra Pradesh","state_code":"02","district":"West Godavari","district_code":"546","address1":"NA","address2":"","latitude":"16.7374","longitude":"81.5704","accuracy":"3"},{"address3":"Lankalakoderu","state":"Andhra Pradesh","state_code":"02","district":"West Godavari","district_code":"546","address1":"Viravasaram(mdl)","address2":"","latitude":"16.7374","longitude":"81.5704","accuracy":"3"},{"address3":"Aratlakatta","state":"Andhra Pradesh","state_code":"02","district":"West Godavari","district_code":"546","address1":"NA","address2":"","latitude":"16.7374","longitude":"81.5704","accuracy":"3"},{"address3":"Pulapalli","state":"Andhra Pradesh","state_code":"02","district":"West Godavari","district_code":"546","address1":"Palakol (mdl)","address2":"","latitude":"16.7374","longitude":"81.5704","accuracy":"3"},{"address3":"Dagguluru","state":"Andhra Pradesh","state_code":"02","district":"West Godavari","district_code":"546","address1":"NA","address2":"","latitude":"16.7374","longitude":"81.5704","accuracy":"3"},{"address3":"Chintaparru","state":"Andhra Pradesh","state_code":"02","district":"West Godavari","district_code":"546","address1":"NA","address2":"","latitude":"16.7374","longitude":"81.5704","accuracy":"3"},{"address3":"Bhaggeswaram","state":"Andhra Pradesh","state_code":"02","district":"West Godavari","district_code":"546","address1":"Poduru (mdl)","address2":"","latitude":"16.7374","longitude":"81.5704","accuracy":"3"},{"address3":"Agarthipalem","state":"Andhra Pradesh","state_code":"02","district":"West Godavari","district_code":"546","address1":"Palakol (mdl)","address2":"","latitude":"16.7374","longitude":"81.5704","accuracy":"3"}],"534260":[{"address3":"Palakol H.O","state":"Andhra Pradesh","state_code":"02","district":"West Godavari","district_code":"546","address1":"Palakol(mdl)","address2":"","latitude":"16.5911","longitude":"81.1919","accuracy":"1"},{"address3":"Lajapathiroya Peta","state":"Andhra Pradesh","state_code":"02","district":"West Godavari","district_code":"546","address1":"Palacole","address2":"","latitude":"16.5911","longitude":"81.1919","accuracy":"1"},{"address3":"Palakol Bazar","state":"Andhra Pradesh","state_code":"02","district":"West Godavari","district_code":"546","address1":"Palacole","address2":"","latitude":"16.5911","longitude":"81.1919","accuracy":"1"}],"534265":[{"address3":"Vedangi","state":"Andhra Pradesh","state_code":"02","district":"West Godavari","district_code":"546","address1":"NA","address2":"","latitude":"16.4963","longitude":"81.7417","accuracy":"3"},{"address3":"Varidhanam","state":"Andhra Pradesh","state_code":"02","district":"West Godavari","district_code":"546","address1":"Palakol (mdl)","address2":"","latitude":"16.4963","longitude":"81.7417","accuracy":"4"},{"address3":"Jinnuru","state":"Andhra Pradesh","state_code":"02","district":"West Godavari","district_code":"546","address1":"Palakol (mdl)","address2":"","latitude":"16.4963","longitude":"81.7417","accuracy":"3"},{"address3":"Mattaparru","state":"Andhra Pradesh","state_code":"02","district":"West Godavari","district_code":"546","address1":"NA","address2":"","latitude":"16.4963","longitude":"81.7417","accuracy":"3"},{"address3":"Vadangi Palem","state":"Andhra Pradesh","state_code":"02","district":"West Godavari","district_code":"546","address1":"NA","address2":"","latitude":"16.4963","longitude":"81.7417","accuracy":"3"},{"address3":"Vadlavani Palem","state":"Andhra Pradesh","state_code":"02","district":"West Godavari","district_code":"546","address1":"NA","address2":"","latitude":"16.4963","longitude":"81.7417","accuracy":"3"},{"address3":"Ulliamparru","state":"Andhra Pradesh","state_code":"02","district":"West Godavari","district_code":"546","address1":"NA","address2":"","latitude":"16.4963","longitude":"81.7417","accuracy":"3"}],"534266":[{"address3":"Doddipatla","state":"Andhra Pradesh","state_code":"02","district":"West Godavari","district_code":"546","address1":"Ellamanchili (mdl)","address2":"","latitude":"16.8946","longitude":"81.4023","accuracy":"4"},{"address3":"Ilapakurru","state":"Andhra Pradesh","state_code":"02","district":"West Godavari","district_code":"546","address1":"NA","address2":"","latitude":"16.5591","longitude":"81.2876","accuracy":"3"},{"address3":"Matla Palem","state":"Andhra Pradesh","state_code":"02","district":"West Godavari","district_code":"546","address1":"NA","address2":"","latitude":"16.5591","longitude":"81.2876","accuracy":"3"},{"address3":"Narinameraka","state":"Andhra Pradesh","state_code":"02","district":"West Godavari","district_code":"546","address1":"NA","address2":"","latitude":"16.5591","longitude":"81.2876","accuracy":"3"},{"address3":"Bhimala Puram","state":"Andhra Pradesh","state_code":"02","district":"West Godavari","district_code":"546","address1":"NA","address2":"","latitude":"16.5591","longitude":"81.2876","accuracy":"3"},{"address3":"Gumparru","state":"Andhra Pradesh","state_code":"02","district":"West Godavari","district_code":"546","address1":"NA","address2":"","latitude":"16.5591","longitude":"81.2876","accuracy":"3"},{"address3":"Burugupalli","state":"Andhra Pradesh","state_code":"02","district":"West Godavari","district_code":"546","address1":"NA","address2":"","latitude":"16.5591","longitude":"81.2876","accuracy":"3"},{"address3":"Abbiraju Palem","state":"Andhra Pradesh","state_code":"02","district":"West Godavari","district_code":"546","address1":"NA","address2":"","latitude":"16.5591","longitude":"81.2876","accuracy":"3"},{"address3":"Ayodhya Lanka","state":"Andhra Pradesh","state_code":"02","district":"West Godavari","district_code":"546","address1":"NA","address2":"","latitude":"16.5591","longitude":"81.2876","accuracy":"3"}],"534267":[{"address3":"Ravipadu","state":"Andhra Pradesh","state_code":"02","district":"West Godavari","district_code":"546","address1":"NA","address2":"","latitude":"16.7667","longitude":"81.5847","accuracy":"4"},{"address3":"A.Vemavaram","state":"Andhra Pradesh","state_code":"02","district":"West Godavari","district_code":"546","address1":"Poduru (mdl)","address2":"","latitude":"17.0294","longitude":"81.5401","accuracy":"3"},{"address3":"Vaddiparru","state":"Andhra Pradesh","state_code":"02","district":"West Godavari","district_code":"546","address1":"NA","address2":"","latitude":"17.0294","longitude":"81.5401","accuracy":"3"},{"address3":"Gummaluru","state":"Andhra Pradesh","state_code":"02","district":"West Godavari","district_code":"546","address1":"Poduru (mdl)","address2":"","latitude":"17.2921","longitude":"81.4955","accuracy":"4"},{"address3":"Penumadam","state":"Andhra Pradesh","state_code":"02","district":"West Godavari","district_code":"546","address1":"NA","address2":"","latitude":"17.0294","longitude":"81.5401","accuracy":"3"}],"534268":[{"address3":"Adavipalem","state":"Andhra Pradesh","state_code":"02","district":"West Godavari","district_code":"546","address1":"Palakol (mdl)","address2":"","latitude":"16.3379","longitude":"80.7256","accuracy":"3"},{"address3":"Chinchinada","state":"Andhra Pradesh","state_code":"02","district":"West Godavari","district_code":"546","address1":"NA","address2":"","latitude":"16.3379","longitude":"80.7256","accuracy":"3"},{"address3":"Penumarru","state":"Andhra Pradesh","state_code":"02","district":"West Godavari","district_code":"546","address1":"NA","address2":"","latitude":"16.8946","longitude":"81.4023","accuracy":"4"},{"address3":"Siragala Palli","state":"Andhra Pradesh","state_code":"02","district":"West Godavari","district_code":"546","address1":"NA","address2":"","latitude":"16.3379","longitude":"80.7256","accuracy":"3"},{"address3":"Konteru","state":"Andhra Pradesh","state_code":"02","district":"West Godavari","district_code":"546","address1":"Palakol (mdl)","address2":"","latitude":"16.3379","longitude":"80.7256","accuracy":"3"},{"address3":"Madapadu","state":"Andhra Pradesh","state_code":"02","district":"West Godavari","district_code":"546","address1":"NA","address2":"","latitude":"16.3379","longitude":"80.7256","accuracy":"3"},{"address3":"Kaza","state":"Andhra Pradesh","state_code":"02","district":"West Godavari","district_code":"546","address1":"Palakol (mdl)","address2":"","latitude":"16.8946","longitude":"81.4023","accuracy":"4"},{"address3":"Kalagam Pudi","state":"Andhra Pradesh","state_code":"02","district":"West Godavari","district_code":"546","address1":"NA","address2":"","latitude":"16.3379","longitude":"80.7256","accuracy":"3"},{"address3":"Ellamanchili","state":"Andhra Pradesh","state_code":"02","district":"West Godavari","district_code":"546","address1":"Ellamanchili (mdl)","address2":"","latitude":"16.3379","longitude":"80.7256","accuracy":"3"},{"address3":"Ellamanchili Lanka","state":"Andhra Pradesh","state_code":"02","district":"West Godavari","district_code":"546","address1":"NA","address2":"","latitude":"16.3379","longitude":"80.7256","accuracy":"3"},{"address3":"Neredumilli","state":"Andhra Pradesh","state_code":"02","district":"West Godavari","district_code":"546","address1":"NA","address2":"","latitude":"16.3379","longitude":"80.7256","accuracy":"3"}],"534269":[{"address3":"Pedamallam","state":"Andhra Pradesh","state_code":"02","district":"West Godavari","district_code":"546","address1":"NA","address2":"","latitude":"16.3474","longitude":"80.7829","accuracy":"3"},{"address3":"Valluru","state":"Andhra Pradesh","state_code":"02","district":"West Godavari","district_code":"546","address1":"NA","address2":"","latitude":"16.8946","longitude":"81.4023","accuracy":"4"},{"address3":"Chinamallam","state":"Andhra Pradesh","state_code":"02","district":"West Godavari","district_code":"546","address1":"NA","address2":"","latitude":"16.3474","longitude":"80.7829","accuracy":"3"},{"address3":"Kodamanchili","state":"Andhra Pradesh","state_code":"02","district":"West Godavari","district_code":"546","address1":"Atchanta (mdl)","address2":"","latitude":"16.3474","longitude":"80.7829","accuracy":"3"},{"address3":"Karugorumilli","state":"Andhra Pradesh","state_code":"02","district":"West Godavari","district_code":"546","address1":"NA","address2":"","latitude":"16.3474","longitude":"80.7829","accuracy":"3"},{"address3":"Koderu","state":"Andhra Pradesh","state_code":"02","district":"West Godavari","district_code":"546","address1":"NA","address2":"","latitude":"16.3474","longitude":"80.7829","accuracy":"3"}],"534275":[{"address3":"Vemuladeevi","state":"Andhra Pradesh","state_code":"02","district":"West Godavari","district_code":"546","address1":"NA","address2":"","latitude":"16.449","longitude":"81.692","accuracy":"3"},{"address3":"Lakshmaneswaram","state":"Andhra Pradesh","state_code":"02","district":"West Godavari","district_code":"546","address1":"NA","address2":"","latitude":"16.4082","longitude":"81.6867","accuracy":"4"},{"address3":"Roypeta","state":"Andhra Pradesh","state_code":"02","district":"West Godavari","district_code":"546","address1":"Narasapuram","address2":"","latitude":"16.449","longitude":"81.692","accuracy":"3"},{"address3":"Mallavarm","state":"Andhra Pradesh","state_code":"02","district":"West Godavari","district_code":"546","address1":"NA","address2":"","latitude":"16.449","longitude":"81.692","accuracy":"3"},{"address3":"Narsapur Bazar","state":"Andhra Pradesh","state_code":"02","district":"West Godavari","district_code":"546","address1":"Narasapuram","address2":"","latitude":"16.449","longitude":"81.692","accuracy":"3"},{"address3":"Narsapur (West Godavari)","state":"Andhra Pradesh","state_code":"02","district":"West Godavari","district_code":"546","address1":"Narsapur (mdl)","address2":"","latitude":"16.449","longitude":"81.692","accuracy":"3"},{"address3":"Yenuguvanilanka","state":"Andhra Pradesh","state_code":"02","district":"West Godavari","district_code":"546","address1":"NA","address2":"","latitude":"16.449","longitude":"81.692","accuracy":"3"},{"address3":"Saripalli","state":"Andhra Pradesh","state_code":"02","district":"West Godavari","district_code":"546","address1":"NA","address2":"","latitude":"16.8946","longitude":"81.4023","accuracy":"3"},{"address3":"Darabharevu","state":"Andhra Pradesh","state_code":"02","district":"West Godavari","district_code":"546","address1":"NA","address2":"","latitude":"16.449","longitude":"81.692","accuracy":"3"},{"address3":"Kopparru","state":"Andhra Pradesh","state_code":"02","district":"West Godavari","district_code":"546","address1":"NA","address2":"","latitude":"16.4573","longitude":"81.6369","accuracy":"4"},{"address3":"Lingaboyinacherla","state":"Andhra Pradesh","state_code":"02","district":"West Godavari","district_code":"546","address1":"NA","address2":"","latitude":"16.449","longitude":"81.692","accuracy":"3"},{"address3":"Digamarru","state":"Andhra Pradesh","state_code":"02","district":"West Godavari","district_code":"546","address1":"Palakol (mdl)","address2":"","latitude":"16.4838","longitude":"81.7318","accuracy":"4"},{"address3":"Rustumbada","state":"Andhra Pradesh","state_code":"02","district":"West Godavari","district_code":"546","address1":"Narsapur (mdl)","address2":"","latitude":"16.4254","longitude":"81.6804","accuracy":"4"},{"address3":"Chittavaram","state":"Andhra Pradesh","state_code":"02","district":"West Godavari","district_code":"546","address1":"NA","address2":"","latitude":"16.4701","longitude":"81.7243","accuracy":"4"}],"534280":[{"address3":"Pasaladeevi","state":"Andhra Pradesh","state_code":"02","district":"West Godavari","district_code":"546","address1":"NA","address2":"","latitude":"16.4729","longitude":"81.5845","accuracy":"3"},{"address3":"Sitaramapuram","state":"Andhra Pradesh","state_code":"02","district":"West Godavari","district_code":"546","address1":"Narsapur (mdl)","address2":"","latitude":"16.7517","longitude":"81.4281","accuracy":"4"},{"address3":"Ramannapalem","state":"Andhra Pradesh","state_code":"02","district":"West Godavari","district_code":"546","address1":"NA","address2":"","latitude":"16.4101","longitude":"81.6473","accuracy":"4"},{"address3":"Mylavanilanka","state":"Andhra Pradesh","state_code":"02","district":"West Godavari","district_code":"546","address1":"NA","address2":"","latitude":"16.4729","longitude":"81.5845","accuracy":"3"},{"address3":"Akanivarithota","state":"Andhra Pradesh","state_code":"02","district":"West Godavari","district_code":"546","address1":"NA","address2":"","latitude":"16.4729","longitude":"81.5845","accuracy":"3"},{"address3":"Kummarapurugupalem","state":"Andhra Pradesh","state_code":"02","district":"West Godavari","district_code":"546","address1":"NA","address2":"","latitude":"16.3653","longitude":"81.6192","accuracy":"4"},{"address3":"Turputallu","state":"Andhra Pradesh","state_code":"02","district":"West Godavari","district_code":"546","address1":"NA","address2":"","latitude":"16.3647","longitude":"81.6435","accuracy":"4"}],"534281":[{"address3":"Serepalem","state":"Andhra Pradesh","state_code":"02","district":"West Godavari","district_code":"546","address1":"NA","address2":"","latitude":"16.3802","longitude":"81.5493","accuracy":"3"},{"address3":"Kalipatnam","state":"Andhra Pradesh","state_code":"02","district":"West Godavari","district_code":"546","address1":"NA","address2":"","latitude":"16.3898","longitude":"81.5173","accuracy":"4"},{"address3":"Mutyalapalli","state":"Andhra Pradesh","state_code":"02","district":"West Godavari","district_code":"546","address1":"NA","address2":"","latitude":"16.3802","longitude":"81.5493","accuracy":"3"},{"address3":"Perupalem","state":"Andhra Pradesh","state_code":"02","district":"West Godavari","district_code":"546","address1":"NA","address2":"","latitude":"16.3705","longitude":"81.5813","accuracy":"4"},{"address3":"Chinagolla Palem","state":"Andhra Pradesh","state_code":"02","district":"West Godavari","district_code":"546","address1":"NA","address2":"","latitude":"16.3802","longitude":"81.5493","accuracy":"3"},{"address3":"Mogalturu","state":"Andhra Pradesh","state_code":"02","district":"West Godavari","district_code":"546","address1":"Mogalturu(mdl)","address2":"","latitude":"16.3802","longitude":"81.5493","accuracy":"3"}],"534301":[{"address3":"Settipeta","state":"Andhra Pradesh","state_code":"02","district":"West Godavari","district_code":"546","address1":"Nidadavolemandalam","address2":"","latitude":"16.8772","longitude":"81.6707","accuracy":"4"},{"address3":"Basivireddipeta","state":"Andhra Pradesh","state_code":"02","district":"West Godavari","district_code":"546","address1":"Nidadavole","address2":"","latitude":"16.908","longitude":"81.667","accuracy":"3"},{"address3":"Kalavalapalli","state":"Andhra Pradesh","state_code":"02","district":"West Godavari","district_code":"546","address1":"Nidadavolemandalam","address2":"","latitude":"16.908","longitude":"81.667","accuracy":"3"},{"address3":"Tallapalem","state":"Andhra Pradesh","state_code":"02","district":"West Godavari","district_code":"546","address1":"Nidadavolemandalam","address2":"","latitude":"16.8691","longitude":"81.6561","accuracy":"4"},{"address3":"Singavaram","state":"Andhra Pradesh","state_code":"02","district":"West Godavari","district_code":"546","address1":"Nidadavole","address2":"","latitude":"16.8846","longitude":"81.6584","accuracy":"4"},{"address3":"Nidadavole O.T.","state":"Andhra Pradesh","state_code":"02","district":"West Godavari","district_code":"546","address1":"Nidadavole","address2":"","latitude":"16.908","longitude":"81.667","accuracy":"3"},{"address3":"Kamsalipalem","state":"Andhra Pradesh","state_code":"02","district":"West Godavari","district_code":"546","address1":"Nidadavolemandalam","address2":"","latitude":"16.908","longitude":"81.667","accuracy":"3"},{"address3":"Timmarajupalem","state":"Andhra Pradesh","state_code":"02","district":"West Godavari","district_code":"546","address1":"Nidadavolemandalam","address2":"","latitude":"16.9164","longitude":"81.6557","accuracy":"4"},{"address3":"Ramnagar (West Godavari)","state":"Andhra Pradesh","state_code":"02","district":"West Godavari","district_code":"546","address1":"Nidadavole","address2":"","latitude":"16.908","longitude":"81.667","accuracy":"3"},{"address3":"Ravimetla","state":"Andhra Pradesh","state_code":"02","district":"West Godavari","district_code":"546","address1":"Nidadavolemandalam","address2":"","latitude":"16.9026","longitude":"81.6436","accuracy":"4"},{"address3":"Nidadavole","state":"Andhra Pradesh","state_code":"02","district":"West Godavari","district_code":"546","address1":"Nidadavole","address2":"","latitude":"16.9057","longitude":"81.6722","accuracy":"4"},{"address3":"Brahmanagudem","state":"Andhra Pradesh","state_code":"02","district":"West Godavari","district_code":"546","address1":"Nidadavolemandalam","address2":"","latitude":"16.9375","longitude":"81.671","accuracy":"4"},{"address3":"Daravaram","state":"Andhra Pradesh","state_code":"02","district":"West Godavari","district_code":"546","address1":"Nidadavolemandalam","address2":"","latitude":"16.9291","longitude":"81.6827","accuracy":"4"},{"address3":"Markondapadu","state":"Andhra Pradesh","state_code":"02","district":"West Godavari","district_code":"546","address1":"Nidadavolemandalam","address2":"","latitude":"16.95","longitude":"81.6924","accuracy":"4"}],"534302":[{"address3":"Purushottapalli","state":"Andhra Pradesh","state_code":"02","district":"West Godavari","district_code":"546","address1":"Nidadavole Mandalam","address2":"","latitude":"16.9231","longitude":"81.709","accuracy":"3"},{"address3":"D.Muppavaram","state":"Andhra Pradesh","state_code":"02","district":"West Godavari","district_code":"546","address1":"Nidadavole Mandalam","address2":"","latitude":"16.9231","longitude":"81.709","accuracy":"3"},{"address3":"Jeedigunta","state":"Andhra Pradesh","state_code":"02","district":"West Godavari","district_code":"546","address1":"Nidadavole Mandalam","address2":"","latitude":"16.9231","longitude":"81.709","accuracy":"3"},{"address3":"Pandalaparru","state":"Andhra Pradesh","state_code":"02","district":"West Godavari","district_code":"546","address1":"Nidadavole Mandalam","address2":"","latitude":"16.896","longitude":"81.7135","accuracy":"4"},{"address3":"Vadapalli","state":"Andhra Pradesh","state_code":"02","district":"West Godavari","district_code":"546","address1":"Kovvuru Mandalam","address2":"","latitude":"16.9231","longitude":"81.709","accuracy":"3"},{"address3":"Atlapadu","state":"Andhra Pradesh","state_code":"02","district":"West Godavari","district_code":"546","address1":"Nidadavole Mandalam","address2":"","latitude":"16.8877","longitude":"81.6772","accuracy":"4"},{"address3":"Thogummi","state":"Andhra Pradesh","state_code":"02","district":"West Godavari","district_code":"546","address1":"Kovvuru Mandalam","address2":"","latitude":"16.9231","longitude":"81.709","accuracy":"3"},{"address3":"Madduru","state":"Andhra Pradesh","state_code":"02","district":"West Godavari","district_code":"546","address1":"Nidadavole Mandalam","address2":"","latitude":"16.9314","longitude":"81.7108","accuracy":"4"},{"address3":"Samisragudem","state":"Andhra Pradesh","state_code":"02","district":"West Godavari","district_code":"546","address1":"Nidadavole","address2":"","latitude":"16.9231","longitude":"81.709","accuracy":"3"},{"address3":"Gopavaram","state":"Andhra Pradesh","state_code":"02","district":"West Godavari","district_code":"546","address1":"Nidadavole Mandalam","address2":"","latitude":"16.9085","longitude":"81.6974","accuracy":"4"},{"address3":"Vemuluru","state":"Andhra Pradesh","state_code":"02","district":"West Godavari","district_code":"546","address1":"Kovvuru Mandalam","address2":"","latitude":"16.9889","longitude":"81.7297","accuracy":"4"},{"address3":"Vijjeswaram","state":"Andhra Pradesh","state_code":"02","district":"West Godavari","district_code":"546","address1":"NA","address2":"","latitude":"16.9264","longitude":"81.7256","accuracy":"4"}],"534305":[{"address3":"Kurukuru","state":"Andhra Pradesh","state_code":"02","district":"West Godavari","district_code":"546","address1":"Devarapalli Mandalam","address2":"","latitude":"16.9544","longitude":"81.5721","accuracy":"3"},{"address3":"Korumamidi","state":"Andhra Pradesh","state_code":"02","district":"West Godavari","district_code":"546","address1":"Nidadavole Mandalam","address2":"","latitude":"16.9445","longitude":"81.5727","accuracy":"4"},{"address3":"Katakoteswaram","state":"Andhra Pradesh","state_code":"02","district":"West Godavari","district_code":"546","address1":"Wgdt","address2":"","latitude":"16.9544","longitude":"81.5721","accuracy":"3"},{"address3":"Tadimalla","state":"Andhra Pradesh","state_code":"02","district":"West Godavari","district_code":"546","address1":"Nidadavole Mandal","address2":"","latitude":"16.9337","longitude":"81.6006","accuracy":"4"},{"address3":"Chikkala","state":"Andhra Pradesh","state_code":"02","district":"West Godavari","district_code":"546","address1":"Chagallu Mandalam","address2":"","latitude":"16.9698","longitude":"81.5922","accuracy":"4"},{"address3":"Tyajampudi","state":"Andhra Pradesh","state_code":"02","district":"West Godavari","district_code":"546","address1":"Devarapalli Mandalam","address2":"","latitude":"16.9697","longitude":"81.5227","accuracy":"4"}],"534311":[{"address3":"Ramannapalem","state":"Andhra Pradesh","state_code":"02","district":"West Godavari","district_code":"546","address1":"Kannapuram","address2":"","latitude":"17.2084","longitude":"81.3837","accuracy":"4"},{"address3":"Kotaramachandrapuram","state":"Andhra Pradesh","state_code":"02","district":"West Godavari","district_code":"546","address1":"Kannapuram","address2":"","latitude":"17.1878","longitude":"81.4163","accuracy":"4"},{"address3":"Koyarajahmundry","state":"Andhra Pradesh","state_code":"02","district":"West Godavari","district_code":"546","address1":"Kannapuram","address2":"","latitude":"17.1971","longitude":"81.4207","accuracy":"3"},{"address3":"Merakagudem","state":"Andhra Pradesh","state_code":"02","district":"West Godavari","district_code":"546","address1":"Kannapuram","address2":"","latitude":"17.2119","longitude":"81.4258","accuracy":"4"},{"address3":"Kannapuram","state":"Andhra Pradesh","state_code":"02","district":"West Godavari","district_code":"546","address1":"Kannapuram","address2":"","latitude":"17.182","longitude":"81.4143","accuracy":"4"},{"address3":"Rajanagaram","state":"Andhra Pradesh","state_code":"02","district":"West Godavari","district_code":"546","address1":"Kannapuram","address2":"","latitude":"17.1956","longitude":"81.4635","accuracy":"4"},{"address3":"Puliramannagudem","state":"Andhra Pradesh","state_code":"02","district":"West Godavari","district_code":"546","address1":"Kannapuram","address2":"","latitude":"17.1971","longitude":"81.4207","accuracy":"3"},{"address3":"Kamaiahkunta","state":"Andhra Pradesh","state_code":"02","district":"West Godavari","district_code":"546","address1":"Kannapuram","address2":"","latitude":"17.1971","longitude":"81.4207","accuracy":"3"},{"address3":"Kopalli","state":"Andhra Pradesh","state_code":"02","district":"West Godavari","district_code":"546","address1":"Kannapuram","address2":"","latitude":"17.1971","longitude":"81.4207","accuracy":"3"},{"address3":"Kandrikagudem","state":"Andhra Pradesh","state_code":"02","district":"West Godavari","district_code":"546","address1":"Kannapuram","address2":"","latitude":"17.1971","longitude":"81.4207","accuracy":"3"}],"534312":[{"address3":"Gavaravaram","state":"Andhra Pradesh","state_code":"02","district":"West Godavari","district_code":"546","address1":"Koyyalagudem","address2":"","latitude":"16.8946","longitude":"81.4023","accuracy":"4"},{"address3":"Saripalli","state":"Andhra Pradesh","state_code":"02","district":"West Godavari","district_code":"546","address1":"Koyyalagudem","address2":"","latitude":"16.8946","longitude":"81.4023","accuracy":"3"},{"address3":"Tirumalapuram","state":"Andhra Pradesh","state_code":"02","district":"West Godavari","district_code":"546","address1":"Koyyalagudem","address2":"","latitude":"17.0963","longitude":"81.3454","accuracy":"4"},{"address3":"Atchuthapuram","state":"Andhra Pradesh","state_code":"02","district":"West Godavari","district_code":"546","address1":"Koyyalagudem","address2":"","latitude":"17.1876","longitude":"81.5507","accuracy":"3"},{"address3":"Ponguturu","state":"Andhra Pradesh","state_code":"02","district":"West Godavari","district_code":"546","address1":"Koyyalagudem","address2":"","latitude":"17.0889","longitude":"81.4272","accuracy":"4"},{"address3":"Jagannadhapuram","state":"Andhra Pradesh","state_code":"02","district":"West Godavari","district_code":"546","address1":"Koyyalagudem","address2":"","latitude":"17.118","longitude":"81.4713","accuracy":"4"},{"address3":"Ramanujapuram","state":"Andhra Pradesh","state_code":"02","district":"West Godavari","district_code":"546","address1":"Koyyalagudem","address2":"","latitude":"17.0365","longitude":"81.3365","accuracy":"4"},{"address3":"Kethavaram","state":"Andhra Pradesh","state_code":"02","district":"West Godavari","district_code":"546","address1":"Koyyalagudem","address2":"","latitude":"17.1876","longitude":"81.5507","accuracy":"3"},{"address3":"Rajavaram","state":"Andhra Pradesh","state_code":"02","district":"West Godavari","district_code":"546","address1":"Koyyalagudem","address2":"","latitude":"17.0582","longitude":"81.3769","accuracy":"4"},{"address3":"Koyyalagudem","state":"Andhra Pradesh","state_code":"02","district":"West Godavari","district_code":"546","address1":"Koyyalagudem","address2":"","latitude":"17.1288","longitude":"81.4281","accuracy":"4"},{"address3":"Bodigudem","state":"Andhra Pradesh","state_code":"02","district":"West Godavari","district_code":"546","address1":"Koyyalagudem","address2":"","latitude":"17.1533","longitude":"81.4424","accuracy":"4"},{"address3":"Karicherlagudem","state":"Andhra Pradesh","state_code":"02","district":"West Godavari","district_code":"546","address1":"Koyyalagudem","address2":"","latitude":"17.1876","longitude":"81.5507","accuracy":"3"},{"address3":"Bayyanagudem","state":"Andhra Pradesh","state_code":"02","district":"West Godavari","district_code":"546","address1":"Koyyalagudem","address2":"","latitude":"17.125","longitude":"81.3628","accuracy":"4"},{"address3":"Yerrampeta","state":"Andhra Pradesh","state_code":"02","district":"West Godavari","district_code":"546","address1":"Koyyalagudem","address2":"","latitude":"17.1876","longitude":"81.5507","accuracy":"3"},{"address3":"Vedanthapuram","state":"Andhra Pradesh","state_code":"02","district":"West Godavari","district_code":"546","address1":"Koyyalagudem","address2":"","latitude":"17.1876","longitude":"81.5507","accuracy":"3"},{"address3":"Seethampeta","state":"Andhra Pradesh","state_code":"02","district":"West Godavari","district_code":"546","address1":"Koyyalagudem","address2":"","latitude":"17.1876","longitude":"81.5507","accuracy":"3"},{"address3":"Dippakayalapadu","state":"Andhra Pradesh","state_code":"02","district":"West Godavari","district_code":"546","address1":"Koyyalagudem","address2":"","latitude":"17.1876","longitude":"81.5507","accuracy":"3"}],"534313":[{"address3":"Duddukuru","state":"Andhra Pradesh","state_code":"02","district":"West Godavari","district_code":"546","address1":"Deverapalli Mandalam","address2":"","latitude":"16.8946","longitude":"81.4023","accuracy":"4"},{"address3":"Bandapuram","state":"Andhra Pradesh","state_code":"02","district":"West Godavari","district_code":"546","address1":"Devarapalli Mandalam","address2":"","latitude":"16.7753","longitude":"81.174","accuracy":"3"},{"address3":"Sangayagudem","state":"Andhra Pradesh","state_code":"02","district":"West Godavari","district_code":"546","address1":"Deverapalli Mandalam","address2":"","latitude":"17.0316","longitude":"81.4966","accuracy":"4"},{"address3":"Lakshmipuram","state":"Andhra Pradesh","state_code":"02","district":"West Godavari","district_code":"546","address1":"Deverapalli Mandalam","address2":"","latitude":"16.7734","longitude":"81.0799","accuracy":"4"},{"address3":"Gowripatnam","state":"Andhra Pradesh","state_code":"02","district":"West Godavari","district_code":"546","address1":"Devarapalli Mandal","address2":"","latitude":"16.7753","longitude":"81.174","accuracy":"3"},{"address3":"Devarapalli (West Godavari)","state":"Andhra Pradesh","state_code":"02","district":"West Godavari","district_code":"546","address1":"Deverapalli","address2":"","latitude":"16.7753","longitude":"81.174","accuracy":"3"},{"address3":"Krishnampalem","state":"Andhra Pradesh","state_code":"02","district":"West Godavari","district_code":"546","address1":"Devarapalli Mandalam","address2":"","latitude":"17.1047","longitude":"81.4031","accuracy":"4"},{"address3":"Ramannapalem","state":"Andhra Pradesh","state_code":"02","district":"West Godavari","district_code":"546","address1":"Devarapalli Mandalam","address2":"","latitude":"17.0067","longitude":"81.3397","accuracy":"4"},{"address3":"Pallantla","state":"Andhra Pradesh","state_code":"02","district":"West Godavari","district_code":"546","address1":"Devarapalli Mandalam","address2":"","latitude":"16.991","longitude":"81.5528","accuracy":"4"},{"address3":"Yarnagudem","state":"Andhra Pradesh","state_code":"02","district":"West Godavari","district_code":"546","address1":"Deverapalli Mandalam","address2":"","latitude":"16.7753","longitude":"81.174","accuracy":"3"}],"534315":[{"address3":"Kutchuluru","state":"Andhra Pradesh","state_code":"02","district":"East Godavari","district_code":"545","address1":"Devipatnam Mandalam","address2":"","latitude":"17.3531","longitude":"81.6559","accuracy":"3"},