{"576101":[{"address3":"Kukkikatte","state":"Karnataka","state_code":"19","district":"Udupi","district_code":"569","address1":"Udupi","address2":"","latitude":"13.3345","longitude":"74.7643","accuracy":"3"},{"address3":"Chitpadi","state":"Karnataka","state_code":"19","district":"Udupi","district_code":"569","address1":"Udupi","address2":"","latitude":"13.3345","longitude":"74.7643","accuracy":"4"},{"address3":"Mission Compound","state":"Karnataka","state_code":"19","district":"Udupi","district_code":"569","address1":"Udupi","address2":"","latitude":"13.3345","longitude":"74.7643","accuracy":"3"},{"address3":"Adi-udupi","state":"Karnataka","state_code":"19","district":"Udupi","district_code":"569","address1":"Udupi","address2":"","latitude":"13.3345","longitude":"74.7643","accuracy":"3"},{"address3":"Udupi Courts","state":"Karnataka","state_code":"19","district":"Udupi","district_code":"569","address1":"Udupi","address2":"","latitude":"13.3345","longitude":"74.7643","accuracy":"3"},{"address3":"Udupi H.O","state":"Karnataka","state_code":"19","district":"Udupi","district_code":"569","address1":"Udupi","address2":"","latitude":"13.3345","longitude":"74.7643","accuracy":"3"},{"address3":"Bannanje","state":"Karnataka","state_code":"19","district":"Udupi","district_code":"569","address1":"Udupi","address2":"","latitude":"13.3345","longitude":"74.7643","accuracy":"3"}],"576102":[{"address3":"Shivalli","state":"Karnataka","state_code":"19","district":"Udupi","district_code":"569","address1":"Udupi","address2":"","latitude":"13.4667","longitude":"74.8835","accuracy":"4"},{"address3":"Manchikodi","state":"Karnataka","state_code":"19","district":"Udupi","district_code":"569","address1":"Udupi","address2":"","latitude":"13.6106","longitude":"75.1085","accuracy":"3"},{"address3":"Kunjibettu","state":"Karnataka","state_code":"19","district":"Udupi","district_code":"569","address1":"Udupi","address2":"","latitude":"13.6106","longitude":"75.1085","accuracy":"3"},{"address3":"Doddanagudde","state":"Karnataka","state_code":"19","district":"Udupi","district_code":"569","address1":"Udupi","address2":"","latitude":"13.6106","longitude":"75.1085","accuracy":"3"}],"576103":[{"address3":"Kadekar","state":"Karnataka","state_code":"19","district":"Udupi","district_code":"569","address1":"Udupi","address2":"","latitude":"13.325","longitude":"74.7266","accuracy":"4"},{"address3":"Nittur","state":"Karnataka","state_code":"19","district":"Udupi","district_code":"569","address1":"Udupi","address2":"","latitude":"13.4667","longitude":"74.8835","accuracy":"4"},{"address3":"Ambalapadi","state":"Karnataka","state_code":"19","district":"Udupi","district_code":"569","address1":"Udupi","address2":"","latitude":"13.5254","longitude":"74.7839","accuracy":"3"},{"address3":"Kidiyur","state":"Karnataka","state_code":"19","district":"Udupi","district_code":"569","address1":"Udupi","address2":"","latitude":"13.3328","longitude":"74.7233","accuracy":"4"}],"576104":[{"address3":"Manipal Industrial Area","state":"Karnataka","state_code":"19","district":"Udupi","district_code":"569","address1":"Udupi","address2":"","latitude":"13.3928","longitude":"74.805","accuracy":"1"},{"address3":"Dist. Offices Complex Manipal","state":"Karnataka","state_code":"19","district":"Udupi","district_code":"569","address1":"Udupi","address2":"","latitude":"13.3928","longitude":"74.805","accuracy":"1"},{"address3":"Manipal H.O","state":"Karnataka","state_code":"19","district":"Udupi","district_code":"569","address1":"Udupi","address2":"","latitude":"13.3928","longitude":"74.805","accuracy":"1"}],"576105":[{"address3":"Puttur","state":"Karnataka","state_code":"19","district":"Udupi","district_code":"569","address1":"Udupi","address2":"","latitude":"13.3706","longitude":"74.7362","accuracy":"4"},{"address3":"Kolalagiri","state":"Karnataka","state_code":"19","district":"Udupi","district_code":"569","address1":"Udupi","address2":"","latitude":"13.3835","longitude":"74.7434","accuracy":"3"},{"address3":"Kelarkalabettu","state":"Karnataka","state_code":"19","district":"Udupi","district_code":"569","address1":"Udupi","address2":"","latitude":"13.3854","longitude":"74.7283","accuracy":"4"},{"address3":"Uppur","state":"Karnataka","state_code":"19","district":"Udupi","district_code":"569","address1":"Udupi","address2":"","latitude":"13.3945","longitude":"74.7657","accuracy":"4"},{"address3":"Tenkabettu","state":"Karnataka","state_code":"19","district":"Udupi","district_code":"569","address1":"Udupi","address2":"","latitude":"13.3835","longitude":"74.7434","accuracy":"3"},{"address3":"Santhekatte","state":"Karnataka","state_code":"19","district":"Udupi","district_code":"569","address1":"Udupi","address2":"","latitude":"13.3835","longitude":"74.7434","accuracy":"3"}],"576106":[{"address3":"Tenkanidiyur","state":"Karnataka","state_code":"19","district":"Udupi","district_code":"569","address1":"Udupi","address2":"","latitude":"13.3691","longitude":"74.7097","accuracy":"4"},{"address3":"Krodashrama","state":"Karnataka","state_code":"19","district":"Udupi","district_code":"569","address1":"Udupi","address2":"","latitude":"13.3691","longitude":"74.7097","accuracy":"3"}],"576107":[{"address3":"Herga","state":"Karnataka","state_code":"19","district":"Udupi","district_code":"569","address1":"Udupi","address2":"","latitude":"13.3631","longitude":"74.8071","accuracy":"4"},{"address3":"Hirebettu","state":"Karnataka","state_code":"19","district":"Udupi","district_code":"569","address1":"Udupi","address2":"","latitude":"13.3214","longitude":"74.8204","accuracy":"4"},{"address3":"Patla","state":"Karnataka","state_code":"19","district":"Udupi","district_code":"569","address1":"Udupi","address2":"","latitude":"13.0912","longitude":"74.9742","accuracy":"4"},{"address3":"Parkala","state":"Karnataka","state_code":"19","district":"Udupi","district_code":"569","address1":"Udupi","address2":"","latitude":"13.2773","longitude":"74.8504","accuracy":"3"},{"address3":"Badagabettu","state":"Karnataka","state_code":"19","district":"Udupi","district_code":"569","address1":"Udupi","address2":"","latitude":"13.3335","longitude":"74.7999","accuracy":"4"},{"address3":"Athradi","state":"Karnataka","state_code":"19","district":"Udupi","district_code":"569","address1":"Udupi","address2":"","latitude":"13.2773","longitude":"74.8504","accuracy":"3"},{"address3":"Bhairanje","state":"Karnataka","state_code":"19","district":"Udupi","district_code":"569","address1":"Udupi","address2":"","latitude":"13.2773","longitude":"74.8504","accuracy":"3"}],"576108":[{"address3":"Thottam","state":"Karnataka","state_code":"19","district":"Udupi","district_code":"569","address1":"Udupi","address2":"","latitude":"13.3496","longitude":"74.7039","accuracy":"3"},{"address3":"Malpe","state":"Karnataka","state_code":"19","district":"Udupi","district_code":"569","address1":"Udupi","address2":"","latitude":"13.3496","longitude":"74.7039","accuracy":"4"},{"address3":"Kudrukere","state":"Karnataka","state_code":"19","district":"Udupi","district_code":"569","address1":"Udupi","address2":"","latitude":"13.3496","longitude":"74.7039","accuracy":"3"}],"576111":[{"address3":"Nandalike","state":"Karnataka","state_code":"19","district":"Udupi","district_code":"569","address1":"Karkala","address2":"","latitude":"13.1922","longitude":"74.8911","accuracy":"4"},{"address3":"Belmannu","state":"Karnataka","state_code":"19","district":"Udupi","district_code":"569","address1":"Karkala","address2":"","latitude":"13.166","longitude":"74.8692","accuracy":"4"}],"576112":[{"address3":"Someshwara","state":"Karnataka","state_code":"19","district":"Udupi","district_code":"569","address1":"Karkala","address2":"","latitude":"13.4318","longitude":"74.9965","accuracy":"3"},{"address3":"Shivapura","state":"Karnataka","state_code":"19","district":"Udupi","district_code":"569","address1":"Karkala","address2":"","latitude":"13.4095","longitude":"74.9661","accuracy":"4"},{"address3":"Chara","state":"Karnataka","state_code":"19","district":"Udupi","district_code":"569","address1":"Karkala","address2":"","latitude":"13.4696","longitude":"74.9574","accuracy":"4"},{"address3":"Sitanadi","state":"Karnataka","state_code":"19","district":"Udupi","district_code":"569","address1":"Karkal","address2":"","latitude":"13.4318","longitude":"74.9965","accuracy":"3"},{"address3":"Mudradi","state":"Karnataka","state_code":"19","district":"Udupi","district_code":"569","address1":"Karkala","address2":"","latitude":"13.4162","longitude":"75.017","accuracy":"4"},{"address3":"Hebri","state":"Karnataka","state_code":"19","district":"Udupi","district_code":"569","address1":"Karkala","address2":"","latitude":"13.4596","longitude":"74.99","accuracy":"4"},{"address3":"Kuchur","state":"Karnataka","state_code":"19","district":"Udupi","district_code":"569","address1":"Karkala","address2":"","latitude":"13.4318","longitude":"74.9965","accuracy":"3"},{"address3":"Kabbinale","state":"Karnataka","state_code":"19","district":"Udupi","district_code":"569","address1":"Karkala","address2":"","latitude":"13.4042","longitude":"75.0518","accuracy":"4"},{"address3":"Belanje","state":"Karnataka","state_code":"19","district":"Udupi","district_code":"569","address1":"Karkala","address2":"","latitude":"13.4318","longitude":"74.9965","accuracy":"3"}],"576113":[{"address3":"Kudi","state":"Karnataka","state_code":"19","district":"Udupi","district_code":"569","address1":"Udupi","address2":"","latitude":"13.4667","longitude":"74.8835","accuracy":"3"},{"address3":"Hiriadka","state":"Karnataka","state_code":"19","district":"Udupi","district_code":"569","address1":"Udupi","address2":"","latitude":"13.3501","longitude":"74.8691","accuracy":"4"},{"address3":"Pernankila","state":"Karnataka","state_code":"19","district":"Udupi","district_code":"569","address1":"Udupi","address2":"","latitude":"13.2884","longitude":"74.856","accuracy":"4"},{"address3":"Guddeangadi","state":"Karnataka","state_code":"19","district":"Udupi","district_code":"569","address1":"Udupi","address2":"","latitude":"13.3317","longitude":"74.8722","accuracy":"3"},{"address3":"Bellarpadi","state":"Karnataka","state_code":"19","district":"Udupi","district_code":"569","address1":"Udupi","address2":"","latitude":"13.3567","longitude":"74.8914","accuracy":"4"},{"address3":"Panchanbettu","state":"Karnataka","state_code":"19","district":"Udupi","district_code":"569","address1":"Udupi","address2":"","latitude":"13.3317","longitude":"74.8722","accuracy":"3"}],"576114":[{"address3":"Kallianapura","state":"Karnataka","state_code":"19","district":"Udupi","district_code":"569","address1":"Udupi","address2":"","latitude":"13.3109","longitude":"74.9636","accuracy":"1"}],"576115":[{"address3":"Badanidiyur","state":"Karnataka","state_code":"19","district":"Udupi","district_code":"569","address1":"Udupi","address2":"","latitude":"13.3838","longitude":"74.7052","accuracy":"4"},{"address3":"Kemmannu","state":"Karnataka","state_code":"19","district":"Udupi","district_code":"569","address1":"Udupi","address2":"","latitude":"13.3838","longitude":"74.7052","accuracy":"3"},{"address3":"Hoode","state":"Karnataka","state_code":"19","district":"Udupi","district_code":"569","address1":"Udupi","address2":"","latitude":"13.3838","longitude":"74.7052","accuracy":"3"}],"576117":[{"address3":"Kukkundur West","state":"Karnataka","state_code":"19","district":"Udupi","district_code":"569","address1":"Karkal","address2":"","latitude":"13.2157","longitude":"75.0708","accuracy":"3"},{"address3":"Durga","state":"Karnataka","state_code":"19","district":"Udupi","district_code":"569","address1":"Karkala","address2":"","latitude":"13.4667","longitude":"74.8835","accuracy":"4"},{"address3":"Nakre","state":"Karnataka","state_code":"19","district":"Udupi","district_code":"569","address1":"Karkal","address2":"","latitude":"13.2533","longitude":"75.0044","accuracy":"4"},{"address3":"Tellar","state":"Karnataka","state_code":"19","district":"Udupi","district_code":"569","address1":"Karkal","address2":"","latitude":"13.2157","longitude":"75.0708","accuracy":"3"},{"address3":"Attur","state":"Karnataka","state_code":"19","district":"Udupi","district_code":"569","address1":"Karkal","address2":"","latitude":"13.4667","longitude":"74.8835","accuracy":"4"},{"address3":"Hirgana","state":"Karnataka","state_code":"19","district":"Udupi","district_code":"569","address1":"Karkala","address2":"","latitude":"13.2764","longitude":"74.9776","accuracy":"4"},{"address3":"Kukkundur","state":"Karnataka","state_code":"19","district":"Udupi","district_code":"569","address1":"Karkala","address2":"","latitude":"13.2404","longitude":"74.9541","accuracy":"4"}],"576120":[{"address3":"Moodubelle","state":"Karnataka","state_code":"19","district":"Udupi","district_code":"569","address1":"Udupi","address2":"","latitude":"13.2878","longitude":"74.8155","accuracy":"3"},{"address3":"Marne","state":"Karnataka","state_code":"19","district":"Udupi","district_code":"569","address1":"Udupi","address2":"","latitude":"13.3019","longitude":"74.8216","accuracy":"4"},{"address3":"Manipura","state":"Karnataka","state_code":"19","district":"Udupi","district_code":"569","address1":"Udupi","address2":"","latitude":"13.2962","longitude":"74.7926","accuracy":"4"},{"address3":"Kattingere","state":"Karnataka","state_code":"19","district":"Udupi","district_code":"569","address1":"Udupi","address2":"","latitude":"13.2651","longitude":"74.8322","accuracy":"4"}],"576121":[{"address3":"Mundkur","state":"Karnataka","state_code":"19","district":"Udupi","district_code":"569","address1":"Karkala","address2":"","latitude":"13.1396","longitude":"74.842","accuracy":"3"},{"address3":"Bolakodi","state":"Karnataka","state_code":"19","district":"Udupi","district_code":"569","address1":"Karkala","address2":"","latitude":"13.1396","longitude":"74.842","accuracy":"3"},{"address3":"Inna","state":"Karnataka","state_code":"19","district":"Udupi","district_code":"569","address1":"Karkala","address2":"","latitude":"13.1396","longitude":"74.842","accuracy":"4"},{"address3":"Sacherigudde","state":"Karnataka","state_code":"19","district":"Udupi","district_code":"569","address1":"Karkala","address2":"","latitude":"13.1396","longitude":"74.842","accuracy":"3"}],"576122":[{"address3":"Innanje","state":"Karnataka","state_code":"19","district":"Udupi","district_code":"569","address1":"Udupi","address2":"","latitude":"13.2489","longitude":"74.7639","accuracy":"4"},{"address3":"Pangala","state":"Karnataka","state_code":"19","district":"Udupi","district_code":"569","address1":"Udupi","address2":"","latitude":"13.25","longitude":"74.75","accuracy":"4"}],"576124":[{"address3":"Arekandige","state":"Karnataka","state_code":"19","district":"Udupi","district_code":"569","address1":"Udupi","address2":"","latitude":"13.389","longitude":"74.8448","accuracy":"3"},{"address3":"Perdur","state":"Karnataka","state_code":"19","district":"Udupi","district_code":"569","address1":"Udupi","address2":"","latitude":"13.3977","longitude":"74.9106","accuracy":"4"},{"address3":"Kukkehalli","state":"Karnataka","state_code":"19","district":"Udupi","district_code":"569","address1":"Udupi","address2":"","latitude":"13.389","longitude":"74.8448","accuracy":"3"},{"address3":"Havanje","state":"Karnataka","state_code":"19","district":"Udupi","district_code":"569","address1":"Udupi","address2":"","latitude":"13.3918","longitude":"74.7994","accuracy":"4"},{"address3":"Shiroor","state":"Karnataka","state_code":"19","district":"Udupi","district_code":"569","address1":"Udupi","address2":"","latitude":"13.389","longitude":"74.8448","accuracy":"3"},{"address3":"Bellampalli","state":"Karnataka","state_code":"19","district":"Udupi","district_code":"569","address1":"Udupi","address2":"","latitude":"13.3776","longitude":"74.8244","accuracy":"4"}],"576201":[{"address3":"Gandhi-maidan","state":"Karnataka","state_code":"19","district":"Udupi","district_code":"569","address1":"Kundapura","address2":"","latitude":"13.6614","longitude":"74.7853","accuracy":"1"},{"address3":"Kundapura Market","state":"Karnataka","state_code":"19","district":"Udupi","district_code":"569","address1":"Kundapura","address2":"","latitude":"13.6614","longitude":"74.7853","accuracy":"1"},{"address3":"Kundapura H.O","state":"Karnataka","state_code":"19","district":"Udupi","district_code":"569","address1":"Udupi","address2":"","latitude":"13.6614","longitude":"74.7853","accuracy":"1"}],"576210":[{"address3":"Barkur","state":"Karnataka","state_code":"19","district":"Udupi","district_code":"569","address1":"Udupi","address2":"","latitude":"13.4656","longitude":"74.7464","accuracy":"4"},{"address3":"Hanehalli","state":"Karnataka","state_code":"19","district":"Udupi","district_code":"569","address1":"Udupi","address2":"","latitude":"13.4646","longitude":"74.776","accuracy":"4"},{"address3":"Bennekudru","state":"Karnataka","state_code":"19","district":"Udupi","district_code":"569","address1":"Udupi","address2":"","latitude":"13.4775","longitude":"74.7545","accuracy":"3"},{"address3":"Hosala","state":"Karnataka","state_code":"19","district":"Udupi","district_code":"569","address1":"Udupi","address2":"","latitude":"13.4772","longitude":"74.748","accuracy":"4"},{"address3":"Barkur Town","state":"Karnataka","state_code":"19","district":"Udupi","district_code":"569","address1":"Udupi","address2":"","latitude":"13.4775","longitude":"74.7545","accuracy":"3"},{"address3":"Kavadi","state":"Karnataka","state_code":"19","district":"Udupi","district_code":"569","address1":"Udupi","address2":"","latitude":"13.5026","longitude":"74.7477","accuracy":"4"},{"address3":"Yedthadi","state":"Karnataka","state_code":"19","district":"Udupi","district_code":"569","address1":"Udupi","address2":"","latitude":"13.4775","longitude":"74.7545","accuracy":"3"},{"address3":"Shiriyara","state":"Karnataka","state_code":"19","district":"Udupi","district_code":"569","address1":"Udupi","address2":"","latitude":"13.4775","longitude":"74.7545","accuracy":"3"},{"address3":"Saibarkatte","state":"Karnataka","state_code":"19","district":"Udupi","district_code":"569","address1":"Udupi","address2":"","latitude":"13.4775","longitude":"74.7545","accuracy":"3"},{"address3":"Heskethur","state":"Karnataka","state_code":"19","district":"Udupi","district_code":"569","address1":"Kundapura","address2":"","latitude":"13.4775","longitude":"74.7545","accuracy":"3"},{"address3":"Halladi-harkadi","state":"Karnataka","state_code":"19","district":"Udupi","district_code":"569","address1":"Kundapura","address2":"","latitude":"13.4775","longitude":"74.7545","accuracy":"3"}],"576211":[{"address3":"Balkur","state":"Karnataka","state_code":"19","district":"Udupi","district_code":"569","address1":"Kundapura","address2":"","latitude":"13.6359","longitude":"74.7695","accuracy":"3"},{"address3":"Anagalli","state":"Karnataka","state_code":"19","district":"Udupi","district_code":"569","address1":"Kundapura","address2":"","latitude":"13.6342","longitude":"74.7161","accuracy":"4"},{"address3":"Basrur","state":"Karnataka","state_code":"19","district":"Udupi","district_code":"569","address1":"Kundapura","address2":"","latitude":"13.6308","longitude":"74.7377","accuracy":"4"},{"address3":"Halnadu","state":"Karnataka","state_code":"19","district":"Udupi","district_code":"569","address1":"Kundapura","address2":"","latitude":"13.6359","longitude":"74.7695","accuracy":"3"},{"address3":"Ampar","state":"Karnataka","state_code":"19","district":"Udupi","district_code":"569","address1":"Kundapura","address2":"","latitude":"13.6415","longitude":"74.861","accuracy":"4"},{"address3":"Japthi","state":"Karnataka","state_code":"19","district":"Udupi","district_code":"569","address1":"Kundapura","address2":"","latitude":"13.6359","longitude":"74.7695","accuracy":"3"},{"address3":"Kandlur","state":"Karnataka","state_code":"19","district":"Udupi","district_code":"569","address1":"Kundapura","address2":"","latitude":"13.6372","longitude":"74.7633","accuracy":"4"},{"address3":"Kavradi","state":"Karnataka","state_code":"19","district":"Udupi","district_code":"569","address1":"Kundapura","address2":"","latitude":"13.6359","longitude":"74.7695","accuracy":"3"}],"576212":[{"address3":"Gummahola","state":"Karnataka","state_code":"19","district":"Udupi","district_code":"569","address1":"Kundapura","address2":"","latitude":"13.5055","longitude":"75.0199","accuracy":"3"},{"address3":"Madamakki","state":"Karnataka","state_code":"19","district":"Udupi","district_code":"569","address1":"Kundapura","address2":"","latitude":"13.5055","longitude":"75.0199","accuracy":"4"},{"address3":"Belve","state":"Karnataka","state_code":"19","district":"Udupi","district_code":"569","address1":"Kundapura","address2":"","latitude":"13.5055","longitude":"75.0199","accuracy":"3"},{"address3":"Hiliyana","state":"Karnataka","state_code":"19","district":"Udupi","district_code":"569","address1":"Udupi","address2":"","latitude":"13.5055","longitude":"75.0199","accuracy":"3"},{"address3":"Shedimane","state":"Karnataka","state_code":"19","district":"Udupi","district_code":"569","address1":"Kundapura","address2":"","latitude":"13.5055","longitude":"75.0199","accuracy":"3"},{"address3":"Hengavalli","state":"Karnataka","state_code":"19","district":"Udupi","district_code":"569","address1":"Kundapura","address2":"","latitude":"13.5055","longitude":"75.0199","accuracy":"3"},{"address3":"Ardi","state":"Karnataka","state_code":"19","district":"Udupi","district_code":"569","address1":"Kundapura","address2":"","latitude":"13.5055","longitude":"75.0199","accuracy":"3"}],"576213":[{"address3":"Aroor","state":"Karnataka","state_code":"19","district":"Udupi","district_code":"569","address1":"Udupi","address2":"","latitude":"13.4257","longitude":"74.7399","accuracy":"3"},{"address3":"Baikadi","state":"Karnataka","state_code":"19","district":"Udupi","district_code":"569","address1":"Udupi","address2":"","latitude":"13.4148","longitude":"74.7307","accuracy":"4"},{"address3":"Haradi","state":"Karnataka","state_code":"19","district":"Udupi","district_code":"569","address1":"Udupi","address2":"","latitude":"13.4206","longitude":"74.7147","accuracy":"4"},{"address3":"Salikeri","state":"Karnataka","state_code":"19","district":"Udupi","district_code":"569","address1":"Udupi","address2":"","latitude":"13.4257","longitude":"74.7399","accuracy":"3"},{"address3":"Kunjal","state":"Karnataka","state_code":"19","district":"Udupi","district_code":"569","address1":"Udupi","address2":"","latitude":"13.4293","longitude":"74.7829","accuracy":"4"},{"address3":"Chanthar","state":"Karnataka","state_code":"19","district":"Udupi","district_code":"569","address1":"Udupi","address2":"","latitude":"13.4257","longitude":"74.7399","accuracy":"3"},{"address3":"Kumragodu","state":"Karnataka","state_code":"19","district":"Udupi","district_code":"569","address1":"Udupi","address2":"","latitude":"13.4446","longitude":"74.7266","accuracy":"4"},{"address3":"Brahmavara","state":"Karnataka","state_code":"19","district":"Udupi","district_code":"569","address1":"Udupi","address2":"","latitude":"13.4257","longitude":"74.7399","accuracy":"3"},{"address3":"Herur","state":"Karnataka","state_code":"19","district":"Udupi","district_code":"569","address1":"Udupi","address2":"","latitude":"13.4191","longitude":"74.7446","accuracy":"4"},{"address3":"Neelavara","state":"Karnataka","state_code":"19","district":"Udupi","district_code":"569","address1":"Udupi","address2":"","latitude":"13.4257","longitude":"74.7399","accuracy":"3"},{"address3":"Matapadi","state":"Karnataka","state_code":"19","district":"Udupi","district_code":"569","address1":"Udupi","address2":"","latitude":"13.4257","longitude":"74.7399","accuracy":"3"}],"576214":[{"address3":"Paduvari","state":"Karnataka","state_code":"19","district":"Udupi","district_code":"569","address1":"Kundapura","address2":"","latitude":"13.8899","longitude":"74.6266","accuracy":"4"},{"address3":"Taggarshe","state":"Karnataka","state_code":"19","district":"Udupi","district_code":"569","address1":"Kundapura","address2":"","latitude":"13.8519","longitude":"74.67","accuracy":"3"},{"address3":"Yelajith","state":"Karnataka","state_code":"19","district":"Udupi","district_code":"569","address1":"Kundapura","address2":"","latitude":"13.8519","longitude":"74.67","accuracy":"3"},{"address3":"Golihole","state":"Karnataka","state_code":"19","district":"Udupi","district_code":"569","address1":"Kundapura","address2":"","latitude":"13.7992","longitude":"74.7502","accuracy":"4"},{"address3":"Mayyadi","state":"Karnataka","state_code":"19","district":"Udupi","district_code":"569","address1":"Kundapura","address2":"","latitude":"13.8519","longitude":"74.67","accuracy":"3"},{"address3":"Byndoor","state":"Karnataka","state_code":"19","district":"Udupi","district_code":"569","address1":"Kundapura","address2":"","latitude":"13.8667","longitude":"74.6333","accuracy":"4"},{"address3":"Yedthare","state":"Karnataka","state_code":"19","district":"Udupi","district_code":"569","address1":"Kundapura","address2":"","latitude":"13.8519","longitude":"74.67","accuracy":"3"}],"576215":[{"address3":"Karje","state":"Karnataka","state_code":"19","district":"Udupi","district_code":"569","address1":"Udupi","address2":"","latitude":"13.4263","longitude":"74.8764","accuracy":"4"},{"address3":"Haluvalli","state":"Karnataka","state_code":"19","district":"Udupi","district_code":"569","address1":"Udupi","address2":"","latitude":"13.415","longitude":"74.8604","accuracy":"4"},{"address3":"Cherkadi","state":"Karnataka","state_code":"19","district":"Udupi","district_code":"569","address1":"Udupi","address2":"","latitude":"13.4238","longitude":"74.8237","accuracy":"4"},{"address3":"Santhekatte-kalathur","state":"Karnataka","state_code":"19","district":"Udupi","district_code":"569","address1":"Udupi","address2":"","latitude":"13.4217","longitude":"74.8535","accuracy":"3"}],"576216":[{"address3":"Ganguli","state":"Karnataka","state_code":"19","district":"Udupi","district_code":"569","address1":"Kundapura","address2":"","latitude":"13.6502","longitude":"74.6707","accuracy":"4"}],"576217":[{"address3":"Mudlakatte","state":"Karnataka","state_code":"19","district":"Udupi","district_code":"569","address1":"Kundapura","address2":"","latitude":"13.606","longitude":"74.6967","accuracy":"3"},{"address3":"Kodi","state":"Karnataka","state_code":"19","district":"Udupi","district_code":"569","address1":"Kundapura","address2":"","latitude":"13.6116","longitude":"74.6722","accuracy":"4"},{"address3":"Hanglur","state":"Karnataka","state_code":"19","district":"Udupi","district_code":"569","address1":"Kundpaura","address2":"","latitude":"13.606","longitude":"74.6967","accuracy":"3"},{"address3":"Koni","state":"Karnataka","state_code":"19","district":"Udupi","district_code":"569","address1":"Kundapura","address2":"","latitude":"13.6003","longitude":"74.7213","accuracy":"4"}],"576218":[{"address3":"Kodibengre","state":"Karnataka","state_code":"19","district":"Udupi","district_code":"569","address1":"Udupi","address2":"","latitude":"13.5655","longitude":"74.7534","accuracy":"1"},{"address3":"Hungarcutta","state":"Karnataka","state_code":"19","district":"Udupi","district_code":"569","address1":"Udupi","address2":"","latitude":"13.5655","longitude":"74.7534","accuracy":"1"}],"576219":[{"address3":"Kirimanjeshwara","state":"Karnataka","state_code":"19","district":"Udupi","district_code":"569","address1":"Kundapura","address2":"","latitude":"13.8015","longitude":"74.6304","accuracy":"3"},{"address3":"Kergal","state":"Karnataka","state_code":"19","district":"Udupi","district_code":"569","address1":"Kundapura","address2":"","latitude":"13.8015","longitude":"74.6304","accuracy":"3"},{"address3":"Koderi","state":"Karnataka","state_code":"19","district":"Udupi","district_code":"569","address1":"Kundapura","address2":"","latitude":"13.8015","longitude":"74.6304","accuracy":"4"},{"address3":"Moodumata","state":"Karnataka","state_code":"19","district":"Udupi","district_code":"569","address1":"Kundapura","address2":"","latitude":"13.8015","longitude":"74.6304","accuracy":"3"},{"address3":"Khambadakone","state":"Karnataka","state_code":"19","district":"Udupi","district_code":"569","address1":"Kundapura","address2":"","latitude":"13.8015","longitude":"74.6304","accuracy":"3"},{"address3":"Kalthod","state":"Karnataka","state_code":"19","district":"Udupi","district_code":"569","address1":"Kundapura","address2":"","latitude":"13.8015","longitude":"74.6304","accuracy":"3"},{"address3":"Heranjal","state":"Karnataka","state_code":"19","district":"Udupi","district_code":"569","address1":"Kundapura","address2":"","latitude":"13.8015","longitude":"74.6304","accuracy":"3"}],"576220":[{"address3":"Kollur","state":"Karnataka","state_code":"19","district":"Udupi","district_code":"569","address1":"Kundapura","address2":"","latitude":"13.8672","longitude":"74.8127","accuracy":"4"}],"576221":[{"address3":"Belur Devasthanabettu","state":"Karnataka","state_code":"19","district":"Udupi","district_code":"569","address1":"Kundapura","address2":"","latitude":"13.5335","longitude":"74.7013","accuracy":"3"},{"address3":"Kota","state":"Karnataka","state_code":"19","district":"Udupi","district_code":"569","address1":"Udupi","address2":"","latitude":"13.5335","longitude":"74.7013","accuracy":"3"},{"address3":"Kotathattu","state":"Karnataka","state_code":"19","district":"Udupi","district_code":"569","address1":"Udupi","address2":"","latitude":"13.5335","longitude":"74.7013","accuracy":"3"},{"address3":"Manur","state":"Karnataka","state_code":"19","district":"Udupi","district_code":"569","address1":"Udupi","address2":"","latitude":"13.5335","longitude":"74.7013","accuracy":"4"}],"576222":[{"address3":"Molahalli","state":"Karnataka","state_code":"19","district":"Udupi","district_code":"569","address1":"Kundapura","address2":"","latitude":"13.4586","longitude":"75.001","accuracy":"3"},{"address3":"Souda","state":"Karnataka","state_code":"19","district":"Udupi","district_code":"569","address1":"Kundapura","address2":"","latitude":"13.5941","longitude":"74.8431","accuracy":"4"},{"address3":"Salvadi","state":"Karnataka","state_code":"19","district":"Udupi","district_code":"569","address1":"Kundapura","address2":"","latitude":"13.4586","longitude":"75.001","accuracy":"3"},{"address3":"Beejadi","state":"Karnataka","state_code":"19","district":"Udupi","district_code":"569","address1":"Kundapura","address2":"","latitude":"13.4586","longitude":"75.001","accuracy":"3"},{"address3":"Hunsemakki","state":"Karnataka","state_code":"19","district":"Udupi","district_code":"569","address1":"Kundapura","address2":"","latitude":"13.4667","longitude":"74.8835","accuracy":"4"},{"address3":"Haladi-28","state":"Karnataka","state_code":"19","district":"Udupi","district_code":"569","address1":"Kundapura","address2":"","latitude":"13.4586","longitude":"75.001","accuracy":"3"},{"address3":"Yadyadi-mathyadi","state":"Karnataka","state_code":"19","district":"Udupi","district_code":"569","address1":"Kundapura","address2":"","latitude":"13.4586","longitude":"75.001","accuracy":"3"},{"address3":"Hardalli-mandalli","state":"Karnataka","state_code":"19","district":"Udupi","district_code":"569","address1":"Kundapura","address2":"","latitude":"13.4586","longitude":"75.001","accuracy":"3"},{"address3":"Kakkunje","state":"Karnataka","state_code":"19","district":"Udupi","district_code":"569","address1":"Udupi","address2":"","latitude":"13.3808","longitude":"74.7563","accuracy":"4"},{"address3":"Haladi-76","state":"Karnataka","state_code":"19","district":"Udupi","district_code":"569","address1":"Kundapura","address2":"","latitude":"13.4586","longitude":"75.001","accuracy":"3"},{"address3":"Koteshwara","state":"Karnataka","state_code":"19","district":"Udupi","district_code":"569","address1":"Kundapura","address2":"","latitude":"13.4586","longitude":"75.001","accuracy":"3"},{"address3":"Asodu","state":"Karnataka","state_code":"19","district":"Udupi","district_code":"569","address1":"Kundapura","address2":"","latitude":"13.5766","longitude":"74.738","accuracy":"4"}],"576223":[{"address3":"Muddumane","state":"Karnataka","state_code":"19","district":"Udupi","district_code":"569","address1":"Udupi","address2":"","latitude":"13.4791","longitude":"74.7945","accuracy":"3"},{"address3":"Vandar","state":"Karnataka","state_code":"19","district":"Udupi","district_code":"569","address1":"Udupi","address2":"","latitude":"13.4791","longitude":"74.7945","accuracy":"3"},{"address3":"Janvarkatte","state":"Karnataka","state_code":"19","district":"Udupi","district_code":"569","address1":"Udupi","address2":"","latitude":"13.4791","longitude":"74.7945","accuracy":"3"},{"address3":"Nadur","state":"Karnataka","state_code":"19","district":"Udupi","district_code":"569","address1":"Udupi","address2":"","latitude":"13.4791","longitude":"74.7945","accuracy":"4"},{"address3":"Avarse","state":"Karnataka","state_code":"19","district":"Udupi","district_code":"569","address1":"Udupi","address2":"","latitude":"13.4791","longitude":"74.7945","accuracy":"3"},{"address3":"Mandarthi","state":"Karnataka","state_code":"19","district":"Udupi","district_code":"569","address1":"Udupi","address2":"","latitude":"13.4791","longitude":"74.7945","accuracy":"3"}],"576224":[{"address3":"Maravanthe","state":"Karnataka","state_code":"19","district":"Udupi","district_code":"569","address1":"Kundapura","address2":"","latitude":"13.745","longitude":"74.6489","accuracy":"3"},{"address3":"Badakere","state":"Karnataka","state_code":"19","district":"Udupi","district_code":"569","address1":"Kundapura","address2":"","latitude":"13.7412","longitude":"74.6568","accuracy":"4"},{"address3":"Ragihaklu","state":"Karnataka","state_code":"19","district":"Udupi","district_code":"569","address1":"Navunda","address2":"","latitude":"13.745","longitude":"74.6489","accuracy":"3"},{"address3":"Navunda","state":"Karnataka","state_code":"19","district":"Udupi","district_code":"569","address1":"Kundapura","address2":"","latitude":"13.7488","longitude":"74.6409","accuracy":"4"}],"576225":[{"address3":"Parampalli","state":"Karnataka","state_code":"19","district":"Udupi","district_code":"569","address1":"Udupi","address2":"","latitude":"13.3792","longitude":"74.7649","accuracy":"4"},{"address3":"Achladi","state":"Karnataka","state_code":"19","district":"Udupi","district_code":"569","address1":"Udupi","address2":"","latitude":"13.4628","longitude":"74.7382","accuracy":"3"},{"address3":"Saligrama (Udupi)","state":"Karnataka","state_code":"19","district":"Udupi","district_code":"569","address1":"Udupi","address2":"","latitude":"13.4628","longitude":"74.7382","accuracy":"3"},{"address3":"Bannadi","state":"Karnataka","state_code":"19","district":"Udupi","district_code":"569","address1":"Udupi","address2":"","latitude":"13.515","longitude":"74.7267","accuracy":"4"},{"address3":"Karkada","state":"Karnataka","state_code":"19","district":"Udupi","district_code":"569","address1":"Udupi","address2":"","latitude":"13.4943","longitude":"74.7229","accuracy":"4"}],"576226":[{"address3":"Sasthan","state":"Karnataka","state_code":"19","district":"Udupi","district_code":"569","address1":"Udupi","address2":"","latitude":"13.6874","longitude":"74.7822","accuracy":"1"},{"address3":"Kodi Kanyana","state":"Karnataka","state_code":"19","district":"Udupi","district_code":"569","address1":"Udupi","address2":"","latitude":"13.6874","longitude":"74.7822","accuracy":"1"},{"address3":"Airody","state":"Karnataka","state_code":"19","district":"Udupi","district_code":"569","address1":"Udupi","address2":"","latitude":"13.6874","longitude":"74.7822","accuracy":"1"},{"address3":"Yedabettu","state":"Karnataka","state_code":"19","district":"Udupi","district_code":"569","address1":"Udupi","address2":"","latitude":"13.6874","longitude":"74.7822","accuracy":"1"}],"576227":[{"address3":"Rattadi","state":"Karnataka","state_code":"19","district":"Udupi","district_code":"569","address1":"Kundapura","address2":"","latitude":"13.6874","longitude":"74.7822","accuracy":"1"},{"address3":"Amasebail","state":"Karnataka","state_code":"19","district":"Udupi","district_code":"569","address1":"Kundapura","address2":"","latitude":"13.6874","longitude":"74.7822","accuracy":"1"},{"address3":"Shankaranarayana","state":"Karnataka","state_code":"19","district":"Udupi","district_code":"569","address1":"Kundapura","address2":"","latitude":"13.6874","longitude":"74.7822","accuracy":"1"},{"address3":"Machattu","state":"Karnataka","state_code":"19","district":"Udupi","district_code":"569","address1":"Kundapura","address2":"","latitude":"13.6874","longitude":"74.7822","accuracy":"1"},{"address3":"Krodabailur","state":"Karnataka","state_code":"19","district":"Udupi","district_code":"569","address1":"Kundapura","address2":"","latitude":"13.6874","longitude":"74.7822","accuracy":"1"},{"address3":"Kulanje","state":"Karnataka","state_code":"19","district":"Udupi","district_code":"569","address1":"Kundapura","address2":"","latitude":"13.6874","longitude":"74.7822","accuracy":"1"}],"576228":[{"address3":"Shiruru (Udupi)","state":"Karnataka","state_code":"19","district":"Udupi","district_code":"569","address1":"Kundapura","address2":"","latitude":"13.908","longitude":"74.6058","accuracy":"4"}],"576229":[{"address3":"Hallihole","state":"Karnataka","state_code":"19","district":"Udupi","district_code":"569","address1":"Kundapura","address2":"","latitude":"13.7438","longitude":"74.8729","accuracy":"4"},{"address3":"Siddapura (Udupi)","state":"Karnataka","state_code":"19","district":"Udupi","district_code":"569","address1":"Kundapura","address2":"","latitude":"14.0461","longitude":"74.7166","accuracy":"3"},{"address3":"Kamalashile","state":"Karnataka","state_code":"19","district":"Udupi","district_code":"569","address1":"Kundapura","address2":"","latitude":"13.7369","longitude":"74.8992","accuracy":"4"},{"address3":"Jansale","state":"Karnataka","state_code":"19","district":"Udupi","district_code":"569","address1":"Kundapura","address2":"","latitude":"13.4667","longitude":"74.8835","accuracy":"4"},{"address3":"Ullur","state":"Karnataka","state_code":"19","district":"Udupi","district_code":"569","address1":"Kundapura","address2":"","latitude":"13.4667","longitude":"74.8835","accuracy":"4"}],"576230":[{"address3":"Tallur (Udupi)","state":"Karnataka","state_code":"19","district":"Udupi","district_code":"569","address1":"Kundapura","address2":"","latitude":"13.6841","longitude":"74.7062","accuracy":"3"},{"address3":"Kanyana","state":"Karnataka","state_code":"19","district":"Udupi","district_code":"569","address1":"Kundapura","address2":"","latitude":"13.6642","longitude":"74.734","accuracy":"4"},{"address3":"Devalkunda","state":"Karnataka","state_code":"19","district":"Udupi","district_code":"569","address1":"Kundapura","address2":"","latitude":"13.6859","longitude":"74.7369","accuracy":"4"},{"address3":"Herikudru","state":"Karnataka","state_code":"19","district":"Udupi","district_code":"569","address1":"Kundapura","address2":"","latitude":"13.6841","longitude":"74.7062","accuracy":"3"},{"address3":"Nada","state":"Karnataka","state_code":"19","district":"Udupi","district_code":"569","address1":"Kundapura","address2":"","latitude":"13.7327","longitude":"74.6729","accuracy":"4"},{"address3":"Uppinakudru","state":"Karnataka","state_code":"19","district":"Udupi","district_code":"569","address1":"Kundapura","address2":"","latitude":"13.4667","longitude":"74.8835","accuracy":"4"},{"address3":"Kattebelthur","state":"Karnataka","state_code":"19","district":"Udupi","district_code":"569","address1":"Kundapura","address2":"","latitude":"13.6841","longitude":"74.7062","accuracy":"3"},{"address3":"Hemmadi","state":"Karnataka","state_code":"19","district":"Udupi","district_code":"569","address1":"Kundapura","address2":"","latitude":"13.6777","longitude":"74.6978","accuracy":"4"}],"576231":[{"address3":"Tekkatte","state":"Karnataka","state_code":"19","district":"Udupi","district_code":"569","address1":"Kundapura","address2":"","latitude":"13.5514","longitude":"74.7011","accuracy":"4"},{"address3":"Ultoor","state":"Karnataka","state_code":"19","district":"Udupi","district_code":"569","address1":"Kundapura","address2":"","latitude":"13.5514","longitude":"74.7011","accuracy":"3"},{"address3":"Korgi","state":"Karnataka","state_code":"19","district":"Udupi","district_code":"569","address1":"Kundapura","address2":"","latitude":"13.5514","longitude":"74.7011","accuracy":"3"},{"address3":"Kedur","state":"Karnataka","state_code":"19","district":"Udupi","district_code":"569","address1":"Kundapura","address2":"","latitude":"13.5514","longitude":"74.7011","accuracy":"3"}],"576232":[{"address3":"Uppunda","state":"Karnataka","state_code":"19","district":"Udupi","district_code":"569","address1":"Kundapura","address2":"","latitude":"13.837","longitude":"74.6247","accuracy":"4"},{"address3":"Bijur","state":"Karnataka","state_code":"19","district":"Udupi","district_code":"569","address1":"Kundapura","address2":"","latitude":"13.837","longitude":"74.6247","accuracy":"3"},{"address3":"Tarapathi","state":"Karnataka","state_code":"19","district":"Udupi","district_code":"569","address1":"Kundapura","address2":"","latitude":"13.837","longitude":"74.6247","accuracy":"3"}],"576233":[{"address3":"Alur","state":"Karnataka","state_code":"19","district":"Udupi","district_code":"569","address1":"Kundapura","address2":"","latitude":"13.4667","longitude":"74.8835","accuracy":"4"},{"address3":"Mudmunda","state":"Karnataka","state_code":"19","district":"Udupi","district_code":"569","address1":"Kundapura","address2":"","latitude":"13.9726","longitude":"74.8439","accuracy":"3"},{"address3":"Harkur","state":"Karnataka","state_code":"19","district":"Udupi","district_code":"569","address1":"Kundapura","address2":"","latitude":"13.4667","longitude":"74.8835","accuracy":"3"},{"address3":"Jadkal","state":"Karnataka","state_code":"19","district":"Udupi","district_code":"569","address1":"Kundapura","address2":"","latitude":"13.7975","longitude":"74.8036","accuracy":"4"},{"address3":"Chittoor","state":"Karnataka","state_code":"19","district":"Udupi","district_code":"569","address1":"Kundapura","address2":"","latitude":"13.9726","longitude":"74.8439","accuracy":"3"},{"address3":"Nujadi","state":"Karnataka","state_code":"19","district":"Udupi","district_code":"569","address1":"Kundapura","address2":"","latitude":"13.7086","longitude":"74.7281","accuracy":"4"},{"address3":"Idurkunhady","state":"Karnataka","state_code":"19","district":"Udupi","district_code":"569","address1":"Kundapura","address2":"","latitude":"13.9726","longitude":"74.8439","accuracy":"3"},{"address3":"Mudur","state":"Karnataka","state_code":"19","district":"Udupi","district_code":"569","address1":"Kundapura","address2":"","latitude":"13.4667","longitude":"74.8835","accuracy":"4"},{"address3":"Keradi","state":"Karnataka","state_code":"19","district":"Udupi","district_code":"569","address1":"Kundapura","address2":"","latitude":"13.9726","longitude":"74.8439","accuracy":"3"},{"address3":"Vandse","state":"Karnataka","state_code":"19","district":"Udupi","district_code":"569","address1":"Kundapura","address2":"","latitude":"13.7007","longitude":"74.7572","accuracy":"4"},{"address3":"Melhosur","state":"Karnataka","state_code":"19","district":"Udupi","district_code":"569","address1":"Kundapura","address2":"","latitude":"13.9726","longitude":"74.8439","accuracy":"3"}],"576234":[{"address3":"Kadur","state":"Karnataka","state_code":"19","district":"Udupi","district_code":"569","address1":"Udupi","address2":"","latitude":"13.4667","longitude":"74.8835","accuracy":"4"},{"address3":"Baidabettu","state":"Karnataka","state_code":"19","district":"Udupi","district_code":"569","address1":"Udupi","address2":"","latitude":"13.5529","longitude":"76.0116","accuracy":"3"},{"address3":"Kokkarne","state":"Karnataka","state_code":"19","district":"Udupi","district_code":"569","address1":"Udupi","address2":"","latitude":"13.5529","longitude":"76.0116","accuracy":"3"},{"address3":"Nanchar","state":"Karnataka","state_code":"19","district":"Udupi","district_code":"569","address1":"Udupi","address2":"","latitude":"13.5529","longitude":"76.0116","accuracy":"3"},{"address3":"Nalkur","state":"Karnataka","state_code":"19","district":"Udupi","district_code":"569","address1":"Udupi","address2":"","latitude":"13.5529","longitude":"76.0116","accuracy":"3"},{"address3":"Kenjur","state":"Karnataka","state_code":"19","district":"Udupi","district_code":"569","address1":"Udupi","address2":"","latitude":"13.5529","longitude":"76.0116","accuracy":"3"}],"576235":[{"address3":"Hadavu","state":"Karnataka","state_code":"19","district":"Udupi","district_code":"569","address1":"Kundapura","address2":"","latitude":"13.7009","longitude":"74.6488","accuracy":"4"},{"address3":"Hakladi","state":"Karnataka","state_code":"19","district":"Udupi","district_code":"569","address1":"Kundapura","address2":"","latitude":"13.701","longitude":"74.7008","accuracy":"4"},{"address3":"Shenapura","state":"Karnataka","state_code":"19","district":"Udupi","district_code":"569","address1":"Kundapura","address2":"","latitude":"13.7051","longitude":"74.6901","accuracy":"3"},{"address3":"Kundabarandadi","state":"Karnataka","state_code":"19","district":"Udupi","district_code":"569","address1":"Kundapura","address2":"","latitude":"13.7134","longitude":"74.7206","accuracy":"4"},{"address3":"Trasi","state":"Karnataka","state_code":"19","district":"Udupi","district_code":"569","address1":"Kundapura","address2":"","latitude":"13.7051","longitude":"74.6901","accuracy":"3"}],"576247":[{"address3":"Gujjadi","state":"Karnataka","state_code":"19","district":"Udupi","district_code":"569","address1":"Kundapura","address2":"","latitude":"13.6767","longitude":"74.6596","accuracy":"4"},{"address3":"Hosadu","state":"Karnataka","state_code":"19","district":"Udupi","district_code":"569","address1":"Kundapura","address2":"","latitude":"13.6767","longitude":"74.6596","accuracy":"3"}],"576257":[{"address3":"Kumbhashi","state":"Karnataka","state_code":"19","district":"Udupi","district_code":"569","address1":"Kundapura","address2":"","latitude":"13.6614","longitude":"74.7853","accuracy":"1"},{"address3":"Vakwadi","state":"Karnataka","state_code":"19","district":"Udupi","district_code":"569","address1":"Kundapura","address2":"","latitude":"13.6614","longitude":"74.7853","accuracy":"1"}],"576282":[{"address3":"Yedamoge","state":"Karnataka","state_code":"19","district":"Udupi","district_code":"569","address1":"Kundapura","address2":"","latitude":"13.7156","longitude":"74.9695","accuracy":"4"},{"address3":"Hosangadi","state":"Karnataka","state_code":"19","district":"Udupi","district_code":"569","address1":"Kundapura","address2":"","latitude":"13.6976","longitude":"74.9543","accuracy":"4"}],"576283":[{"address3":"Karkunje","state":"Karnataka","state_code":"19","district":"Udupi","district_code":"569","address1":"Kundapura","address2":"","latitude":"13.7066","longitude":"74.9619","accuracy":"1"},{"address3":"Kodladi","state":"Karnataka","state_code":"19","district":"Udupi","district_code":"569","address1":"Kundapura","address2":"","latitude":"13.7066","longitude":"74.9619","accuracy":"1"},{"address3":"Gulvadi","state":"Karnataka","state_code":"19","district":"Udupi","district_code":"569","address1":"Kundapura","address2":"","latitude":"13.4667","longitude":"74.8835","accuracy":"1"},{"address3":"Kenchanur","state":"Karnataka","state_code":"19","district":"Udupi","district_code":"569","address1":"Kundapura","address2":"","latitude":"13.7066","longitude":"74.9619","accuracy":"1"},{"address3":"Hattiangadi","state":"Karnataka","state_code":"19","district":"Udupi","district_code":"569","address1":"Kundapura","address2":"","latitude":"13.7066","longitude":"74.9619","accuracy":"1"},{"address3":"Ajrihara","state":"Karnataka","state_code":"19","district":"Udupi","district_code":"569","address1":"Kundapura","address2":"","latitude":"13.7066","longitude":"74.9619","accuracy":"1"}],"credits":[{"name":"geonames","url":"https://www.geonames.org"}],"last_update":"2019-03-01T09:01:32.776Z"}