{"586101":[{"address3":"Bijapur Market Yard","state":"Karnataka","state_code":"19","district":"Vijayapura","district_code":"557","address1":"Bijapur","address2":"","latitude":"16.6854","longitude":"76.0927","accuracy":"1"},{"address3":"Bijapur Basava Nagar","state":"Karnataka","state_code":"19","district":"Vijayapura","district_code":"557","address1":"Bijapur","address2":"","latitude":"16.6854","longitude":"76.0927","accuracy":"1"},{"address3":"Bijapur H.O","state":"Karnataka","state_code":"19","district":"Vijayapura","district_code":"557","address1":"Bijapur","address2":"","latitude":"16.6854","longitude":"76.0927","accuracy":"1"},{"address3":"Bijapur Tajbavadi","state":"Karnataka","state_code":"19","district":"Vijayapura","district_code":"557","address1":"Bijapur","address2":"","latitude":"16.6854","longitude":"76.0927","accuracy":"1"},{"address3":"Bijapur Bazar","state":"Karnataka","state_code":"19","district":"Vijayapura","district_code":"557","address1":"Bijapur","address2":"","latitude":"16.6854","longitude":"76.0927","accuracy":"1"},{"address3":"Bijapur Jorapur Peth","state":"Karnataka","state_code":"19","district":"Vijayapura","district_code":"557","address1":"Bijapur","address2":"","latitude":"16.6854","longitude":"76.0927","accuracy":"1"},{"address3":"Bijapur Kutchery","state":"Karnataka","state_code":"19","district":"Vijayapura","district_code":"557","address1":"Bijapur","address2":"","latitude":"16.6854","longitude":"76.0927","accuracy":"1"}],"586102":[{"address3":"Yatnal","state":"Karnataka","state_code":"19","district":"Vijayapura","district_code":"557","address1":"Bijapur","address2":"","latitude":"16.7937","longitude":"75.9531","accuracy":"4"},{"address3":"Bijapur Sainik School","state":"Karnataka","state_code":"19","district":"Vijayapura","district_code":"557","address1":"Bijapur","address2":"","latitude":"16.8536","longitude":"76.4828","accuracy":"3"},{"address3":"Ittangihal","state":"Karnataka","state_code":"19","district":"Vijayapura","district_code":"557","address1":"Bijapur","address2":"","latitude":"16.8536","longitude":"76.4828","accuracy":"3"}],"586103":[{"address3":"Siddapur","state":"Karnataka","state_code":"19","district":"Vijayapura","district_code":"557","address1":"Bijapur","address2":"","latitude":"16.2335","longitude":"76.3243","accuracy":"4"},{"address3":"Arakeri","state":"Karnataka","state_code":"19","district":"Vijayapura","district_code":"557","address1":"Bijapur","address2":"","latitude":"16.918","longitude":"75.6947","accuracy":"4"},{"address3":"Lohagaon","state":"Karnataka","state_code":"19","district":"Vijayapura","district_code":"557","address1":"Bijapur","address2":"","latitude":"16.5757","longitude":"76.0095","accuracy":"3"},{"address3":"Bijapur Vijaya College","state":"Karnataka","state_code":"19","district":"Vijayapura","district_code":"557","address1":"Bijapur","address2":"","latitude":"16.5757","longitude":"76.0095","accuracy":"3"},{"address3":"Jalageri","state":"Karnataka","state_code":"19","district":"Vijayapura","district_code":"557","address1":"Bijapur","address2":"","latitude":"16.5757","longitude":"76.0095","accuracy":"3"},{"address3":"Bhutnal","state":"Karnataka","state_code":"19","district":"Vijayapura","district_code":"557","address1":"Bijapur","address2":"","latitude":"16.5757","longitude":"76.0095","accuracy":"3"},{"address3":"Darga (Bijapur)","state":"Karnataka","state_code":"19","district":"Vijayapura","district_code":"557","address1":"Bijapur","address2":"","latitude":"16.5757","longitude":"76.0095","accuracy":"3"}],"586104":[{"address3":"Bijapur Railway Station","state":"Karnataka","state_code":"19","district":"Vijayapura","district_code":"557","address1":"Bijapur","address2":"","latitude":"16.8063","longitude":"76.4769","accuracy":"3"},{"address3":"Ainapur","state":"Karnataka","state_code":"19","district":"Vijayapura","district_code":"557","address1":"Bijapur","address2":"","latitude":"16.7937","longitude":"75.9531","accuracy":"4"},{"address3":"Bijapur Jummamasjid","state":"Karnataka","state_code":"19","district":"Vijayapura","district_code":"557","address1":"Bijapur","address2":"","latitude":"16.8063","longitude":"76.4769","accuracy":"3"},{"address3":"Madhbhavi","state":"Karnataka","state_code":"19","district":"Vijayapura","district_code":"557","address1":"Bijapur","address2":"","latitude":"16.8063","longitude":"76.4769","accuracy":"3"},{"address3":"Honnutagi","state":"Karnataka","state_code":"19","district":"Vijayapura","district_code":"557","address1":"Bijapur","address2":"","latitude":"16.8063","longitude":"76.4769","accuracy":"3"}],"586105":[{"address3":"KSWU Campus Torvi","state":"Karnataka","state_code":"19","district":"Vijayapura","district_code":"557","address1":"Bijapur","address2":"","latitude":"16.6854","longitude":"76.0927","accuracy":"1"}],"586108":[{"address3":"Mulawad","state":"Karnataka","state_code":"19","district":"Vijayapura","district_code":"557","address1":"B.bagewadi","address2":"","latitude":"16.5916","longitude":"75.7337","accuracy":"4"},{"address3":"Honaganhalli","state":"Karnataka","state_code":"19","district":"Vijayapura","district_code":"557","address1":"Bijapur","address2":"","latitude":"16.7937","longitude":"75.9531","accuracy":"3"},{"address3":"Torvi","state":"Karnataka","state_code":"19","district":"Vijayapura","district_code":"557","address1":"Bijapur","address2":"","latitude":"16.5916","longitude":"75.7337","accuracy":"3"},{"address3":"Karjol","state":"Karnataka","state_code":"19","district":"Vijayapura","district_code":"557","address1":"Bijapur","address2":"","latitude":"16.5916","longitude":"75.7337","accuracy":"3"},{"address3":"Bijapur Amc","state":"Karnataka","state_code":"19","district":"Vijayapura","district_code":"557","address1":"Bijapur","address2":"","latitude":"16.5916","longitude":"75.7337","accuracy":"3"},{"address3":"Minchanal Lt","state":"Karnataka","state_code":"19","district":"Vijayapura","district_code":"557","address1":"Bijapur","address2":"","latitude":"16.5916","longitude":"75.7337","accuracy":"3"},{"address3":"Gunki","state":"Karnataka","state_code":"19","district":"Vijayapura","district_code":"557","address1":"Bijapur","address2":"","latitude":"16.5916","longitude":"75.7337","accuracy":"3"},{"address3":"Tonshyal","state":"Karnataka","state_code":"19","district":"Vijayapura","district_code":"557","address1":"Bijapur","address2":"","latitude":"16.5916","longitude":"75.7337","accuracy":"3"}],"586109":[{"address3":"Utnal","state":"Karnataka","state_code":"19","district":"Vijayapura","district_code":"557","address1":"B.bagewadi","address2":"","latitude":"16.6686","longitude":"76.0524","accuracy":"4"},{"address3":"Bijapur Jalanagar","state":"Karnataka","state_code":"19","district":"Vijayapura","district_code":"557","address1":"Bijapur","address2":"","latitude":"16.6972","longitude":"75.9682","accuracy":"3"},{"address3":"Hegadihal","state":"Karnataka","state_code":"19","district":"Vijayapura","district_code":"557","address1":"Bijapur","address2":"","latitude":"16.6972","longitude":"75.9682","accuracy":"3"},{"address3":"Ukkali","state":"Karnataka","state_code":"19","district":"Vijayapura","district_code":"557","address1":"B.bagewadi","address2":"","latitude":"16.7258","longitude":"75.884","accuracy":"4"},{"address3":"Katakanhalli","state":"Karnataka","state_code":"19","district":"Vijayapura","district_code":"557","address1":"Bijapur","address2":"","latitude":"16.6972","longitude":"75.9682","accuracy":"3"},{"address3":"Bijapur Darbargalli","state":"Karnataka","state_code":"19","district":"Vijayapura","district_code":"557","address1":"Bijapur","address2":"","latitude":"16.6972","longitude":"75.9682","accuracy":"3"}],"586111":[{"address3":"Hirebevanur","state":"Karnataka","state_code":"19","district":"Vijayapura","district_code":"557","address1":"Indi","address2":"","latitude":"16.8117","longitude":"75.7252","accuracy":"3"},{"address3":"Bhuyar","state":"Karnataka","state_code":"19","district":"Vijayapura","district_code":"557","address1":"Indi","address2":"","latitude":"17.2534","longitude":"76.0869","accuracy":"4"},{"address3":"Agarkhed","state":"Karnataka","state_code":"19","district":"Vijayapura","district_code":"557","address1":"Indi","address2":"","latitude":"17.3134","longitude":"76.0606","accuracy":"4"},{"address3":"Manur","state":"Karnataka","state_code":"19","district":"Vijayapura","district_code":"557","address1":"Indi","address2":"","latitude":"16.7937","longitude":"75.9531","accuracy":"4"},{"address3":"Gubbewad (Indi)","state":"Karnataka","state_code":"19","district":"Vijayapura","district_code":"557","address1":"Indi","address2":"","latitude":"16.7903","longitude":"76.2957","accuracy":"4"}],"586112":[{"address3":"Kenginal","state":"Karnataka","state_code":"19","district":"Vijayapura","district_code":"557","address1":"Indi","address2":"","latitude":"15.8769","longitude":"75.3652","accuracy":"3"},{"address3":"Nagathan","state":"Karnataka","state_code":"19","district":"Vijayapura","district_code":"557","address1":"Bijapur","address2":"","latitude":"16.9298","longitude":"75.8444","accuracy":"4"},{"address3":"Dyaberi","state":"Karnataka","state_code":"19","district":"Vijayapura","district_code":"557","address1":"Indi","address2":"","latitude":"15.8769","longitude":"75.3652","accuracy":"3"},{"address3":"Benakanhalli","state":"Karnataka","state_code":"19","district":"Vijayapura","district_code":"557","address1":"Indi","address2":"","latitude":"16.7937","longitude":"75.9531","accuracy":"4"},{"address3":"Honnalli","state":"Karnataka","state_code":"19","district":"Vijayapura","district_code":"557","address1":"Indi","address2":"","latitude":"16.7937","longitude":"75.9531","accuracy":"4"},{"address3":"Shirakanhalli","state":"Karnataka","state_code":"19","district":"Vijayapura","district_code":"557","address1":"Indi","address2":"","latitude":"15.8769","longitude":"75.3652","accuracy":"3"},{"address3":"Atharga","state":"Karnataka","state_code":"19","district":"Vijayapura","district_code":"557","address1":"Indi","address2":"","latitude":"16.9875","longitude":"75.8863","accuracy":"4"}],"586113":[{"address3":"Chikkalki","state":"Karnataka","state_code":"19","district":"Bagalkot","district_code":"556","address1":"Jamkhandi","address2":"","latitude":"16.61","longitude":"76.3111","accuracy":"3"},{"address3":"Nagaral","state":"Karnataka","state_code":"19","district":"Vijayapura","district_code":"557","address1":"Bijapur","address2":"","latitude":"16.2715","longitude":"76.0674","accuracy":"4"},{"address3":"Hosur","state":"Karnataka","state_code":"19","district":"Vijayapura","district_code":"557","address1":"Bijapur","address2":"","latitude":"16.7937","longitude":"75.9531","accuracy":"3"},{"address3":"Kakhandki","state":"Karnataka","state_code":"19","district":"Vijayapura","district_code":"557","address1":"Bijapur","address2":"","latitude":"16.7937","longitude":"75.9531","accuracy":"4"},{"address3":"Jainapur","state":"Karnataka","state_code":"19","district":"Vijayapura","district_code":"557","address1":"Bijapur","address2":"","latitude":"16.2924","longitude":"76.2808","accuracy":"4"},{"address3":"KANABUR","state":"Karnataka","state_code":"19","district":"Vijayapura","district_code":"557","address1":"Bijapur","address2":"","latitude":"16.7937","longitude":"75.9531","accuracy":"3"},{"address3":"Bableshwar","state":"Karnataka","state_code":"19","district":"Vijayapura","district_code":"557","address1":"Bijapur","address2":"","latitude":"16.9993","longitude":"76.2474","accuracy":"4"},{"address3":"Jambagi","state":"Karnataka","state_code":"19","district":"Vijayapura","district_code":"557","address1":"Bijapur","address2":"","latitude":"16.61","longitude":"76.3111","accuracy":"3"},{"address3":"JAMBAGI H","state":"Karnataka","state_code":"19","district":"Vijayapura","district_code":"557","address1":"Bijapur","address2":"","latitude":"16.61","longitude":"76.3111","accuracy":"3"},{"address3":"Nidoni","state":"Karnataka","state_code":"19","district":"Vijayapura","district_code":"557","address1":"Bijapur","address2":"","latitude":"16.61","longitude":"76.3111","accuracy":"3"},{"address3":"Shirbur","state":"Karnataka","state_code":"19","district":"Vijayapura","district_code":"557","address1":"Bijapur","address2":"","latitude":"16.61","longitude":"76.3111","accuracy":"3"},{"address3":"Hebbalatti","state":"Karnataka","state_code":"19","district":"Vijayapura","district_code":"557","address1":"Bijapur","address2":"","latitude":"16.61","longitude":"76.3111","accuracy":"3"},{"address3":"Kumathe","state":"Karnataka","state_code":"19","district":"Vijayapura","district_code":"557","address1":"Bijapur","address2":"","latitude":"16.61","longitude":"76.3111","accuracy":"3"},{"address3":"Arjunagi","state":"Karnataka","state_code":"19","district":"Vijayapura","district_code":"557","address1":"Bijapur","address2":"","latitude":"16.61","longitude":"76.3111","accuracy":"3"},{"address3":"Mamadapur","state":"Karnataka","state_code":"19","district":"Vijayapura","district_code":"557","address1":"Bijapur","address2":"","latitude":"16.61","longitude":"76.3111","accuracy":"3"},{"address3":"Uppaladinni","state":"Karnataka","state_code":"19","district":"Vijayapura","district_code":"557","address1":"Bijapur","address2":"","latitude":"16.61","longitude":"76.3111","accuracy":"3"},{"address3":"Bellubbi","state":"Karnataka","state_code":"19","district":"Vijayapura","district_code":"557","address1":"Bijapur","address2":"","latitude":"16.61","longitude":"76.3111","accuracy":"3"},{"address3":"Yakkundi","state":"Karnataka","state_code":"19","district":"Vijayapura","district_code":"557","address1":"Bijapur","address2":"","latitude":"16.61","longitude":"76.3111","accuracy":"3"},{"address3":"Tiganibidari","state":"Karnataka","state_code":"19","district":"Vijayapura","district_code":"557","address1":"Bijapur","address2":"","latitude":"16.61","longitude":"76.3111","accuracy":"3"},{"address3":"Hokkundi","state":"Karnataka","state_code":"19","district":"Vijayapura","district_code":"557","address1":"Bijapur","address2":"","latitude":"16.61","longitude":"76.3111","accuracy":"3"}],"586114":[{"address3":"Bijjargi","state":"Karnataka","state_code":"19","district":"Vijayapura","district_code":"557","address1":"Bijapur","address2":"","latitude":"16.9137","longitude":"75.4421","accuracy":"4"},{"address3":"Babanagar","state":"Karnataka","state_code":"19","district":"Vijayapura","district_code":"557","address1":"B.bagewadi","address2":"","latitude":"16.9137","longitude":"75.4421","accuracy":"3"},{"address3":"Hubnur","state":"Karnataka","state_code":"19","district":"Vijayapura","district_code":"557","address1":"Bijapur","address2":"","latitude":"16.9137","longitude":"75.4421","accuracy":"3"},{"address3":"Ghonasagi","state":"Karnataka","state_code":"19","district":"Vijayapura","district_code":"557","address1":"Bijapur","address2":"","latitude":"16.9137","longitude":"75.4421","accuracy":"3"},{"address3":"Somadevarhatti","state":"Karnataka","state_code":"19","district":"Vijayapura","district_code":"557","address1":"Bijapur","address2":"","latitude":"16.9137","longitude":"75.4421","accuracy":"3"},{"address3":"Kanmadi","state":"Karnataka","state_code":"19","district":"Vijayapura","district_code":"557","address1":"Bijapur","address2":"","latitude":"16.9137","longitude":"75.4421","accuracy":"3"}],"586115":[{"address3":"Mannur","state":"Karnataka","state_code":"19","district":"Vijayapura","district_code":"557","address1":"Indi","address2":"","latitude":"16.7861","longitude":"76.1151","accuracy":"4"},{"address3":"Harnal","state":"Karnataka","state_code":"19","district":"Vijayapura","district_code":"557","address1":"B.bagewadi","address2":"","latitude":"16.4344","longitude":"76.3161","accuracy":"4"},{"address3":"Devar Hippargi","state":"Karnataka","state_code":"19","district":"Vijayapura","district_code":"557","address1":"Sindgi","address2":"","latitude":"16.816","longitude":"76.0638","accuracy":"4"},{"address3":"Satihal","state":"Karnataka","state_code":"19","district":"Vijayapura","district_code":"557","address1":"B.bagewadi","address2":"","latitude":"16.7331","longitude":"76.0566","accuracy":"4"},{"address3":"Ingalgi","state":"Karnataka","state_code":"19","district":"Vijayapura","district_code":"557","address1":"Sindgi","address2":"","latitude":"16.1612","longitude":"76.2757","accuracy":"4"},{"address3":"Kannolli","state":"Karnataka","state_code":"19","district":"Vijayapura","district_code":"557","address1":"Sindgi","address2":"","latitude":"16.5862","longitude":"76.1655","accuracy":"3"},{"address3":"Bommanjogi","state":"Karnataka","state_code":"19","district":"Vijayapura","district_code":"557","address1":"Sindgi","address2":"","latitude":"16.5862","longitude":"76.1655","accuracy":"3"},{"address3":"Markabbinhalli","state":"Karnataka","state_code":"19","district":"Vijayapura","district_code":"557","address1":"B.bagewadi","address2":"","latitude":"16.5862","longitude":"76.1655","accuracy":"3"}],"586116":[{"address3":"Vanahalli","state":"Karnataka","state_code":"19","district":"Vijayapura","district_code":"557","address1":"Muddebihal","address2":"","latitude":"16.4672","longitude":"76.2005","accuracy":"4"},{"address3":"Basarkod","state":"Karnataka","state_code":"19","district":"Vijayapura","district_code":"557","address1":"Muddebihal","address2":"","latitude":"16.7937","longitude":"75.9531","accuracy":"4"},{"address3":"Lingadahalli","state":"Karnataka","state_code":"19","district":"Vijayapura","district_code":"557","address1":"Muddebihal","address2":"","latitude":"16.7937","longitude":"75.9531","accuracy":"4"},{"address3":"Padekanur","state":"Karnataka","state_code":"19","district":"Vijayapura","district_code":"557","address1":"Muddebihal","address2":"","latitude":"16.4956","longitude":"76.1384","accuracy":"4"},{"address3":"Rudgi","state":"Karnataka","state_code":"19","district":"Vijayapura","district_code":"557","address1":"Muddebihal","address2":"","latitude":"16.4277","longitude":"76.0738","accuracy":"4"},{"address3":"Balwat","state":"Karnataka","state_code":"19","district":"Vijayapura","district_code":"557","address1":"Muddebihal","address2":"","latitude":"16.3528","longitude":"76.1412","accuracy":"3"},{"address3":"Hallur","state":"Karnataka","state_code":"19","district":"Vijayapura","district_code":"557","address1":"Muddebihal","address2":"","latitude":"16.4651","longitude":"76.1233","accuracy":"4"},{"address3":"Madikeshwar","state":"Karnataka","state_code":"19","district":"Vijayapura","district_code":"557","address1":"Bijapur","address2":"","latitude":"16.3528","longitude":"76.1412","accuracy":"3"},{"address3":"Dhavalgi","state":"Karnataka","state_code":"19","district":"Vijayapura","district_code":"557","address1":"Muddebihal","address2":"","latitude":"16.434","longitude":"76.119","accuracy":"4"},{"address3":"Gundkarajagi","state":"Karnataka","state_code":"19","district":"Vijayapura","district_code":"557","address1":"Muddebihal","address2":"","latitude":"16.3528","longitude":"76.1412","accuracy":"3"}],"586117":[{"address3":"Horti","state":"Karnataka","state_code":"19","district":"Vijayapura","district_code":"557","address1":"Indi","address2":"","latitude":"17.1167","longitude":"75.7876","accuracy":"4"},{"address3":"Domanal","state":"Karnataka","state_code":"19","district":"Vijayapura","district_code":"557","address1":"Bijapur","address2":"","latitude":"17.2089","longitude":"76.0499","accuracy":"3"},{"address3":"Nandargi","state":"Karnataka","state_code":"19","district":"Vijayapura","district_code":"557","address1":"Indi","address2":"","latitude":"16.7937","longitude":"75.9531","accuracy":"4"},{"address3":"Savalsang","state":"Karnataka","state_code":"19","district":"Vijayapura","district_code":"557","address1":"Indi","address2":"","latitude":"17.2089","longitude":"76.0499","accuracy":"3"},{"address3":"Basanal","state":"Karnataka","state_code":"19","district":"Vijayapura","district_code":"557","address1":"Indi","address2":"","latitude":"17.2089","longitude":"76.0499","accuracy":"3"},{"address3":"Inchageri","state":"Karnataka","state_code":"19","district":"Vijayapura","district_code":"557","address1":"Indi","address2":"","latitude":"17.2089","longitude":"76.0499","accuracy":"3"},{"address3":"Kapanimbargi","state":"Karnataka","state_code":"19","district":"Vijayapura","district_code":"557","address1":"Indi","address2":"","latitude":"17.2089","longitude":"76.0499","accuracy":"3"},{"address3":"Deginal","state":"Karnataka","state_code":"19","district":"Vijayapura","district_code":"557","address1":"Indi","address2":"","latitude":"17.2089","longitude":"76.0499","accuracy":"3"},{"address3":"Ballolli","state":"Karnataka","state_code":"19","district":"Vijayapura","district_code":"557","address1":"Indi","address2":"","latitude":"17.2089","longitude":"76.0499","accuracy":"3"},{"address3":"Agasanal","state":"Karnataka","state_code":"19","district":"Vijayapura","district_code":"557","address1":"Indi","address2":"","latitude":"17.2089","longitude":"76.0499","accuracy":"3"},{"address3":"Hadalsang","state":"Karnataka","state_code":"19","district":"Vijayapura","district_code":"557","address1":"Indi","address2":"","latitude":"17.2089","longitude":"76.0499","accuracy":"3"}],"586118":[{"address3":"Bekinal","state":"Karnataka","state_code":"19","district":"Vijayapura","district_code":"557","address1":"Sindgi","address2":"","latitude":"16.6438","longitude":"76.3618","accuracy":"4"},{"address3":"Kesaratti","state":"Karnataka","state_code":"19","district":"Vijayapura","district_code":"557","address1":"Sindgi","address2":"","latitude":"16.6129","longitude":"76.2819","accuracy":"4"},{"address3":"Binjalbhavi","state":"Karnataka","state_code":"19","district":"Vijayapura","district_code":"557","address1":"Sindgi","address2":"","latitude":"16.4493","longitude":"76.1492","accuracy":"3"},{"address3":"Algur","state":"Karnataka","state_code":"19","district":"Vijayapura","district_code":"557","address1":"Sindgi","address2":"","latitude":"16.6954","longitude":"76.36","accuracy":"4"},{"address3":"Hunsyal (SDG)","state":"Karnataka","state_code":"19","district":"Vijayapura","district_code":"557","address1":"Sindgi","address2":"","latitude":"16.4493","longitude":"76.1492","accuracy":"3"},{"address3":"Kalkeri","state":"Karnataka","state_code":"19","district":"Vijayapura","district_code":"557","address1":"Sindgi","address2":"","latitude":"16.7937","longitude":"75.9531","accuracy":"4"},{"address3":"Kerutgi","state":"Karnataka","state_code":"19","district":"Vijayapura","district_code":"557","address1":"Sindgi","address2":"","latitude":"16.4493","longitude":"76.1492","accuracy":"3"},{"address3":"Aski","state":"Karnataka","state_code":"19","district":"Vijayapura","district_code":"557","address1":"Sindgi","address2":"","latitude":"16.6108","longitude":"76.3686","accuracy":"4"},{"address3":"Neeralgi","state":"Karnataka","state_code":"19","district":"Vijayapura","district_code":"557","address1":"Sindgi","address2":"","latitude":"16.4493","longitude":"76.1492","accuracy":"3"},{"address3":"Tilgul","state":"Karnataka","state_code":"19","district":"Vijayapura","district_code":"557","address1":"Sindgi","address2":"","latitude":"16.4493","longitude":"76.1492","accuracy":"3"}],"586119":[{"address3":"Madasanal","state":"Karnataka","state_code":"19","district":"Vijayapura","district_code":"557","address1":"Bijapur","address2":"","latitude":"16.7655","longitude":"76.4964","accuracy":"3"},{"address3":"Baratgi","state":"Karnataka","state_code":"19","district":"Vijayapura","district_code":"557","address1":"Bijapur","address2":"","latitude":"16.7655","longitude":"76.4964","accuracy":"3"},{"address3":"Kannal","state":"Karnataka","state_code":"19","district":"Vijayapura","district_code":"557","address1":"Bijapur","address2":"","latitude":"16.4882","longitude":"76.0665","accuracy":"4"},{"address3":"Kannur","state":"Karnataka","state_code":"19","district":"Vijayapura","district_code":"557","address1":"Bijapur","address2":"","latitude":"16.7937","longitude":"75.9531","accuracy":"4"},{"address3":"Makhanapur","state":"Karnataka","state_code":"19","district":"Vijayapura","district_code":"557","address1":"Bijapur","address2":"","latitude":"16.7655","longitude":"76.4964","accuracy":"3"},{"address3":"Shanti Kutir","state":"Karnataka","state_code":"19","district":"Vijayapura","district_code":"557","address1":"Bijapur","address2":"","latitude":"16.7655","longitude":"76.4964","accuracy":"3"},{"address3":"Shirnal","state":"Karnataka","state_code":"19","district":"Vijayapura","district_code":"557","address1":"Bijapur","address2":"","latitude":"16.7655","longitude":"76.4964","accuracy":"3"},{"address3":"Tidgundi","state":"Karnataka","state_code":"19","district":"Vijayapura","district_code":"557","address1":"Bijapur","address2":"","latitude":"16.7655","longitude":"76.4964","accuracy":"3"}],"586120":[{"address3":"Yalgod","state":"Karnataka","state_code":"19","district":"Vijayapura","district_code":"557","address1":"Sindgi","address2":"","latitude":"16.7538","longitude":"76.3252","accuracy":"4"},{"address3":"Handiganur","state":"Karnataka","state_code":"19","district":"Vijayapura","district_code":"557","address1":"Sindgi","address2":"","latitude":"16.7392","longitude":"76.2522","accuracy":"4"},{"address3":"Bibi-ingalgi","state":"Karnataka","state_code":"19","district":"Vijayapura","district_code":"557","address1":"Sindgi","address2":"","latitude":"16.643","longitude":"76.2374","accuracy":"4"},{"address3":"Korwar","state":"Karnataka","state_code":"19","district":"Vijayapura","district_code":"557","address1":"Sindgi","address2":"","latitude":"16.7532","longitude":"76.2126","accuracy":"4"},{"address3":"Jalwad","state":"Karnataka","state_code":"19","district":"Vijayapura","district_code":"557","address1":"Sindgi","address2":"","latitude":"16.7695","longitude":"76.1518","accuracy":"4"},{"address3":"Hanchli","state":"Karnataka","state_code":"19","district":"Vijayapura","district_code":"557","address1":"Sindgi","address2":"","latitude":"16.654","longitude":"76.2263","accuracy":"4"},{"address3":"Kondguli","state":"Karnataka","state_code":"19","district":"Vijayapura","district_code":"557","address1":"Sindgi","address2":"","latitude":"16.6865","longitude":"76.2001","accuracy":"4"},{"address3":"Kokatnur","state":"Karnataka","state_code":"19","district":"Vijayapura","district_code":"557","address1":"Sindgi","address2":"","latitude":"16.8275","longitude":"76.1891","accuracy":"4"}],"586121":[{"address3":"Kalgurki","state":"Karnataka","state_code":"19","district":"Vijayapura","district_code":"557","address1":"B.bagewadi","address2":"","latitude":"16.7937","longitude":"75.9531","accuracy":"4"},{"address3":"Talewad","state":"Karnataka","state_code":"19","district":"Vijayapura","district_code":"557","address1":"B.bagewadi","address2":"","latitude":"17.1595","longitude":"76.7018","accuracy":"3"},{"address3":"Malghan","state":"Karnataka","state_code":"19","district":"Vijayapura","district_code":"557","address1":"B.bagewadi","address2":"","latitude":"17.0145","longitude":"76.2906","accuracy":"4"},{"address3":"Kudgi","state":"Karnataka","state_code":"19","district":"Vijayapura","district_code":"557","address1":"B.bagewadi","address2":"","latitude":"17.1595","longitude":"76.7018","accuracy":"3"},{"address3":"Masuti","state":"Karnataka","state_code":"19","district":"Vijayapura","district_code":"557","address1":"Indi","address2":"","latitude":"17.1595","longitude":"76.7018","accuracy":"3"}],"586122":[{"address3":"Jumanal","state":"Karnataka","state_code":"19","district":"Vijayapura","district_code":"557","address1":"Bijapur","address2":"","latitude":"16.6352","longitude":"75.9447","accuracy":"3"},{"address3":"Yarnal","state":"Karnataka","state_code":"19","district":"Vijayapura","district_code":"557","address1":"B.bagewadi","address2":"","latitude":"16.6155","longitude":"75.8626","accuracy":"4"},{"address3":"Hattarkihal","state":"Karnataka","state_code":"19","district":"Vijayapura","district_code":"557","address1":"Indi","address2":"","latitude":"16.6352","longitude":"75.9447","accuracy":"3"},{"address3":"Nandihal","state":"Karnataka","state_code":"19","district":"Vijayapura","district_code":"557","address1":"B.bagewadi","address2":"","latitude":"16.6409","longitude":"76.1631","accuracy":"4"},{"address3":"Hitinhalli","state":"Karnataka","state_code":"19","district":"Vijayapura","district_code":"557","address1":"Bijapur","address2":"","latitude":"16.6352","longitude":"75.9447","accuracy":"3"},{"address3":"Mangoli","state":"Karnataka","state_code":"19","district":"Vijayapura","district_code":"557","address1":"B.bagewadi","address2":"","latitude":"16.6493","longitude":"75.8085","accuracy":"4"}],"586123":[{"address3":"Bhantanur","state":"Karnataka","state_code":"19","district":"Vijayapura","district_code":"557","address1":"Sindgi","address2":"","latitude":"16.5632","longitude":"76.3804","accuracy":"4"},{"address3":"Moratgi","state":"Karnataka","state_code":"19","district":"Vijayapura","district_code":"557","address1":"Sindgi","address2":"","latitude":"17.0068","longitude":"76.417","accuracy":"4"},{"address3":"Gabsavalgi","state":"Karnataka","state_code":"19","district":"Vijayapura","district_code":"557","address1":"Sindgi","address2":"","latitude":"16.9801","longitude":"76.3448","accuracy":"4"},{"address3":"Yargal","state":"Karnataka","state_code":"19","district":"Vijayapura","district_code":"557","address1":"Sindgi","address2":"","latitude":"16.234","longitude":"76.1564","accuracy":"4"},{"address3":"Bagalur","state":"Karnataka","state_code":"19","district":"Vijayapura","district_code":"557","address1":"Sindgi","address2":"","latitude":"16.7937","longitude":"75.9531","accuracy":"3"},{"address3":"Nagavi","state":"Karnataka","state_code":"19","district":"Vijayapura","district_code":"557","address1":"Sindgi","address2":"","latitude":"16.696","longitude":"76.3247","accuracy":"3"},{"address3":"Kakkalmeli","state":"Karnataka","state_code":"19","district":"Vijayapura","district_code":"557","address1":"Sindgi","address2":"","latitude":"16.696","longitude":"76.3247","accuracy":"3"},{"address3":"Goravgundgi","state":"Karnataka","state_code":"19","district":"Vijayapura","district_code":"557","address1":"Sindgi","address2":"","latitude":"16.696","longitude":"76.3247","accuracy":"3"},{"address3":"Aheri (Sindgi)","state":"Karnataka","state_code":"19","district":"Vijayapura","district_code":"557","address1":"Sindgi","address2":"","latitude":"16.696","longitude":"76.3247","accuracy":"3"},{"address3":"Bankalgi","state":"Karnataka","state_code":"19","district":"Vijayapura","district_code":"557","address1":"Sindgi","address2":"","latitude":"16.696","longitude":"76.3247","accuracy":"3"}],"586124":[{"address3":"Nagarbetta","state":"Karnataka","state_code":"19","district":"Vijayapura","district_code":"557","address1":"Muddebihal","address2":"","latitude":"16.2825","longitude":"76.2579","accuracy":"4"},{"address3":"Siddapur Ds","state":"Karnataka","state_code":"19","district":"Vijayapura","district_code":"557","address1":"Muddebihal","address2":"","latitude":"15.8564","longitude":"76.0755","accuracy":"3"},{"address3":"Nalatwad","state":"Karnataka","state_code":"19","district":"Vijayapura","district_code":"557","address1":"Muddebihal","address2":"","latitude":"15.8564","longitude":"76.0755","accuracy":"3"},{"address3":"Bijjur","state":"Karnataka","state_code":"19","district":"Vijayapura","district_code":"557","address1":"Muddebihal","address2":"","latitude":"16.7937","longitude":"75.9531","accuracy":"4"},{"address3":"Hiremural","state":"Karnataka","state_code":"19","district":"Vijayapura","district_code":"557","address1":"Indi","address2":"","latitude":"15.8564","longitude":"76.0755","accuracy":"3"},{"address3":"Nagabenal","state":"Karnataka","state_code":"19","district":"Vijayapura","district_code":"557","address1":"Muddebihal","address2":"","latitude":"16.2623","longitude":"76.3294","accuracy":"4"}],"586125":[{"address3":"Bidari (Jkd)","state":"Karnataka","state_code":"19","district":"Bagalkot","district_code":"556","address1":"Jamakhandi","address2":"","latitude":"16.7489","longitude":"76.0514","accuracy":"3"},{"address3":"Bolachikkalki (JKD)","state":"Karnataka","state_code":"19","district":"Bagalkot","district_code":"556","address1":"Jamakhandi","address2":"","latitude":"16.7489","longitude":"76.0514","accuracy":"3"},{"address3":"Devar Gennur","state":"Karnataka","state_code":"19","district":"Vijayapura","district_code":"557","address1":"Bijapur","address2":"","latitude":"16.7489","longitude":"76.0514","accuracy":"3"},{"address3":"Devapur","state":"Karnataka","state_code":"19","district":"Vijayapura","district_code":"557","address1":"Bijapur","address2":"","latitude":"16.7937","longitude":"75.9531","accuracy":"4"},{"address3":"Sarwad","state":"Karnataka","state_code":"19","district":"Vijayapura","district_code":"557","address1":"Bijapur","address2":"","latitude":"16.7101","longitude":"75.6392","accuracy":"4"},{"address3":"Kambagi","state":"Karnataka","state_code":"19","district":"Vijayapura","district_code":"557","address1":"Bijapur","address2":"","latitude":"16.5609","longitude":"75.5369","accuracy":"4"},{"address3":"Bablad","state":"Karnataka","state_code":"19","district":"Vijayapura","district_code":"557","address1":"Bijapur","address2":"","latitude":"16.7937","longitude":"75.9531","accuracy":"4"},{"address3":"Majre Sangapur","state":"Karnataka","state_code":"19","district":"Vijayapura","district_code":"557","address1":"Bijapur","address2":"","latitude":"16.7489","longitude":"76.0514","accuracy":"3"},{"address3":"Gundal","state":"Karnataka","state_code":"19","district":"Vijayapura","district_code":"557","address1":"Bijapur","address2":"","latitude":"16.5364","longitude":"75.4954","accuracy":"4"},{"address3":"Khatijapur","state":"Karnataka","state_code":"19","district":"Vijayapura","district_code":"557","address1":"Bijapur","address2":"","latitude":"16.7489","longitude":"76.0514","accuracy":"3"},{"address3":"Shegunshi","state":"Karnataka","state_code":"19","district":"Vijayapura","district_code":"557","address1":"Bijapur","address2":"","latitude":"16.7489","longitude":"76.0514","accuracy":"3"},{"address3":"Halagani","state":"Karnataka","state_code":"19","district":"Vijayapura","district_code":"557","address1":"Bijapur","address2":"","latitude":"16.7489","longitude":"76.0514","accuracy":"3"},{"address3":"Sangapur Sh","state":"Karnataka","state_code":"19","district":"Vijayapura","district_code":"557","address1":"Bijapur","address2":"","latitude":"16.7489","longitude":"76.0514","accuracy":"3"},{"address3":"Kanmuchnal","state":"Karnataka","state_code":"19","district":"Vijayapura","district_code":"557","address1":"Bijapur","address2":"","latitude":"16.7489","longitude":"76.0514","accuracy":"3"}],"586127":[{"address3":"Aheri","state":"Karnataka","state_code":"19","district":"Vijayapura","district_code":"557","address1":"Indi","address2":"","latitude":"16.9779","longitude":"76.3012","accuracy":"4"},{"address3":"Ankalgi","state":"Karnataka","state_code":"19","district":"Vijayapura","district_code":"557","address1":"Bijapur","address2":"","latitude":"16.7937","longitude":"75.9531","accuracy":"4"},{"address3":"Hadagali","state":"Karnataka","state_code":"19","district":"Vijayapura","district_code":"557","address1":"Bijapur","address2":"","latitude":"16.8111","longitude":"75.9371","accuracy":"4"},{"address3":"Shivangi","state":"Karnataka","state_code":"19","district":"Vijayapura","district_code":"557","address1":"Bijapur","address2":"","latitude":"17.0311","longitude":"76.2443","accuracy":"3"},{"address3":"Mulasavalgi","state":"Karnataka","state_code":"19","district":"Vijayapura","district_code":"557","address1":"Sindgi","address2":"","latitude":"17.0311","longitude":"76.2443","accuracy":"3"},{"address3":"Aliyabad","state":"Karnataka","state_code":"19","district":"Vijayapura","district_code":"557","address1":"Indi","address2":"","latitude":"17.0311","longitude":"76.2443","accuracy":"3"},{"address3":"Yambatnal","state":"Karnataka","state_code":"19","district":"Vijayapura","district_code":"557","address1":"Sindgi","address2":"","latitude":"17.0311","longitude":"76.2443","accuracy":"3"},{"address3":"Kaggod","state":"Karnataka","state_code":"19","district":"Vijayapura","district_code":"557","address1":"Bijapur","address2":"","latitude":"17.0311","longitude":"76.2443","accuracy":"3"},{"address3":"Padaganur","state":"Karnataka","state_code":"19","district":"Vijayapura","district_code":"557","address1":"Sindgi","address2":"","latitude":"17.0311","longitude":"76.2443","accuracy":"3"}],"586128":[{"address3":"Asantapur","state":"Karnataka","state_code":"19","district":"Vijayapura","district_code":"557","address1":"Sindgi","address2":"","latitude":"16.6988","longitude":"76.4263","accuracy":"4"},{"address3":"Sindgi","state":"Karnataka","state_code":"19","district":"Vijayapura","district_code":"557","address1":"Sindgi","address2":"","latitude":"16.9188","longitude":"76.2337","accuracy":"4"},{"address3":"Khainur","state":"Karnataka","state_code":"19","district":"Vijayapura","district_code":"557","address1":"Sindgi","address2":"","latitude":"16.8456","longitude":"76.4474","accuracy":"4"},{"address3":"Yankanchi","state":"Karnataka","state_code":"19","district":"Vijayapura","district_code":"557","address1":"Sindgi","address2":"","latitude":"16.8662","longitude":"76.3499","accuracy":"4"},{"address3":"Honnalli","state":"Karnataka","state_code":"19","district":"Vijayapura","district_code":"557","address1":"Sindgi","address2":"","latitude":"16.7937","longitude":"75.9531","accuracy":"3"},{"address3":"Khanapur","state":"Karnataka","state_code":"19","district":"Vijayapura","district_code":"557","address1":"Sindgi","address2":"","latitude":"16.212","longitude":"76.3085","accuracy":"4"},{"address3":"Sungthan","state":"Karnataka","state_code":"19","district":"Vijayapura","district_code":"557","address1":"Sindgi","address2":"","latitude":"16.7937","longitude":"75.9531","accuracy":"4"},{"address3":"Chandkavathe","state":"Karnataka","state_code":"19","district":"Vijayapura","district_code":"557","address1":"Sindgi","address2":"","latitude":"16.8512","longitude":"76.3374","accuracy":"3"},{"address3":"Sasabal","state":"Karnataka","state_code":"19","district":"Vijayapura","district_code":"557","address1":"Singi","address2":"","latitude":"16.8139","longitude":"76.3426","accuracy":"4"},{"address3":"Somjal","state":"Karnataka","state_code":"19","district":"Vijayapura","district_code":"557","address1":"Sindgi","address2":"","latitude":"16.8512","longitude":"76.3374","accuracy":"3"},{"address3":"Malghan","state":"Karnataka","state_code":"19","district":"Vijayapura","district_code":"557","address1":"Sindgi","address2":"","latitude":"17.0145","longitude":"76.2906","accuracy":"4"},{"address3":"Budihal Ph","state":"Karnataka","state_code":"19","district":"Vijayapura","district_code":"557","address1":"Sindgi","address2":"","latitude":"16.8512","longitude":"76.3374","accuracy":"3"},{"address3":"Madbal","state":"Karnataka","state_code":"19","district":"Vijayapura","district_code":"557","address1":"Sindgi","address2":"","latitude":"16.8505","longitude":"76.2905","accuracy":"4"},{"address3":"Othihal","state":"Karnataka","state_code":"19","district":"Vijayapura","district_code":"557","address1":"Sindgi","address2":"","latitude":"16.8512","longitude":"76.3374","accuracy":"3"},{"address3":"Ganihar","state":"Karnataka","state_code":"19","district":"Vijayapura","district_code":"557","address1":"Sindgi","address2":"","latitude":"16.9668","longitude":"76.1986","accuracy":"4"},{"address3":"Bannihatti Pa","state":"Karnataka","state_code":"19","district":"Vijayapura","district_code":"557","address1":"Sindgi","address2":"","latitude":"16.8512","longitude":"76.3374","accuracy":"3"},{"address3":"Byakod","state":"Karnataka","state_code":"19","district":"Vijayapura","district_code":"557","address1":"Sindgi","address2":"","latitude":"16.5125","longitude":"76.1056","accuracy":"4"},{"address3":"Balaganur","state":"Karnataka","state_code":"19","district":"Vijayapura","district_code":"557","address1":"Sindgi","address2":"","latitude":"16.8512","longitude":"76.3374","accuracy":"3"},{"address3":"Borgi","state":"Karnataka","state_code":"19","district":"Vijayapura","district_code":"557","address1":"Sindgi","address2":"","latitude":"16.8104","longitude":"76.2497","accuracy":"4"},{"address3":"Chick Sindgi","state":"Karnataka","state_code":"19","district":"Vijayapura","district_code":"557","address1":"Sindgi","address2":"","latitude":"16.8512","longitude":"76.3374","accuracy":"3"},{"address3":"Bandal","state":"Karnataka","state_code":"19","district":"Vijayapura","district_code":"557","address1":"Sindgi","address2":"","latitude":"16.9043","longitude":"76.1965","accuracy":"4"},{"address3":"Gubbewad","state":"Karnataka","state_code":"19","district":"Vijayapura","district_code":"557","address1":"Sindgi","address2":"","latitude":"16.7903","longitude":"76.2957","accuracy":"4"},{"address3":"Golgeri","state":"Karnataka","state_code":"19","district":"Vijayapura","district_code":"557","address1":"Sindgi","address2":"","latitude":"16.8096","longitude":"76.3479","accuracy":"4"}],"586129":[{"address3":"Alur","state":"Karnataka","state_code":"19","district":"Vijayapura","district_code":"557","address1":"Muddebihal","address2":"","latitude":"16.2323","longitude":"76.1954","accuracy":"4"},{"address3":"Yargal (TGD)","state":"Karnataka","state_code":"19","district":"Vijayapura","district_code":"557","address1":"Muddebihal","address2":"","latitude":"16.3118","longitude":"76.1693","accuracy":"3"},{"address3":"Tangadgi","state":"Karnataka","state_code":"19","district":"Vijayapura","district_code":"557","address1":"Muddebihal","address2":"","latitude":"16.2137","longitude":"76.0933","accuracy":"4"},{"address3":"Kandaganur","state":"Karnataka","state_code":"19","district":"Vijayapura","district_code":"557","address1":"Muddebihal","address2":"","latitude":"16.2929","longitude":"76.0405","accuracy":"4"},{"address3":"Handargal","state":"Karnataka","state_code":"19","district":"Vijayapura","district_code":"557","address1":"Muddebihal","address2":"","latitude":"16.3118","longitude":"76.1693","accuracy":"3"},{"address3":"Takkalki","state":"Karnataka","state_code":"19","district":"Vijayapura","district_code":"557","address1":"Muddebihal","address2":"","latitude":"16.1653","longitude":"76.2639","accuracy":"4"},{"address3":"Sarur","state":"Karnataka","state_code":"19","district":"Vijayapura","district_code":"557","address1":"Muddebihal","address2":"","latitude":"16.2946","longitude":"76.1696","accuracy":"4"},{"address3":"Hunakunti","state":"Karnataka","state_code":"19","district":"Vijayapura","district_code":"557","address1":"Muddebihal","address2":"","latitude":"16.3118","longitude":"76.1693","accuracy":"3"},{"address3":"Kolur","state":"Karnataka","state_code":"19","district":"Vijayapura","district_code":"557","address1":"Muddebihal","address2":"","latitude":"16.2714","longitude":"76.1491","accuracy":"4"},{"address3":"Madari","state":"Karnataka","state_code":"19","district":"Vijayapura","district_code":"557","address1":"Muddebihal","address2":"","latitude":"16.8707","longitude":"76.422","accuracy":"4"},{"address3":"Kolur Lt","state":"Karnataka","state_code":"19","district":"Vijayapura","district_code":"557","address1":"Muddebihal","address2":"","latitude":"16.3118","longitude":"76.1693","accuracy":"3"},{"address3":"Devur","state":"Karnataka","state_code":"19","district":"Vijayapura","district_code":"557","address1":"Muddebihal","address2":"","latitude":"16.2648","longitude":"76.0741","accuracy":"4"},{"address3":"Kunchaganur","state":"Karnataka","state_code":"19","district":"Vijayapura","district_code":"557","address1":"Muddebihal","address2":"","latitude":"16.3118","longitude":"76.1693","accuracy":"3"},{"address3":"Amargol","state":"Karnataka","state_code":"19","district":"Vijayapura","district_code":"557","address1":"Muddebihal","address2":"","latitude":"16.2005","longitude":"76.1162","accuracy":"4"},{"address3":"Nebageri","state":"Karnataka","state_code":"19","district":"Vijayapura","district_code":"557","address1":"Muddebihal","address2":"","latitude":"16.3118","longitude":"76.1693","accuracy":"3"},{"address3":"Rakkasagi","state":"Karnataka","state_code":"19","district":"Vijayapura","district_code":"557","address1":"Muddebihal","address2":"","latitude":"16.3118","longitude":"76.1693","accuracy":"3"}],"586130":[{"address3":"Dhannargi","state":"Karnataka","state_code":"19","district":"Vijayapura","district_code":"557","address1":"Bijapur","address2":"","latitude":"16.5042","longitude":"75.8926","accuracy":"3"},{"address3":"Tikota","state":"Karnataka","state_code":"19","district":"Vijayapura","district_code":"557","address1":"Bijapur","address2":"","latitude":"16.843","longitude":"75.5213","accuracy":"4"},{"address3":"Honawad","state":"Karnataka","state_code":"19","district":"Vijayapura","district_code":"557","address1":"Bijapur","address2":"","latitude":"16.5042","longitude":"75.8926","accuracy":"3"},{"address3":"Dashyal","state":"Karnataka","state_code":"19","district":"Vijayapura","district_code":"557","address1":"Bijapur","address2":"","latitude":"16.5042","longitude":"75.8926","accuracy":"3"},{"address3":"Takkalki","state":"Karnataka","state_code":"19","district":"Vijayapura","district_code":"557","address1":"B.bagewadi","address2":"","latitude":"16.1653","longitude":"76.2639","accuracy":"4"},{"address3":"M.Devarhatti","state":"Karnataka","state_code":"19","district":"Vijayapura","district_code":"557","address1":"Bijapur","address2":"","latitude":"16.5042","longitude":"75.8926","accuracy":"3"},{"address3":"Kotyal","state":"Karnataka","state_code":"19","district":"Vijayapura","district_code":"557","address1":"Bijapur","address2":"","latitude":"16.5042","longitude":"75.8926","accuracy":"3"},{"address3":"Dhanyal","state":"Karnataka","state_code":"19","district":"Vijayapura","district_code":"557","address1":"Bijapur","address2":"","latitude":"16.5042","longitude":"75.8926","accuracy":"3"},{"address3":"Tajpur","state":"Karnataka","state_code":"19","district":"Vijayapura","district_code":"557","address1":"Bijapur","address2":"","latitude":"16.5042","longitude":"75.8926","accuracy":"3"}],"586201":[{"address3":"Chimmalagi","state":"Karnataka","state_code":"19","district":"Vijayapura","district_code":"557","address1":"B.bagewadi","address2":"","latitude":"16.7453","longitude":"76.3537","accuracy":"3"},{"address3":"Vandal","state":"Karnataka","state_code":"19","district":"Vijayapura","district_code":"557","address1":"B.bagewadi","address2":"","latitude":"16.7453","longitude":"76.3537","accuracy":"4"},{"address3":"Ghani","state":"Karnataka","state_code":"19","district":"Vijayapura","district_code":"557","address1":"B.bagewadi","address2":"","latitude":"16.7453","longitude":"76.3537","accuracy":"3"},{"address3":"Almat R.S.","state":"Karnataka","state_code":"19","district":"Vijayapura","district_code":"557","address1":"B.bagewadi","address2":"","latitude":"16.7453","longitude":"76.3537","accuracy":"3"},{"address3":"Almatti  Damsite","state":"Karnataka","state_code":"19","district":"Vijayapura","district_code":"557","address1":"Basavana Bagevadi","address2":"","latitude":"16.7453","longitude":"76.3537","accuracy":"3"},{"address3":"Benal","state":"Karnataka","state_code":"19","district":"Vijayapura","district_code":"557","address1":"Basavana Bagevadi","address2":"","latitude":"16.7453","longitude":"76.3537","accuracy":"3"}],"586202":[{"address3":"Kadni","state":"Karnataka","state_code":"19","district":"Vijayapura","district_code":"557","address1":"Sindgi","address2":"","latitude":"17.1695","longitude":"76.205","accuracy":"4"},{"address3":"Kurabathalli","state":"Karnataka","state_code":"19","district":"Vijayapura","district_code":"557","address1":"Sindgi","address2":"","latitude":"15.9615","longitude":"76.1881","accuracy":"3"},{"address3":"Rampur","state":"Karnataka","state_code":"19","district":"Vijayapura","district_code":"557","address1":"Sindgi","address2":"","latitude":"16.9686","longitude":"76.2269","accuracy":"4"},{"address3":"Hikkangutti","state":"Karnataka","state_code":"19","district":"Vijayapura","district_code":"557","address1":"Sindgi","address2":"","latitude":"15.9615","longitude":"76.1881","accuracy":"3"},{"address3":"Almel","state":"Karnataka","state_code":"19","district":"Vijayapura","district_code":"557","address1":"Sindgi","address2":"","latitude":"17.0938","longitude":"76.2193","accuracy":"4"},{"address3":"Korahalli","state":"Karnataka","state_code":"19","district":"Vijayapura","district_code":"557","address1":"Sindgi","address2":"","latitude":"16.7937","longitude":"75.9531","accuracy":"4"},{"address3":"Huvinhalli","state":"Karnataka","state_code":"19","district":"Vijayapura","district_code":"557","address1":"Sindgi","address2":"","latitude":"16.7937","longitude":"75.9531","accuracy":"3"},{"address3":"Kalhalli","state":"Karnataka","state_code":"19","district":"Vijayapura","district_code":"557","address1":"Sindgi","address2":"","latitude":"16.9999","longitude":"76.2256","accuracy":"4"},{"address3":"Gundagi","state":"Karnataka","state_code":"19","district":"Vijayapura","district_code":"557","address1":"Sindgi","address2":"","latitude":"15.9615","longitude":"76.1881","accuracy":"3"},{"address3":"Madanahalli","state":"Karnataka","state_code":"19","district":"Vijayapura","district_code":"557","address1":"Sindgi","address2":"","latitude":"16.7937","longitude":"75.9531","accuracy":"4"}],"586203":[{"address3":"Yalwar","state":"Karnataka","state_code":"19","district":"Vijayapura","district_code":"557","address1":"B.bagewadi","address2":"","latitude":"16.7937","longitude":"75.9531","accuracy":"4"},{"address3":"Donur","state":"Karnataka","state_code":"19","district":"Vijayapura","district_code":"557","address1":"B.bagewadi","address2":"","latitude":"16.7937","longitude":"75.9531","accuracy":"3"},{"address3":"Dindwar","state":"Karnataka","state_code":"19","district":"Vijayapura","district_code":"557","address1":"B.bagewadi","address2":"","latitude":"16.6604","longitude":"76.052","accuracy":"4"},{"address3":"Bhairwadgi","state":"Karnataka","state_code":"19","district":"Vijayapura","district_code":"557","address1":"B.bagewadi","address2":"","latitude":"16.6178","longitude":"76.1602","accuracy":"3"},{"address3":"Basavan Bagewadi","state":"Karnataka","state_code":"19","district":"Vijayapura","district_code":"557","address1":"Basavana Bagevadi","address2":"","latitude":"16.6178","longitude":"76.1602","accuracy":"3"},{"address3":"Rabinal","state":"Karnataka","state_code":"19","district":"Vijayapura","district_code":"557","address1":"b..bagewadi","address2":"","latitude":"16.6964","longitude":"76.0319","accuracy":"4"},{"address3":"Masabinal","state":"Karnataka","state_code":"19","district":"Vijayapura","district_code":"557","address1":"B.bagewadi","address2":"","latitude":"16.6178","longitude":"76.1602","accuracy":"3"},{"address3":"Byalal","state":"Karnataka","state_code":"19","district":"Vijayapura","district_code":"557","address1":"B.bagewadi","address2":"","latitude":"16.4369","longitude":"76.0117","accuracy":"4"},{"address3":"Bisnal","state":"Karnataka","state_code":"19","district":"Vijayapura","district_code":"557","address1":"B.bagewadi","address2":"","latitude":"16.6178","longitude":"76.1602","accuracy":"3"},{"address3":"Kadkol","state":"Karnataka","state_code":"19","district":"Vijayapura","district_code":"557","address1":"B.bagewadi","address2":"","latitude":"16.6811","longitude":"76.1749","accuracy":"4"},{"address3":"Narasalagi","state":"Karnataka","state_code":"19","district":"Vijayapura","district_code":"557","address1":"B.bagewadi","address2":"","latitude":"16.6178","longitude":"76.1602","accuracy":"3"},{"address3":"Kankal","state":"Karnataka","state_code":"19","district":"Vijayapura","district_code":"557","address1":"Muddebihal","address2":"","latitude":"16.4665","longitude":"76.0394","accuracy":"4"},{"address3":"Ingaleshwar","state":"Karnataka","state_code":"19","district":"Vijayapura","district_code":"557","address1":"B.bagewadi","address2":"","latitude":"16.6178","longitude":"76.1602","accuracy":"3"},{"address3":"Kannal","state":"Karnataka","state_code":"19","district":"Vijayapura","district_code":"557","address1":"B.bagewadi","address2":"","latitude":"16.4882","longitude":"76.0665","accuracy":"4"},{"address3":"Ivanagi","state":"Karnataka","state_code":"19","district":"Vijayapura","district_code":"557","address1":"Bijapur","address2":"","latitude":"16.6178","longitude":"76.1602","accuracy":"3"},{"address3":"Aralichandi","state":"Karnataka","state_code":"19","district":"Vijayapura","district_code":"557","address1":"B.bagewadi","address2":"","latitude":"16.6178","longitude":"76.1602","accuracy":"3"}],"586204":[{"address3":"Godihal","state":"Karnataka","state_code":"19","district":"Vijayapura","district_code":"557","address1":"Indi","address2":"","latitude":"17.0824","longitude":"76.1657","accuracy":"4"},{"address3":"Nimbargi","state":"Karnataka","state_code":"19","district":"Vijayapura","district_code":"557","address1":"Indi","address2":"","latitude":"17.0824","longitude":"76.1657","accuracy":"3"},{"address3":"Zalki","state":"Karnataka","state_code":"19","district":"Vijayapura","district_code":"557","address1":"Indi","address2":"","latitude":"17.0824","longitude":"76.1657","accuracy":"3"},{"address3":"Satalgaon (PB)","state":"Karnataka","state_code":"19","district":"Vijayapura","district_code":"557","address1":"Indi","address2":"","latitude":"17.0824","longitude":"76.1657","accuracy":"3"},{"address3":"Bardol (Bijapur(KAR))","state":"Karnataka","state_code":"19","district":"Vijayapura","district_code":"557","address1":"Indi","address2":"","latitude":"17.0824","longitude":"76.1657","accuracy":"3"},{"address3":"Jevoor","state":"Karnataka","state_code":"19","district":"Vijayapura","district_code":"557","address1":"Indi","address2":"","latitude":"17.0824","longitude":"76.1657","accuracy":"3"},{"address3":"Jigjivani","state":"Karnataka","state_code":"19","district":"Vijayapura","district_code":"557","address1":"Indi","address2":"","latitude":"17.0824","longitude":"76.1657","accuracy":"3"},{"address3":"Loni BK","state":"Karnataka","state_code":"19","district":"Vijayapura","district_code":"557","address1":"Indi","address2":"","latitude":"17.0824","longitude":"76.1657","accuracy":"3"},{"address3":"Taddewadi","state":"Karnataka","state_code":"19","district":"Vijayapura","district_code":"557","address1":"Indi","address2":"","latitude":"17.0824","longitude":"76.1657","accuracy":"3"},{"address3":"Manankalgi","state":"Karnataka","state_code":"19","district":"Vijayapura","district_code":"557","address1":"Indi","address2":"","latitude":"17.0824","longitude":"76.1657","accuracy":"3"}],"586205":[{"address3":"Halahalli","state":"Karnataka","state_code":"19","district":"Vijayapura","district_code":"557","address1":"Indi","address2":"","latitude":"16.7937","longitude":"75.9531","accuracy":"3"},{"address3":"Chadchan","state":"Karnataka","state_code":"19","district":"Vijayapura","district_code":"557","address1":"Indi","address2":"","latitude":"17.3126","longitude":"75.6581","accuracy":"4"},{"address3":"Havinal","state":"Karnataka","state_code":"19","district":"Vijayapura","district_code":"557","address1":"Indi","address2":"","latitude":"17.3126","longitude":"75.6581","accuracy":"3"},{"address3":"Hattalli","state":"Karnataka","state_code":"19","district":"Vijayapura","district_code":"557","address1":"Indi","address2":"","latitude":"17.3126","longitude":"75.6581","accuracy":"3"},{"address3":"Umaraj","state":"Karnataka","state_code":"19","district":"Vijayapura","district_code":"557","address1":"Indi","address2":"","latitude":"17.3126","longitude":"75.6581","accuracy":"3"},{"address3":"Jeerankalgi","state":"Karnataka","state_code":"19","district":"Vijayapura","district_code":"557","address1":"Indi","address2":"","latitude":"17.3126","longitude":"75.6581","accuracy":"3"},{"address3":"Shiradon","state":"Karnataka","state_code":"19","district":"Vijayapura","district_code":"557","address1":"Indi","address2":"","latitude":"17.3126","longitude":"75.6581","accuracy":"3"},{"address3":"Sankh","state":"Karnataka","state_code":"19","district":"Vijayapura","district_code":"557","address1":"Indi","address2":"","latitude":"17.3126","longitude":"75.6581","accuracy":"3"},{"address3":"Revatgaon","state":"Karnataka","state_code":"19","district":"Vijayapura","district_code":"557","address1":"Indi","address2":"","latitude":"17.3126","longitude":"75.6581","accuracy":"3"},{"address3":"Nivargi","state":"Karnataka","state_code":"19","district":"Vijayapura","district_code":"557","address1":"Indi","address2":"","latitude":"17.3126","longitude":"75.6581","accuracy":"3"},{"address3":"Umrani","state":"Karnataka","state_code":"19","district":"Vijayapura","district_code":"557","address1":"Indi","address2":"","latitude":"17.3126","longitude":"75.6581","accuracy":"3"}],"586206":[{"address3":"Kumshi","state":"Karnataka","state_code":"19","district":"Vijayapura","district_code":"557","address1":"Sindgi","address2":"","latitude":"16.7937","longitude":"75.9531","accuracy":"4"},{"address3":"Bommanahalli","state":"Karnataka","state_code":"19","district":"Vijayapura","district_code":"557","address1":"Sindgi","address2":"","latitude":"16.5282","longitude":"76.2974","accuracy":"4"},{"address3":"Devangaon","state":"Karnataka","state_code":"19","district":"Vijayapura","district_code":"557","address1":"Sindgi","address2":"","latitude":"17.1662","longitude":"76.3295","accuracy":"4"},{"address3":"Devar Navadagi","state":"Karnataka","state_code":"19","district":"Vijayapura","district_code":"557","address1":"Sindgi","address2":"","latitude":"17.0492","longitude":"76.4906","accuracy":"3"},{"address3":"Kadlewad(Pa)","state":"Karnataka","state_code":"19","district":"Vijayapura","district_code":"557","address1":"Sindgi","address2":"","latitude":"17.0492","longitude":"76.4906","accuracy":"3"}],"586207":[{"address3":"Halsangi","state":"Karnataka","state_code":"19","district":"Vijayapura","district_code":"557","address1":"Indi","address2":"","latitude":"17.3227","longitude":"75.8601","accuracy":"4"},{"address3":"Hingani","state":"Karnataka","state_code":"19","district":"Vijayapura","district_code":"557","address1":"Indi","address2":"","latitude":"17.3227","longitude":"75.8601","accuracy":"3"},{"address3":"Dhulkhed","state":"Karnataka","state_code":"19","district":"Vijayapura","district_code":"557","address1":"Indi","address2":"","latitude":"17.3227","longitude":"75.8601","accuracy":"3"},{"address3":"Channegaon","state":"Karnataka","state_code":"19","district":"Vijayapura","district_code":"557","address1":"Indi","address2":"","latitude":"17.3227","longitude":"75.8601","accuracy":"3"},{"address3":"Arjanal","state":"Karnataka","state_code":"19","district":"Vijayapura","district_code":"557","address1":"Indi","address2":"","latitude":"17.3227","longitude":"75.8601","accuracy":"3"},{"address3":"Bhatgunki","state":"Karnataka","state_code":"19","district":"Vijayapura","district_code":"557","address1":"Indi","address2":"","latitude":"17.3227","longitude":"75.8601","accuracy":"3"},{"address3":"Bhairungi","state":"Karnataka","state_code":"19","district":"Vijayapura","district_code":"557","address1":"B.bagewadi","address2":"","latitude":"17.3227","longitude":"75.8601","accuracy":"3"}],"586208":[{"address3":"Konnur","state":"Karnataka","state_code":"19","district":"Vijayapura","district_code":"557","address1":"Muddebihal","address2":"","latitude":"16.5246","longitude":"76.1699","accuracy":"4"},{"address3":"Wadwadgi","state":"Karnataka","state_code":"19","district":"Vijayapura","district_code":"557","address1":"B.bagewadi","address2":"","latitude":"16.5415","longitude":"76.123","accuracy":"3"},{"address3":"Huvin Hippargi","state":"Karnataka","state_code":"19","district":"Vijayapura","district_code":"557","address1":"B.bagewadi","address2":"","latitude":"16.5584","longitude":"76.0761","accuracy":"4"},{"address3":"K.Salwadgi","state":"Karnataka","state_code":"19","district":"Vijayapura","district_code":"557","address1":"Muddebihal","address2":"","latitude":"16.5415","longitude":"76.123","accuracy":"3"},{"address3":"Budihal;","state":"Karnataka","state_code":"19","district":"Vijayapura","district_code":"557","address1":"Muddebihal","address2":"","latitude":"16.5415","longitude":"76.123","accuracy":"3"},{"address3":"Byakod (BGW)","state":"Karnataka","state_code":"19","district":"Vijayapura","district_code":"557","address1":"B.bagewadi","address2":"","latitude":"16.5415","longitude":"76.123","accuracy":"3"},{"address3":"Somanal","state":"Karnataka","state_code":"19","district":"Vijayapura","district_code":"557","address1":"B.bagewadi","address2":"","latitude":"16.5415","longitude":"76.123","accuracy":"3"},{"address3":"Hunshyal","state":"Karnataka","state_code":"19","district":"Vijayapura","district_code":"557","address1":"Basavana Bagevadi","address2":"","latitude":"16.5415","longitude":"76.123","accuracy":"3"}],"586209":[{"address3":"Chikbevanur","state":"Karnataka","state_code":"19","district":"Vijayapura","district_code":"557","address1":"Indi","address2":"","latitude":"16.7048","longitude":"76.074","accuracy":"3"},{"address3":"Anjutagi","state":"Karnataka","state_code":"19","district":"Vijayapura","district_code":"557","address1":"Indi","address2":"","latitude":"16.7048","longitude":"76.074","accuracy":"3"},{"address3":"Indi","state":"Karnataka","state_code":"19","district":"Vijayapura","district_code":"557","address1":"Indi","address2":"","latitude":"17.1773","longitude":"75.9526","accuracy":"4"},{"address3":"Chowdihal","state":"Karnataka","state_code":"19","district":"Vijayapura","district_code":"557","address1":"Indi","address2":"","latitude":"16.7048","longitude":"76.074","accuracy":"3"},{"address3":"Alur","state":"Karnataka","state_code":"19","district":"Vijayapura","district_code":"557","address1":"Indi","address2":"","latitude":"16.2323","longitude":"76.1954","accuracy":"4"},{"address3":"Tadavalaga","state":"Karnataka","state_code":"19","district":"Vijayapura","district_code":"557","address1":"Indi","address2":"","latitude":"16.7048","longitude":"76.074","accuracy":"3"},{"address3":"Indi Road","state":"Karnataka","state_code":"19","district":"Vijayapura","district_code":"557","address1":"Indi","address2":"","latitude":"16.7048","longitude":"76.074","accuracy":"3"},{"address3":"Ingalagi","state":"Karnataka","state_code":"19","district":"Vijayapura","district_code":"557","address1":"Indi","address2":"","latitude":"16.7048","longitude":"76.074","accuracy":"3"},{"address3":"Hanjagi","state":"Karnataka","state_code":"19","district":"Vijayapura","district_code":"557","address1":"Indi","address2":"","latitude":"16.7048","longitude":"76.074","accuracy":"3"},{"address3":"Hirerugi","state":"Karnataka","state_code":"19","district":"Vijayapura","district_code":"557","address1":"Indi","address2":"","latitude":"16.7048","longitude":"76.074","accuracy":"3"},{"address3":"Halagunaki","state":"Karnataka","state_code":"19","district":"Vijayapura","district_code":"557","address1":"Indi","address2":"","latitude":"16.7048","longitude":"76.074","accuracy":"3"},{"address3":"Babalad","state":"Karnataka","state_code":"19","district":"Vijayapura","district_code":"557","address1":"Indi","address2":"","latitude":"16.7048","longitude":"76.074","accuracy":"3"}],"586210":[{"address3":"Hanamapur","state":"Karnataka","state_code":"19","district":"Vijayapura","district_code":"557","address1":"B.bagewadi","address2":"","latitude":"16.7937","longitude":"75.9531","accuracy":"1"},{"address3":"Kolhar (Bijapur(KAR))","state":"Karnataka","state_code":"19","district":"Vijayapura","district_code":"557","address1":"B.bagewadi","address2":"","latitude":"16.6108","longitude":"76.1476","accuracy":"1"},{"address3":"Mattihal","state":"Karnataka","state_code":"19","district":"Vijayapura","district_code":"557","address1":"B.bagewadi","address2":"","latitude":"16.6108","longitude":"76.1476","accuracy":"1"},{"address3":"Halladgennur","state":"Karnataka","state_code":"19","district":"Vijayapura","district_code":"557","address1":"B.bagewadi","address2":"","latitude":"16.6108","longitude":"76.1476","accuracy":"1"},{"address3":"Halerolli","state":"Karnataka","state_code":"19","district":"Vijayapura","district_code":"557","address1":"Basavana Bagevadi","address2":"","latitude":"16.6108","longitude":"76.1476","accuracy":"1"},{"address3":"Kupakaddi","state":"Karnataka","state_code":"19","district":"Vijayapura","district_code":"557","address1":"B.bagewadi","address2":"","latitude":"16.6108","longitude":"76.1476","accuracy":"1"},{"address3":"Baluti","state":"Karnataka","state_code":"19","district":"Vijayapura","district_code":"557","address1":"B.bagewadi","address2":"","latitude":"16.6108","longitude":"76.1476","accuracy":"1"},{"address3":"Siddanath","state":"Karnataka","state_code":"19","district":"Vijayapura","district_code":"557","address1":"B.bagewadi","address2":"","latitude":"16.6108","longitude":"76.1476","accuracy":"1"},{"address3":"Hangargi","state":"Karnataka","state_code":"19","district":"Vijayapura","district_code":"557","address1":"Bijapur","address2":"","latitude":"16.6108","longitude":"76.1476","accuracy":"1"},{"address3":"Ronihal","state":"Karnataka","state_code":"19","district":"Vijayapura","district_code":"557","address1":"B.bagewadi","address2":"","latitude":"16.6108","longitude":"76.1476","accuracy":"1"},{"address3":"Asangi Khurd","state":"Karnataka","state_code":"19","district":"Vijayapura","district_code":"557","address1":"B.bagewadi","address2":"","latitude":"16.6108","longitude":"76.1476","accuracy":"1"},{"address3":"Kurabardinni","state":"Karnataka","state_code":"19","district":"Vijayapura","district_code":"557","address1":"B.bagewadi","address2":"","latitude":"16.6108","longitude":"76.1476","accuracy":"1"}],"586211":[{"address3":"Nimb R.S.","state":"Karnataka","state_code":"19","district":"Vijayapura","district_code":"557","address1":"Indi","address2":"","latitude":"17.104","longitude":"75.8542","accuracy":"3"},{"address3":"Nimbal","state":"Karnataka","state_code":"19","district":"Vijayapura","district_code":"557","address1":"Indi","address2":"","latitude":"17.104","longitude":"75.8542","accuracy":"4"},{"address3":"Lachyan","state":"Karnataka","state_code":"19","district":"Vijayapura","district_code":"557","address1":"Indi","address2":"","latitude":"17.104","longitude":"75.8542","accuracy":"3"},{"address3":"Bargudi","state":"Karnataka","state_code":"19","district":"Vijayapura","district_code":"557","address1":"Indi","address2":"","latitude":"17.104","longitude":"75.8542","accuracy":"3"},{"address3":"Padnur","state":"Karnataka","state_code":"19","district":"Vijayapura","district_code":"557","address1":"Indi","address2":"","latitude":"17.104","longitude":"75.8542","accuracy":"3"},{"address3":"Ahirsang","state":"Karnataka","state_code":"19","district":"Vijayapura","district_code":"557","address1":"Indi","address2":"","latitude":"17.104","longitude":"75.8542","accuracy":"3"}],"586212":[{"address3":"Shivapur","state":"Karnataka","state_code":"19","district":"Vijayapura","district_code":"557","address1":"Muddebihal","address2":"","latitude":"16.398","longitude":"76.297","accuracy":"4"},{"address3":"Kavadimatti","state":"Karnataka","state_code":"19","district":"Vijayapura","district_code":"557","address1":"Muddebihal","address2":"","latitude":"16.3316","longitude":"76.1743","accuracy":"4"},{"address3":"Kuntoji","state":"Karnataka","state_code":"19","district":"Vijayapura","district_code":"557","address1":"Muddebihal","address2":"","latitude":"16.7937","longitude":"75.9531","accuracy":"4"},{"address3":"Nagur","state":"Karnataka","state_code":"19","district":"Vijayapura","district_code":"557","address1":"Muddebihal","address2":"","latitude":"16.4087","longitude":"76.3268","accuracy":"4"},{"address3":"Mukihal","state":"Karnataka","state_code":"19","district":"Vijayapura","district_code":"557","address1":"Muddebihal","address2":"","latitude":"16.4386","longitude":"76.2779","accuracy":"4"},{"address3":"Madinal","state":"Karnataka","state_code":"19","district":"Vijayapura","district_code":"557","address1":"Muddebihal","address2":"","latitude":"16.3556","longitude":"76.072","accuracy":"4"},{"address3":"Hulagbal","state":"Karnataka","state_code":"19","district":"Vijayapura","district_code":"557","address1":"Muddebihal","address2":"","latitude":"16.4106","longitude":"76.2438","accuracy":"4"},{"address3":"Bavur","state":"Karnataka","state_code":"19","district":"Vijayapura","district_code":"557","address1":"Muddebihal","address2":"","latitude":"16.4447","longitude":"76.2504","accuracy":"4"},{"address3":"Muddebiahl","state":"Karnataka","state_code":"19","district":"Vijayapura","district_code":"557","address1":"Muddebihal","address2":"","latitude":"16.2836","longitude":"76.2902","accuracy":"3"},{"address3":"Hagargond","state":"Karnataka","state_code":"19","district":"Vijayapura","district_code":"557","address1":"Muddebihal","address2":"","latitude":"16.2836","longitude":"76.2902","accuracy":"3"},{"address3":"Yarzeri","state":"Karnataka","state_code":"19","district":"Vijayapura","district_code":"557","address1":"Muddebihal","address2":"","latitude":"16.2836","longitude":"76.2902","accuracy":"3"},{"address3":"Ingalgeri","state":"Karnataka","state_code":"19","district":"Vijayapura","district_code":"557","address1":"Muddebihal","address2":"","latitude":"16.2836","longitude":"76.2902","accuracy":"3"},{"address3":"Narebenchi","state":"Karnataka","state_code":"19","district":"Vijayapura","district_code":"557","address1":"Muddebihal","address2":"","latitude":"16.2836","longitude":"76.2902","accuracy":"3"},{"address3":"Jammaldinni","state":"Karnataka","state_code":"19","district":"Vijayapura","district_code":"557","address1":"Muddebihal","address2":"","latitude":"16.2836","longitude":"76.2902","accuracy":"3"},{"address3":"Muddebihal Fort","state":"Karnataka","state_code":"19","district":"Vijayapura","district_code":"557","address1":"Muddebihal","address2":"","latitude":"16.2836","longitude":"76.2902","accuracy":"3"},{"address3":"Hadalgeri","state":"Karnataka","state_code":"19","district":"Vijayapura","district_code":"557","address1":"Muddebihal","address2":"","latitude":"16.2836","longitude":"76.2902","accuracy":"3"},{"address3":"Bidarkundi","state":"Karnataka","state_code":"19","district":"Vijayapura","district_code":"557","address1":"Muddebihal","address2":"","latitude":"16.2836","longitude":"76.2902","accuracy":"3"},{"address3":"Devar Hulagbal","state":"Karnataka","state_code":"19","district":"Vijayapura","district_code":"557","address1":"Muddebihal","address2":"","latitude":"16.2836","longitude":"76.2902","accuracy":"3"}],"586213":[{"address3":"Kalgi","state":"Karnataka","state_code":"19","district":"Vijayapura","district_code":"557","address1":"Muddebihal","address2":"","latitude":"16.7937","longitude":"75.9531","accuracy":"4"},{"address3":"Hebbal","state":"Karnataka","state_code":"19","district":"Vijayapura","district_code":"557","address1":"B.bagewadi","address2":"","latitude":"16.7937","longitude":"75.9531","accuracy":"4"},{"address3":"Hullur Lt","state":"Karnataka","state_code":"19","district":"Vijayapura","district_code":"557","address1":"Muddebihal","address2":"","latitude":"16.403","longitude":"76.0946","accuracy":"3"},{"address3":"Nidgundi","state":"Karnataka","state_code":"19","district":"Vijayapura","district_code":"557","address1":"B.bagewadi","address2":"","latitude":"16.3583","longitude":"75.931","accuracy":"4"},{"address3":"Balabatti","state":"Karnataka","state_code":"19","district":"Vijayapura","district_code":"557","address1":"Muddebihal","address2":"","latitude":"16.403","longitude":"76.0946","accuracy":"3"},{"address3":"Itagi","state":"Karnataka","state_code":"19","district":"Vijayapura","district_code":"557","address1":"B Bagewadi","address2":"","latitude":"16.3803","longitude":"76.0021","accuracy":"4"},{"address3":"Yalgur","state":"Karnataka","state_code":"19","district":"Vijayapura","district_code":"557","address1":"Muddebihal","address2":"","latitude":"16.403","longitude":"76.0946","accuracy":"3"},{"address3":"Hullur","state":"Karnataka","state_code":"19","district":"Vijayapura","district_code":"557","address1":"Muddebihal","address2":"","latitude":"16.3475","longitude":"76.0281","accuracy":"4"},{"address3":"Budihal Pn","state":"Karnataka","state_code":"19","district":"Vijayapura","district_code":"557","address1":"Muddebihal","address2":"","latitude":"16.403","longitude":"76.0946","accuracy":"3"},{"address3":"Abbihal","state":"Karnataka","state_code":"19","district":"Vijayapura","district_code":"557","address1":"B.bagewadi","address2":"","latitude":"16.3552","longitude":"76.1874","accuracy":"4"}],"586214":[{"address3":"Gadisomanal","state":"Karnataka","state_code":"19","district":"Vijayapura","district_code":"557","address1":"Muddebihal","address2":"","latitude":"16.5475","longitude":"76.332","accuracy":"4"},{"address3":"Talikoti","state":"Karnataka","state_code":"19","district":"Vijayapura","district_code":"557","address1":"Muddebihal","address2":"","latitude":"16.4731","longitude":"76.3108","accuracy":"4"},{"address3":"Bilebhavi","state":"Karnataka","state_code":"19","district":"Vijayapura","district_code":"557","address1":"Muddebihal","address2":"","latitude":"16.4276","longitude":"76.3692","accuracy":"4"},{"address3":"Tumbagi","state":"Karnataka","state_code":"19","district":"Vijayapura","district_code":"557","address1":"Muddebihal","address2":"","latitude":"16.5788","longitude":"76.289","accuracy":"4"},{"address3":"Hirur","state":"Karnataka","state_code":"19","district":"Vijayapura","district_code":"557","address1":"Muddebihal","address2":"","latitude":"16.5374","longitude":"76.2456","accuracy":"4"},{"address3":"Minajagi","state":"Karnataka","state_code":"19","district":"Vijayapura","district_code":"557","address1":"Muddebihal","address2":"","latitude":"16.528","longitude":"76.1732","accuracy":"3"},{"address3":"Kodaganur","state":"Karnataka","state_code":"19","district":"Vijayapura","district_code":"557","address1":"Muddebihal","address2":"","latitude":"16.5197","longitude":"76.3741","accuracy":"4"},{"address3":"Phattepur","state":"Karnataka","state_code":"19","district":"Vijayapura","district_code":"557","address1":"Muddebihal","address2":"","latitude":"16.528","longitude":"76.1732","accuracy":"3"},{"address3":"Sasanur","state":"Karnataka","state_code":"19","district":"Vijayapura","district_code":"557","address1":"B.bagewadi","address2":"","latitude":"16.5924","longitude":"76.2578","accuracy":"4"},{"address3":"Peerapur","state":"Karnataka","state_code":"19","district":"Vijayapura","district_code":"557","address1":"Muddebihal","address2":"","latitude":"16.528","longitude":"76.1732","accuracy":"3"},{"address3":"Tamadaddi","state":"Karnataka","state_code":"19","district":"Vijayapura","district_code":"557","address1":"Muddebihal","address2":"","latitude":"16.7937","longitude":"75.9531","accuracy":"4"},{"address3":"Navadagi","state":"Karnataka","state_code":"19","district":"Vijayapura","district_code":"557","address1":"Muddebihal","address2":"","latitude":"16.528","longitude":"76.1732","accuracy":"3"},{"address3":"Bommanahalli","state":"Karnataka","state_code":"19","district":"Vijayapura","district_code":"557","address1":"Muddebihal","address2":"","latitude":"16.5282","longitude":"76.2974","accuracy":"4"},{"address3":"Maileshwar","state":"Karnataka","state_code":"19","district":"Vijayapura","district_code":"557","address1":"Muddebihal","address2":"","latitude":"16.528","longitude":"76.1732","accuracy":"3"},{"address3":"Chabanur","state":"Karnataka","state_code":"19","district":"Vijayapura","district_code":"557","address1":"B.bagewadi","address2":"","latitude":"16.528","longitude":"76.1732","accuracy":"3"},{"address3":"Bhantanur (TKT)","state":"Karnataka","state_code":"19","district":"Vijayapura","district_code":"557","address1":"Muddebihal","address2":"","latitude":"16.528","longitude":"76.1732","accuracy":"3"},{"address3":"Balaganur","state":"Karnataka","state_code":"19","district":"Vijayapura","district_code":"557","address1":"Muddebihal","address2":"","latitude":"16.528","longitude":"76.1732","accuracy":"3"},{"address3":"B.Salwadgi","state":"Karnataka","state_code":"19","district":"Vijayapura","district_code":"557","address1":"B.bagewadi","address2":"","latitude":"16.528","longitude":"76.1732","accuracy":"3"}],"586215":[{"address3":"Tamba","state":"Karnataka","state_code":"19","district":"Vijayapura","district_code":"557","address1":"Indi","address2":"","latitude":"17.0001","longitude":"75.9934","accuracy":"4"},{"address3":"Banthanal","state":"Karnataka","state_code":"19","district":"Vijayapura","district_code":"557","address1":"Indi","address2":"","latitude":"16.9895","longitude":"76.0591","accuracy":"4"},{"address3":"Chattarki","state":"Karnataka","state_code":"19","district":"Vijayapura","district_code":"557","address1":"Indi","address2":"","latitude":"17.0148","longitude":"76.0201","accuracy":"3"},{"address3":"Gornal","state":"Karnataka","state_code":"19","district":"Vijayapura","district_code":"557","address1":"Indi","address2":"","latitude":"17.0549","longitude":"76.0079","accuracy":"4"},{"address3":"Surgihalli","state":"Karnataka","state_code":"19","district":"Vijayapura","district_code":"557","address1":"Sindgi","address2":"","latitude":"17.0148","longitude":"76.0201","accuracy":"3"},{"address3":"Chikrugi","state":"Karnataka","state_code":"19","district":"Vijayapura","district_code":"557","address1":"Indi","address2":"","latitude":"17.0148","longitude":"76.0201","accuracy":"3"},{"address3":"Hiremasali","state":"Karnataka","state_code":"19","district":"Vijayapura","district_code":"557","address1":"Indi","address2":"","latitude":"17.0148","longitude":"76.0201","accuracy":"3"},{"address3":"Tenihalli","state":"Karnataka","state_code":"19","district":"Vijayapura","district_code":"557","address1":"Indi","address2":"","latitude":"17.0148","longitude":"76.0201","accuracy":"3"},{"address3":"Hachyal","state":"Karnataka","state_code":"19","district":"Vijayapura","district_code":"557","address1":"Sindgi","address2":"","latitude":"17.0148","longitude":"76.0201","accuracy":"3"},{"address3":"Hittinhalli (LT)","state":"Karnataka","state_code":"19","district":"Vijayapura","district_code":"557","address1":"Sindgi","address2":"","latitude":"17.0148","longitude":"76.0201","accuracy":"3"}],"586216":[{"address3":"Mannur","state":"Karnataka","state_code":"19","district":"Vijayapura","district_code":"557","address1":"B.bagewadi","address2":"","latitude":"16.7861","longitude":"76.1151","accuracy":"4"},{"address3":"Angadgeri","state":"Karnataka","state_code":"19","district":"Vijayapura","district_code":"557","address1":"Muddebihal","address2":"","latitude":"16.4931","longitude":"76.0889","accuracy":"3"},{"address3":"Takkalki","state":"Karnataka","state_code":"19","district":"Vijayapura","district_code":"557","address1":"Muddebihal","address2":"","latitude":"16.1653","longitude":"76.2639","accuracy":"4"},{"address3":"Telgi","state":"Karnataka","state_code":"19","district":"Vijayapura","district_code":"557","address1":"B.bagewadi","address2":"","latitude":"16.4931","longitude":"76.0889","accuracy":"3"},{"address3":"Muttagi","state":"Karnataka","state_code":"19","district":"Vijayapura","district_code":"557","address1":"B.bagewadi","address2":"","latitude":"16.528","longitude":"75.8875","accuracy":"4"},{"address3":"Koulagi","state":"Karnataka","state_code":"19","district":"Vijayapura","district_code":"557","address1":"B.bagewadi","address2":"","latitude":"16.4931","longitude":"76.0889","accuracy":"3"},{"address3":"Hangargi","state":"Karnataka","state_code":"19","district":"Vijayapura","district_code":"557","address1":"Basavana Bagevadi","address2":"","latitude":"16.4931","longitude":"76.0889","accuracy":"3"},{"address3":"Golasangi","state":"Karnataka","state_code":"19","district":"Vijayapura","district_code":"557","address1":"Muddebihal","address2":"","latitude":"16.4931","longitude":"76.0889","accuracy":"3"}],"586217":[{"address3":"Salotgi","state":"Karnataka","state_code":"19","district":"Vijayapura","district_code":"557","address1":"Indi","address2":"","latitude":"17.1321","longitude":"76.0193","accuracy":"4"},{"address3":"Mirgi","state":"Karnataka","state_code":"19","district":"Vijayapura","district_code":"557","address1":"Indi","address2":"","latitude":"17.1746","longitude":"76.171","accuracy":"4"},{"address3":"Khedgi","state":"Karnataka","state_code":"19","district":"Vijayapura","district_code":"557","address1":"Indi","address2":"","latitude":"17.234","longitude":"76.1344","accuracy":"4"},{"address3":"Teggihalli","state":"Karnataka","state_code":"19","district":"Vijayapura","district_code":"557","address1":"Indi","address2":"","latitude":"17.0743","longitude":"76.1564","accuracy":"4"},{"address3":"Vibhuthalli","state":"Karnataka","state_code":"19","district":"Vijayapura","district_code":"557","address1":"Indi","address2":"","latitude":"17.1534","longitude":"76.1141","accuracy":"3"},{"address3":"Golsar","state":"Karnataka","state_code":"19","district":"Vijayapura","district_code":"557","address1":"Indi","address2":"","latitude":"17.1611","longitude":"76.1278","accuracy":"4"},{"address3":"Arjunagi","state":"Karnataka","state_code":"19","district":"Vijayapura","district_code":"557","address1":"Indi","address2":"","latitude":"17.1534","longitude":"76.1141","accuracy":"3"},{"address3":"Satalgaon","state":"Karnataka","state_code":"19","district":"Vijayapura","district_code":"557","address1":"Indi","address2":"","latitude":"17.1446","longitude":"76.0756","accuracy":"4"},{"address3":"Shirshyad","state":"Karnataka","state_code":"19","district":"Vijayapura","district_code":"557","address1":"Indi","address2":"","latitude":"17.1534","longitude":"76.1141","accuracy":"3"},{"address3":"Rodagi","state":"Karnataka","state_code":"19","district":"Vijayapura","district_code":"557","address1":"Indi","address2":"","latitude":"17.1534","longitude":"76.1141","accuracy":"3"},{"address3":"Nadkhurd","state":"Karnataka","state_code":"19","district":"Vijayapura","district_code":"557","address1":"Indi","address2":"","latitude":"17.1534","longitude":"76.1141","accuracy":"3"}],"credits":[{"name":"geonames","url":"https://www.geonames.org"}],"last_update":"2019-03-01T09:01:32.436Z"}