{"600001":[{"address3":"Mannady (Chennai)","state":"Tamil Nadu","state_code":"25","district":"Chennai","district_code":"603","address1":"Tondiarpet Fort St George","address2":"","latitude":"13.093","longitude":"80.2882","accuracy":"4"},{"address3":"Mint Building","state":"Tamil Nadu","state_code":"25","district":"Chennai","district_code":"603","address1":"Tondiarpet Fort St George","address2":"","latitude":"13.0914","longitude":"80.2828","accuracy":"3"},{"address3":"Sowcarpet","state":"Tamil Nadu","state_code":"25","district":"Chennai","district_code":"603","address1":"Tondiarpet Fort St George","address2":"","latitude":"13.0898","longitude":"80.2775","accuracy":"4"},{"address3":"Chennai G.P.O.","state":"Tamil Nadu","state_code":"25","district":"Chennai","district_code":"603","address1":"Chennai","address2":"","latitude":"13.0914","longitude":"80.2828","accuracy":"3"},{"address3":"Flower Bazaar","state":"Tamil Nadu","state_code":"25","district":"Chennai","district_code":"603","address1":"NA","address2":"","latitude":"13.0914","longitude":"80.2828","accuracy":"3"},{"address3":"Govt Stanley Hospital","state":"Tamil Nadu","state_code":"25","district":"Chennai","district_code":"603","address1":"Tondiarpet Fort St George","address2":"","latitude":"13.0914","longitude":"80.2828","accuracy":"3"}],"600002":[{"address3":"Chintadripet","state":"Tamil Nadu","state_code":"25","district":"Chennai","district_code":"603","address1":"Chennai","address2":"","latitude":"13.0744","longitude":"80.2714","accuracy":"4"},{"address3":"Anna Road H.O","state":"Tamil Nadu","state_code":"25","district":"Chennai","district_code":"603","address1":"Chennai","address2":"","latitude":"13.0744","longitude":"80.2714","accuracy":"3"},{"address3":"Madras Electricity System","state":"Tamil Nadu","state_code":"25","district":"Chennai","district_code":"603","address1":"Chennai","address2":"","latitude":"13.0744","longitude":"80.2714","accuracy":"3"}],"600003":[{"address3":"Ripon Buildings","state":"Tamil Nadu","state_code":"25","district":"Chennai","district_code":"603","address1":"Tondiarpet Fort St George","address2":"","latitude":"13.0754","longitude":"80.2737","accuracy":"1"},{"address3":"Madras Medical College","state":"Tamil Nadu","state_code":"25","district":"Chennai","district_code":"603","address1":"Tondiarpet Fort St George","address2":"","latitude":"13.0754","longitude":"80.2737","accuracy":"1"},{"address3":"Edapalayam","state":"Tamil Nadu","state_code":"25","district":"Chennai","district_code":"603","address1":"Tondiarpet Fort St George","address2":"","latitude":"13.0754","longitude":"80.2737","accuracy":"1"},{"address3":"Park Town H.O","state":"Tamil Nadu","state_code":"25","district":"Chennai","district_code":"603","address1":"Tondiarpet Fort St George","address2":"","latitude":"13.0754","longitude":"80.2737","accuracy":"1"}],"600004":[{"address3":"Mandaveli","state":"Tamil Nadu","state_code":"25","district":"Chennai","district_code":"603","address1":"Chennai","address2":"","latitude":"13.0754","longitude":"80.2737","accuracy":"1"},{"address3":"Vivekananda College Madras","state":"Tamil Nadu","state_code":"25","district":"Chennai","district_code":"603","address1":"Chennai","address2":"","latitude":"13.0754","longitude":"80.2737","accuracy":"1"},{"address3":"Mylapore H.O","state":"Tamil Nadu","state_code":"25","district":"Chennai","district_code":"603","address1":"Chennai","address2":"","latitude":"13.0754","longitude":"80.2737","accuracy":"1"}],"600005":[{"address3":"Parthasarathy Koil","state":"Tamil Nadu","state_code":"25","district":"Chennai","district_code":"603","address1":"Chennai","address2":"","latitude":"13.0572","longitude":"80.2778","accuracy":"3"},{"address3":"Tiruvallikkeni","state":"Tamil Nadu","state_code":"25","district":"Chennai","district_code":"603","address1":"Chennai","address2":"","latitude":"13.055","longitude":"80.2767","accuracy":"4"},{"address3":"Madras University","state":"Tamil Nadu","state_code":"25","district":"Chennai","district_code":"603","address1":"Chennai","address2":"","latitude":"13.0572","longitude":"80.2778","accuracy":"3"},{"address3":"Chepauk","state":"Tamil Nadu","state_code":"25","district":"Chennai","district_code":"603","address1":"Chennai","address2":"","latitude":"13.0594","longitude":"80.2789","accuracy":"4"}],"600006":[{"address3":"Teynampet West","state":"Tamil Nadu","state_code":"25","district":"Chennai","district_code":"603","address1":"Chennai","address2":"","latitude":"13.0754","longitude":"80.2737","accuracy":"1"},{"address3":"Greams Road","state":"Tamil Nadu","state_code":"25","district":"Chennai","district_code":"603","address1":"Chennai","address2":"","latitude":"13.0754","longitude":"80.2737","accuracy":"1"},{"address3":"DPI","state":"Tamil Nadu","state_code":"25","district":"Chennai","district_code":"603","address1":"Chennai","address2":"","latitude":"13.0754","longitude":"80.2737","accuracy":"1"},{"address3":"Shastri Bhavan","state":"Tamil Nadu","state_code":"25","district":"Chennai","district_code":"603","address1":"Chennai","address2":"","latitude":"13.0754","longitude":"80.2737","accuracy":"1"}],"600007":[{"address3":"Vepery","state":"Tamil Nadu","state_code":"25","district":"Chennai","district_code":"603","address1":"Perambur Purasawalkam","address2":"","latitude":"13.0847","longitude":"80.2675","accuracy":"4"}],"600008":[{"address3":"Ethiraj Salai","state":"Tamil Nadu","state_code":"25","district":"Chennai","district_code":"603","address1":"Egmore Nungambakka","address2":"","latitude":"13.0717","longitude":"80.2556","accuracy":"3"},{"address3":"Egmore","state":"Tamil Nadu","state_code":"25","district":"Chennai","district_code":"603","address1":"NA","address2":"","latitude":"13.0717","longitude":"80.2556","accuracy":"4"},{"address3":"Egmore ND","state":"Tamil Nadu","state_code":"25","district":"Chennai","district_code":"603","address1":"NA","address2":"","latitude":"13.0717","longitude":"80.2556","accuracy":"3"}],"600009":[{"address3":"Fort St George","state":"Tamil Nadu","state_code":"25","district":"Chennai","district_code":"603","address1":"Tondiarpet Fort St George","address2":"","latitude":"13.0754","longitude":"80.2737","accuracy":"1"}],"600010":[{"address3":"Kilpauk Medical College","state":"Tamil Nadu","state_code":"25","district":"Chennai","district_code":"603","address1":"Perambur Purasawalkam","address2":"","latitude":"13.08","longitude":"80.2408","accuracy":"3"},{"address3":"Kilpauk","state":"Tamil Nadu","state_code":"25","district":"Chennai","district_code":"603","address1":"Perambur Purasawalkam","address2":"","latitude":"13.08","longitude":"80.2408","accuracy":"4"}],"600011":[{"address3":"Sembiam","state":"Tamil Nadu","state_code":"25","district":"Chennai","district_code":"603","address1":"Perambur Purasawalkam","address2":"","latitude":"13.1103","longitude":"80.2425","accuracy":"3"},{"address3":"Perambur","state":"Tamil Nadu","state_code":"25","district":"Chennai","district_code":"603","address1":"Perambur Purasawalkam","address2":"","latitude":"13.1103","longitude":"80.2425","accuracy":"4"},{"address3":"Perambur North","state":"Tamil Nadu","state_code":"25","district":"Chennai","district_code":"603","address1":"Perambur Purasawalkam","address2":"","latitude":"13.1103","longitude":"80.2425","accuracy":"3"}],"600012":[{"address3":"Venkatesapuram","state":"Tamil Nadu","state_code":"25","district":"Chennai","district_code":"603","address1":"Perambur Purasawalkam","address2":"","latitude":"13.0647","longitude":"80.2523","accuracy":"4"},{"address3":"Perambur Barracks","state":"Tamil Nadu","state_code":"25","district":"Chennai","district_code":"603","address1":"Perambur Purasawalkam","address2":"","latitude":"13.3357","longitude":"79.9451","accuracy":"3"},{"address3":"Puliyanthope","state":"Tamil Nadu","state_code":"25","district":"Chennai","district_code":"603","address1":"Perambur Purasawalkam","address2":"","latitude":"13.3357","longitude":"79.9451","accuracy":"3"}],"600013":[{"address3":"Rayapuram","state":"Tamil Nadu","state_code":"25","district":"Chennai","district_code":"603","address1":"Egmore Nungambakkam","address2":"","latitude":"13.1141","longitude":"80.2947","accuracy":"4"}],"600014":[{"address3":"Lloyds Estate","state":"Tamil Nadu","state_code":"25","district":"Chennai","district_code":"603","address1":"Chennai","address2":"","latitude":"13.0506","longitude":"80.2642","accuracy":"3"},{"address3":"Royapettah","state":"Tamil Nadu","state_code":"25","district":"Chennai","district_code":"603","address1":"Chennai","address2":"","latitude":"13.0506","longitude":"80.2642","accuracy":"4"}],"600015":[{"address3":"Saidapet (Chennai)","state":"Tamil Nadu","state_code":"25","district":"Chennai","district_code":"603","address1":"Chennai City Corporation","address2":"","latitude":"13.1096","longitude":"80.2146","accuracy":"1"},{"address3":"Guindy North","state":"Tamil Nadu","state_code":"25","district":"Chennai","district_code":"603","address1":"Chennai City Corporation","address2":"","latitude":"13.1096","longitude":"80.2146","accuracy":"1"}],"600016":[{"address3":"Meenambakkam","state":"Tamil Nadu","state_code":"25","district":"Kanchipuram","district_code":"604","address1":"Sriperumbudur","address2":"","latitude":"12.9846","longitude":"80.1747","accuracy":"4"},{"address3":"Chennai Airport","state":"Tamil Nadu","state_code":"25","district":"Kanchipuram","district_code":"604","address1":"Saidapet","address2":"","latitude":"12.9846","longitude":"80.1747","accuracy":"3"},{"address3":"St.Thomas Mount H.O","state":"Tamil Nadu","state_code":"25","district":"Kanchipuram","district_code":"604","address1":"Saidapet","address2":"","latitude":"12.9846","longitude":"80.1747","accuracy":"3"},{"address3":"Alandur(Reopened W.E.F.6.6.05)","state":"Tamil Nadu","state_code":"25","district":"Kanchipuram","district_code":"604","address1":"Saidapet","address2":"","latitude":"12.9846","longitude":"80.1747","accuracy":"3"}],"600017":[{"address3":"Thygarayanagar North ND","state":"Tamil Nadu","state_code":"25","district":"Chennai","district_code":"603","address1":"Chennai","address2":"","latitude":"13.1096","longitude":"80.2146","accuracy":"1"},{"address3":"Hindi Prachar Sabha","state":"Tamil Nadu","state_code":"25","district":"Chennai","district_code":"603","address1":"Chennai","address2":"","latitude":"13.1096","longitude":"80.2146","accuracy":"1"},{"address3":"Thygarayanagar H.O","state":"Tamil Nadu","state_code":"25","district":"Chennai","district_code":"603","address1":"Chennai","address2":"","latitude":"13.1096","longitude":"80.2146","accuracy":"1"},{"address3":"Thygarayanagar South NDS.O","state":"Tamil Nadu","state_code":"25","district":"Chennai","district_code":"603","address1":"Chennai","address2":"","latitude":"13.1096","longitude":"80.2146","accuracy":"1"}],"600018":[{"address3":"Pr. Accountant General","state":"Tamil Nadu","state_code":"25","district":"Chennai","district_code":"603","address1":"Chennai","address2":"","latitude":"13.0433","longitude":"80.2528","accuracy":"3"},{"address3":"Teynampet","state":"Tamil Nadu","state_code":"25","district":"Chennai","district_code":"603","address1":"Chennai","address2":"","latitude":"13.0433","longitude":"80.2528","accuracy":"4"}],"600019":[{"address3":"Kaladipet","state":"Tamil Nadu","state_code":"25","district":"Tiruvallur","district_code":"602","address1":"Ambattur","address2":"","latitude":"13.1582","longitude":"80.3018","accuracy":"3"},{"address3":"Tiruvottiyur","state":"Tamil Nadu","state_code":"25","district":"Tiruvallur","district_code":"602","address1":"Ambattur","address2":"","latitude":"13.1582","longitude":"80.3018","accuracy":"4"},{"address3":"Tondiarpet Rly Colony","state":"Tamil Nadu","state_code":"25","district":"Tiruvallur","district_code":"602","address1":"Ambattur","address2":"","latitude":"13.1582","longitude":"80.3018","accuracy":"3"},{"address3":"Shanmugapuram","state":"Tamil Nadu","state_code":"25","district":"Tiruvallur","district_code":"602","address1":"Ambattur","address2":"","latitude":"13.1582","longitude":"80.3018","accuracy":"3"},{"address3":"Tiruvottiyur West","state":"Tamil Nadu","state_code":"25","district":"Tiruvallur","district_code":"602","address1":"NA","address2":"","latitude":"13.1582","longitude":"80.3018","accuracy":"3"},{"address3":"Tiruvottiyur West","state":"Tamil Nadu","state_code":"25","district":"Tiruvallur","district_code":"602","address1":"Tiruvottiyur","address2":"","latitude":"13.1582","longitude":"80.3018","accuracy":"3"}],"600020":[{"address3":"Kasturibai Nagar","state":"Tamil Nadu","state_code":"25","district":"Chennai","district_code":"603","address1":"Chennai City Corporation","address2":"","latitude":"12.9967","longitude":"80.2603","accuracy":"3"},{"address3":"Shastri Nagar (Chennai)","state":"Tamil Nadu","state_code":"25","district":"Chennai","district_code":"603","address1":"Chennai City Corporation","address2":"","latitude":"12.9967","longitude":"80.2603","accuracy":"4"},{"address3":"Adyar (Chennai)","state":"Tamil Nadu","state_code":"25","district":"Chennai","district_code":"603","address1":"Chennai City Corporation","address2":"","latitude":"12.9967","longitude":"80.2603","accuracy":"3"}],"600021":[{"address3":"Washermanpet East","state":"Tamil Nadu","state_code":"25","district":"Chennai","district_code":"603","address1":"Tondiarpet Fort St George","address2":"","latitude":"13.121","longitude":"80.285","accuracy":"3"},{"address3":"Washermanpet","state":"Tamil Nadu","state_code":"25","district":"Chennai","district_code":"603","address1":"Tondiarpet Fort St George","address2":"","latitude":"13.121","longitude":"80.285","accuracy":"4"}],"600022":[{"address3":"Rajbhavan (Chennai)","state":"Tamil Nadu","state_code":"25","district":"Chennai","district_code":"603","address1":"Chennai City Corporation","address2":"","latitude":"13.0484","longitude":"80.2473","accuracy":"1"}],"600023":[{"address3":"Aynavaram","state":"Tamil Nadu","state_code":"25","district":"Chennai","district_code":"603","address1":"Perambur Purasawalkam","address2":"","latitude":"13.0484","longitude":"80.2473","accuracy":"1"}],"600024":[{"address3":"Kodambakkam","state":"Tamil Nadu","state_code":"25","district":"Chennai","district_code":"603","address1":"Chennai City Corporation","address2":"","latitude":"13.0481","longitude":"80.2214","accuracy":"4"}],"600025":[{"address3":"Engineering College (Chennai)","state":"Tamil Nadu","state_code":"25","district":"Chennai","district_code":"603","address1":"Chennai City Corporation","address2":"","latitude":"13.0484","longitude":"80.2473","accuracy":"1"}],"600026":[{"address3":"Vadapalani","state":"Tamil Nadu","state_code":"25","district":"Chennai","district_code":"603","address1":"Chennai City Corporation","address2":"","latitude":"13.0511","longitude":"80.2125","accuracy":"4"}],"600028":[{"address3":"Ramakrishna Nagar (Chennai)","state":"Tamil Nadu","state_code":"25","district":"Chennai","district_code":"603","address1":"Chennai City Corporation","address2":"","latitude":"13.025","longitude":"80.2575","accuracy":"3"},{"address3":"Raja Annamalaipuram","state":"Tamil Nadu","state_code":"25","district":"Chennai","district_code":"603","address1":"Chennai City Corporation","address2":"","latitude":"13.025","longitude":"80.2575","accuracy":"4"}],"600030":[{"address3":"Shenoy Nagar","state":"Tamil Nadu","state_code":"25","district":"Chennai","district_code":"603","address1":"Egmore Nungambakkam","address2":"","latitude":"13.0797","longitude":"80.2244","accuracy":"4"},{"address3":"Aminjikarai","state":"Tamil Nadu","state_code":"25","district":"Chennai","district_code":"603","address1":"Egmore Nungambakkam","address2":"","latitude":"13.0739","longitude":"80.2244","accuracy":"4"}],"600031":[{"address3":"World University Centre","state":"Tamil Nadu","state_code":"25","district":"Chennai","district_code":"603","address1":"Egmore Nungambakkm","address2":"","latitude":"13.07","longitude":"80.2408","accuracy":"3"},{"address3":"Chetput","state":"Tamil Nadu","state_code":"25","district":"Chennai","district_code":"603","address1":"Egmore Nungambakkam","address2":"","latitude":"13.07","longitude":"80.2408","accuracy":"4"}],"600032":[{"address3":"Ekkaduthangal","state":"Tamil Nadu","state_code":"25","district":"Chennai","district_code":"603","address1":"Chennai City Corporation","address2":"","latitude":"13.0659","longitude":"80.2365","accuracy":"1"},{"address3":"Guindy Industrial Estate","state":"Tamil Nadu","state_code":"25","district":"Chennai","district_code":"603","address1":"Chennai City Corporation","address2":"","latitude":"13.0659","longitude":"80.2365","accuracy":"1"}],"600033":[{"address3":"Mambalam R.S.","state":"Tamil Nadu","state_code":"25","district":"Chennai","district_code":"603","address1":"Chennai City Corporation","address2":"","latitude":"13.0389","longitude":"80.2258","accuracy":"3"},{"address3":"West Mambalam","state":"Tamil Nadu","state_code":"25","district":"Chennai","district_code":"603","address1":"Chennai City Corporation","address2":"","latitude":"13.0389","longitude":"80.2258","accuracy":"4"}],"600034":[{"address3":"Loyola College","state":"Tamil Nadu","state_code":"25","district":"Chennai","district_code":"603","address1":"Chennai","address2":"","latitude":"13.0606","longitude":"80.2344","accuracy":"3"},{"address3":"Nungambakkam","state":"Tamil Nadu","state_code":"25","district":"Chennai","district_code":"603","address1":"Chennai","address2":"","latitude":"13.0606","longitude":"80.2344","accuracy":"4"},{"address3":"Nungambakkam High Road","state":"Tamil Nadu","state_code":"25","district":"Chennai","district_code":"603","address1":"Chennai","address2":"","latitude":"13.0606","longitude":"80.2344","accuracy":"3"}],"600035":[{"address3":"Nandanam","state":"Tamil Nadu","state_code":"25","district":"Chennai","district_code":"603","address1":"Chennai City Corporation","address2":"","latitude":"13.0269","longitude":"80.2406","accuracy":"4"}],"600036":[{"address3":"Indian Institute Of Technology","state":"Tamil Nadu","state_code":"25","district":"Chennai","district_code":"603","address1":"Chennai City Corporation","address2":"","latitude":"13.0659","longitude":"80.2365","accuracy":"1"}],"600037":[{"address3":"Mogappair","state":"Tamil Nadu","state_code":"25","district":"Tiruvallur","district_code":"602","address1":"Ambattur","address2":"","latitude":"13.0659","longitude":"80.2365","accuracy":"1"},{"address3":"Mogappair West","state":"Tamil Nadu","state_code":"25","district":"Tiruvallur","district_code":"602","address1":"Ambattur","address2":"","latitude":"13.0659","longitude":"80.2365","accuracy":"1"}],"600038":[{"address3":"Icf Colony","state":"Tamil Nadu","state_code":"25","district":"Chennai","district_code":"603","address1":"Perambur Purasawalkam","address2":"","latitude":"13.0659","longitude":"80.2365","accuracy":"1"}],"600039":[{"address3":"Vyasar Nagar Colony","state":"Tamil Nadu","state_code":"25","district":"Chennai","district_code":"603","address1":"Tondiarpet Fort St George","address2":"","latitude":"13.1111","longitude":"80.2647","accuracy":"3"},{"address3":"Vyasarpadi","state":"Tamil Nadu","state_code":"25","district":"Chennai","district_code":"603","address1":"Tondiarpet Fort St George","address2":"","latitude":"13.1111","longitude":"80.2647","accuracy":"4"}],"600040":[{"address3":"Anna Nagar (Chennai)","state":"Tamil Nadu","state_code":"25","district":"Chennai","district_code":"603","address1":"Egmore Nungambakkam","address2":"","latitude":"12.8819","longitude":"80.0885","accuracy":"1"}],"600041":[{"address3":"Valmiki Nagar","state":"Tamil Nadu","state_code":"25","district":"Chennai","district_code":"603","address1":"Mylapore - Triplicane","address2":"","latitude":"12.9695","longitude":"80.2588","accuracy":"3"},{"address3":"Tiruvanmiyur","state":"Tamil Nadu","state_code":"25","district":"Chennai","district_code":"603","address1":"Chennai City Corporation","address2":"","latitude":"13.0647","longitude":"80.2523","accuracy":"4"},{"address3":"Palavakkam (Kanchipuram)","state":"Tamil Nadu","state_code":"25","district":"Kanchipuram","district_code":"604","address1":"Saidapet","address2":"","latitude":"12.9535","longitude":"80.2572","accuracy":"4"}],"600042":[{"address3":"Velacheri","state":"Tamil Nadu","state_code":"25","district":"Chennai","district_code":"603","address1":"Chennai City Corporation","address2":"","latitude":"13.0647","longitude":"80.2523","accuracy":"4"}],"600043":[{"address3":"Pallavaram","state":"Tamil Nadu","state_code":"25","district":"Kanchipuram","district_code":"604","address1":"NA","address2":"","latitude":"12.968","longitude":"80.1502","accuracy":"4"},{"address3":"Rajajinagar (Kanchipuram)","state":"Tamil Nadu","state_code":"25","district":"Kanchipuram","district_code":"604","address1":"NA","address2":"","latitude":"12.968","longitude":"80.1502","accuracy":"3"},{"address3":"Tirusulam","state":"Tamil Nadu","state_code":"25","district":"Kanchipuram","district_code":"604","address1":"NA","address2":"","latitude":"12.968","longitude":"80.1502","accuracy":"3"}],"600044":[{"address3":"Chromepet","state":"Tamil Nadu","state_code":"25","district":"Kanchipuram","district_code":"604","address1":"NA","address2":"","latitude":"12.9477","longitude":"80.1354","accuracy":"4"},{"address3":"Lakshmipuram","state":"Tamil Nadu","state_code":"25","district":"Kanchipuram","district_code":"604","address1":"NA","address2":"","latitude":"12.6668","longitude":"79.9829","accuracy":"4"},{"address3":"Bharathipuram (Kanchipuram)","state":"Tamil Nadu","state_code":"25","district":"Kanchipuram","district_code":"604","address1":"NA","address2":"","latitude":"12.8072","longitude":"80.0591","accuracy":"3"},{"address3":"Ganapathipuram Chromepet","state":"Tamil Nadu","state_code":"25","district":"Kanchipuram","district_code":"604","address1":"Alandur","address2":"","latitude":"12.8072","longitude":"80.0591","accuracy":"3"},{"address3":"Nagalkeni","state":"Tamil Nadu","state_code":"25","district":"Kanchipuram","district_code":"604","address1":"NA","address2":"","latitude":"12.8072","longitude":"80.0591","accuracy":"3"},{"address3":"Radhanagar (Kanchipuram)","state":"Tamil Nadu","state_code":"25","district":"Kanchipuram","district_code":"604","address1":"NA","address2":"","latitude":"12.8072","longitude":"80.0591","accuracy":"3"},{"address3":"Nehrunagar","state":"Tamil Nadu","state_code":"25","district":"Kanchipuram","district_code":"604","address1":"NA","address2":"","latitude":"12.8072","longitude":"80.0591","accuracy":"3"},{"address3":"Nemilichery","state":"Tamil Nadu","state_code":"25","district":"Kanchipuram","district_code":"604","address1":"Tambaram","address2":"","latitude":"12.8072","longitude":"80.0591","accuracy":"3"}],"600045":[{"address3":"Tambaram West","state":"Tamil Nadu","state_code":"25","district":"Kanchipuram","district_code":"604","address1":"Tambaram","address2":"","latitude":"12.8819","longitude":"80.0885","accuracy":"1"},{"address3":"Kasthuribainagar","state":"Tamil Nadu","state_code":"25","district":"Kanchipuram","district_code":"604","address1":"Tambaram","address2":"","latitude":"12.8819","longitude":"80.0885","accuracy":"1"},{"address3":"MEPZ Tambaram","state":"Tamil Nadu","state_code":"25","district":"Kanchipuram","district_code":"604","address1":"Tambaram","address2":"","latitude":"12.8819","longitude":"80.0885","accuracy":"1"},{"address3":"Irumbuliyur","state":"Tamil Nadu","state_code":"25","district":"Kanchipuram","district_code":"604","address1":"Tambaram","address2":"","latitude":"12.8819","longitude":"80.0885","accuracy":"1"},{"address3":"Tambaram H.O","state":"Tamil Nadu","state_code":"25","district":"Kanchipuram","district_code":"604","address1":"Tambaram","address2":"","latitude":"12.8819","longitude":"80.0885","accuracy":"1"}],"600046":[{"address3":"Tambaram IAF","state":"Tamil Nadu","state_code":"25","district":"Kanchipuram","district_code":"604","address1":"Tambaram","address2":"","latitude":"12.8819","longitude":"80.0885","accuracy":"1"}],"600047":[{"address3":"Tambaram Sanatorium","state":"Tamil Nadu","state_code":"25","district":"Kanchipuram","district_code":"604","address1":"Tambaram","address2":"","latitude":"12.8819","longitude":"80.0885","accuracy":"1"},{"address3":"Kadaperi","state":"Tamil Nadu","state_code":"25","district":"Kanchipuram","district_code":"604","address1":"Tambaram","address2":"","latitude":"12.8819","longitude":"80.0885","accuracy":"1"}],"600048":[{"address3":"Mannivakkam","state":"Tamil Nadu","state_code":"25","district":"Kanchipuram","district_code":"604","address1":"Chinglepet","address2":"","latitude":"12.8884","longitude":"80.0641","accuracy":"4"},{"address3":"Otteri Extension","state":"Tamil Nadu","state_code":"25","district":"Kanchipuram","district_code":"604","address1":"Tambaram","address2":"","latitude":"12.8904","longitude":"80.0724","accuracy":"3"},{"address3":"Vandalur","state":"Tamil Nadu","state_code":"25","district":"Kanchipuram","district_code":"604","address1":"Tambaram","address2":"","latitude":"12.8924","longitude":"80.0808","accuracy":"4"},{"address3":"Mudichur","state":"Tamil Nadu","state_code":"25","district":"Kanchipuram","district_code":"604","address1":"Tambaram","address2":"","latitude":"12.8904","longitude":"80.0724","accuracy":"3"}],"600049":[{"address3":"Tirumangalam Road","state":"Tamil Nadu","state_code":"25","district":"Tiruvallur","district_code":"602","address1":"Ambattur","address2":"","latitude":"13.1228","longitude":"80.1703","accuracy":"3"},{"address3":"Villivakkam","state":"Tamil Nadu","state_code":"25","district":"Tiruvallur","district_code":"602","address1":"Ambattur","address2":"","latitude":"13.1228","longitude":"80.1703","accuracy":"4"},{"address3":"Srinivasanagar","state":"Tamil Nadu","state_code":"25","district":"Chennai","district_code":"603","address1":"Ambattur","address2":"","latitude":"13.1228","longitude":"80.1703","accuracy":"3"},{"address3":"Rajajinagar","state":"Tamil Nadu","state_code":"25","district":"Chennai","district_code":"603","address1":"Ambattur","address2":"","latitude":"13.1228","longitude":"80.1703","accuracy":"3"}],"600050":[{"address3":"Padi","state":"Tamil Nadu","state_code":"25","district":"Tiruvallur","district_code":"602","address1":"Ambattur","address2":"","latitude":"13.2431","longitude":"79.94","accuracy":"4"},{"address3":"Korattur","state":"Tamil Nadu","state_code":"25","district":"Tiruvallur","district_code":"602","address1":"Ambattur","address2":"","latitude":"13.1063","longitude":"80.1734","accuracy":"4"},{"address3":"Jagadambigainagar","state":"Tamil Nadu","state_code":"25","district":"Tiruvallur","district_code":"602","address1":"Ambattur","address2":"","latitude":"12.9659","longitude":"79.7332","accuracy":"3"}],"600051":[{"address3":"Madhavaram Milk Colony","state":"Tamil Nadu","state_code":"25","district":"Tiruvallur","district_code":"602","address1":"Ponneri","address2":"","latitude":"13.1501","longitude":"80.242","accuracy":"4"}],"600052":[{"address3":"Vadakarai","state":"Tamil Nadu","state_code":"25","district":"Tiruvallur","district_code":"602","address1":"Ponneri","address2":"","latitude":"13.2431","longitude":"79.94","accuracy":"4"},{"address3":"Edapalayam","state":"Tamil Nadu","state_code":"25","district":"Tiruvallur","district_code":"602","address1":"Ponneri","address2":"","latitude":"12.9674","longitude":"79.4441","accuracy":"3"},{"address3":"Pammadukulam","state":"Tamil Nadu","state_code":"25","district":"Tiruvallur","district_code":"602","address1":"Ponneri","address2":"","latitude":"12.9674","longitude":"79.4441","accuracy":"3"},{"address3":"Vilangadupakkam","state":"Tamil Nadu","state_code":"25","district":"Tiruvallur","district_code":"602","address1":"Ponneri","address2":"","latitude":"13.1961","longitude":"80.2156","accuracy":"4"},{"address3":"Guruvoyal","state":"Tamil Nadu","state_code":"25","district":"Tiruvallur","district_code":"602","address1":"Ponneri","address2":"","latitude":"12.9674","longitude":"79.4441","accuracy":"3"},{"address3":"Redhills","state":"Tamil Nadu","state_code":"25","district":"Tiruvallur","district_code":"602","address1":"Ponneri","address2":"","latitude":"12.9674","longitude":"79.4441","accuracy":"3"},{"address3":"Padianallur","state":"Tamil Nadu","state_code":"25","district":"Tiruvallur","district_code":"602","address1":"Ambattur","address2":"","latitude":"12.9674","longitude":"79.4441","accuracy":"3"},{"address3":"Alamathi","state":"Tamil Nadu","state_code":"25","district":"Tiruvallur","district_code":"602","address1":"Ponneri","address2":"","latitude":"12.9674","longitude":"79.4441","accuracy":"3"},{"address3":"Boochiathipattu","state":"Tamil Nadu","state_code":"25","district":"Tiruvallur","district_code":"602","address1":"Ponneri","address2":"","latitude":"12.9674","longitude":"79.4441","accuracy":"3"}],"600053":[{"address3":"Menambedu","state":"Tamil Nadu","state_code":"25","district":"Tiruvallur","district_code":"602","address1":"Ambattur","address2":"","latitude":"13.2431","longitude":"79.94","accuracy":"4"},{"address3":"Prithivipakkam","state":"Tamil Nadu","state_code":"25","district":"Tiruvallur","district_code":"602","address1":"Ambattur","address2":"","latitude":"12.9571","longitude":"79.9937","accuracy":"3"},{"address3":"Ambattur H.O","state":"Tamil Nadu","state_code":"25","district":"Tiruvallur","district_code":"602","address1":"Ambattur","address2":"","latitude":"12.9571","longitude":"79.9937","accuracy":"3"},{"address3":"Oragadam","state":"Tamil Nadu","state_code":"25","district":"Tiruvallur","district_code":"602","address1":"Ambattur","address2":"","latitude":"13.2431","longitude":"79.94","accuracy":"4"},{"address3":"Vijayalakshmipuram","state":"Tamil Nadu","state_code":"25","district":"Tiruvallur","district_code":"602","address1":"Ambattur","address2":"","latitude":"12.9571","longitude":"79.9937","accuracy":"3"},{"address3":"Thiruvengadnagar","state":"Tamil Nadu","state_code":"25","district":"Tiruvallur","district_code":"602","address1":"Ambattur","address2":"","latitude":"12.9571","longitude":"79.9937","accuracy":"3"}],"600054":[{"address3":"Avadi","state":"Tamil Nadu","state_code":"25","district":"Tiruvallur","district_code":"602","address1":"Ambattur","address2":"","latitude":"13.2431","longitude":"79.94","accuracy":"4"},{"address3":"Gandhinagar","state":"Tamil Nadu","state_code":"25","district":"Tiruvallur","district_code":"602","address1":"Ambattur","address2":"","latitude":"13.1147","longitude":"80.1098","accuracy":"3"},{"address3":"Tank Factory Avadi","state":"Tamil Nadu","state_code":"25","district":"Tiruvallur","district_code":"602","address1":"Ambattur","address2":"","latitude":"13.1147","longitude":"80.1098","accuracy":"3"},{"address3":"Cvrde","state":"Tamil Nadu","state_code":"25","district":"Tiruvallur","district_code":"602","address1":"Ambattur","address2":"","latitude":"13.1147","longitude":"80.1098","accuracy":"3"},{"address3":"Avadi Camp H.O","state":"Tamil Nadu","state_code":"25","district":"Tiruvallur","district_code":"602","address1":"Ambattur","address2":"","latitude":"13.1147","longitude":"80.1098","accuracy":"3"}],"600055":[{"address3":"Palavedu","state":"Tamil Nadu","state_code":"25","district":"Tiruvallur","district_code":"602","address1":"Poonamallee","address2":"","latitude":"13.1547","longitude":"80.0694","accuracy":"4"},{"address3":"Koduvalli","state":"Tamil Nadu","state_code":"25","district":"Tiruvallur","district_code":"602","address1":"Poonamallee","address2":"","latitude":"13.1547","longitude":"80.0694","accuracy":"3"},{"address3":"CRP Camp","state":"Tamil Nadu","state_code":"25","district":"Tiruvallur","district_code":"602","address1":"Ambattur","address2":"","latitude":"13.1547","longitude":"80.0694","accuracy":"3"},{"address3":"Pandeeswaram","state":"Tamil Nadu","state_code":"25","district":"Tiruvallur","district_code":"602","address1":"Poonamallee","address2":"","latitude":"13.1547","longitude":"80.0694","accuracy":"3"},{"address3":"Avadi IAF","state":"Tamil Nadu","state_code":"25","district":"Tiruvallur","district_code":"602","address1":"Ambattur","address2":"","latitude":"13.1547","longitude":"80.0694","accuracy":"3"},{"address3":"Morai","state":"Tamil Nadu","state_code":"25","district":"Tiruvallur","district_code":"602","address1":"Poonamallee","address2":"","latitude":"13.1547","longitude":"80.0694","accuracy":"3"},{"address3":"Mittanamalli","state":"Tamil Nadu","state_code":"25","district":"Tiruvallur","district_code":"602","address1":"Poonamallee","address2":"","latitude":"13.1547","longitude":"80.0694","accuracy":"3"}],"600056":[{"address3":"Poonamallee","state":"Tamil Nadu","state_code":"25","district":"Tiruvallur","district_code":"602","address1":"Poonamalee","address2":"","latitude":"13.2431","longitude":"79.94","accuracy":"4"},{"address3":"Poonamallee East","state":"Tamil Nadu","state_code":"25","district":"Tiruvallur","district_code":"602","address1":"Poonamallee","address2":"","latitude":"13.0384","longitude":"79.8277","accuracy":"3"},{"address3":"Senneerkuppam","state":"Tamil Nadu","state_code":"25","district":"Tiruvallur","district_code":"602","address1":"Poonamallee","address2":"","latitude":"13.0384","longitude":"79.8277","accuracy":"3"},{"address3":"Kattupakkam","state":"Tamil Nadu","state_code":"25","district":"Tiruvallur","district_code":"602","address1":"Poonamallee","address2":"","latitude":"13.2431","longitude":"79.94","accuracy":"4"},{"address3":"Iyyappanthangal","state":"Tamil Nadu","state_code":"25","district":"Kanchipuram","district_code":"604","address1":"Sriperumbudur","address2":"","latitude":"13.0384","longitude":"79.8277","accuracy":"3"}],"600057":[{"address3":"Ernavur","state":"Tamil Nadu","state_code":"25","district":"Tiruvallur","district_code":"602","address1":"NA","address2":"","latitude":"13.0252","longitude":"79.8562","accuracy":"1"},{"address3":"Kamarajnagar","state":"Tamil Nadu","state_code":"25","district":"Tiruvallur","district_code":"602","address1":"Ponneri","address2":"","latitude":"13.0252","longitude":"79.8562","accuracy":"1"},{"address3":"Ennore RS","state":"Tamil Nadu","state_code":"25","district":"Tiruvallur","district_code":"602","address1":"Ambattur","address2":"","latitude":"13.0252","longitude":"79.8562","accuracy":"1"},{"address3":"Ennore Thermal Station","state":"Tamil Nadu","state_code":"25","district":"Tiruvallur","district_code":"602","address1":"Ponneri","address2":"","latitude":"13.0252","longitude":"79.8562","accuracy":"1"}],"600058":[{"address3":"Ambattur Indl Estate","state":"Tamil Nadu","state_code":"25","district":"Tiruvallur","district_code":"602","address1":"Ambattur","address2":"","latitude":"13.0252","longitude":"79.8562","accuracy":"1"},{"address3":"Athipattu","state":"Tamil Nadu","state_code":"25","district":"Tiruvallur","district_code":"602","address1":"Ambattur","address2":"","latitude":"13.0252","longitude":"79.8562","accuracy":"1"}],"600059":[{"address3":"LIC Colony Tambaram","state":"Tamil Nadu","state_code":"25","district":"Kanchipuram","district_code":"604","address1":"Tambaram","address2":"","latitude":"13.0252","longitude":"79.8562","accuracy":"1"},{"address3":"Lic Colony Tambaram","state":"Tamil Nadu","state_code":"25","district":"Kanchipuram","district_code":"604","address1":"Tambaram","address2":"","latitude":"13.0252","longitude":"79.8562","accuracy":"1"},{"address3":"Tambaram East","state":"Tamil Nadu","state_code":"25","district":"Kanchipuram","district_code":"604","address1":"Tambaram","address2":"","latitude":"13.0252","longitude":"79.8562","accuracy":"1"},{"address3":"Christian College Tambaram","state":"Tamil Nadu","state_code":"25","district":"Kanchipuram","district_code":"604","address1":"Tambaram","address2":"","latitude":"13.0252","longitude":"79.8562","accuracy":"1"},{"address3":"Sundaram Colony","state":"Tamil Nadu","state_code":"25","district":"Kanchipuram","district_code":"604","address1":"Tambaram","address2":"","latitude":"13.0252","longitude":"79.8562","accuracy":"1"}],"600060":[{"address3":"Madhavaram (Tiruvallur)","state":"Tamil Nadu","state_code":"25","district":"Tiruvallur","district_code":"602","address1":"Ponneri","address2":"","latitude":"13.1269","longitude":"80.2467","accuracy":"3"},{"address3":"Moolakadai","state":"Tamil Nadu","state_code":"25","district":"Tiruvallur","district_code":"602","address1":"Gummidipoondi","address2":"","latitude":"13.1269","longitude":"80.2467","accuracy":"4"},{"address3":"Vadaperumbakkam","state":"Tamil Nadu","state_code":"25","district":"Tiruvallur","district_code":"602","address1":"Ambattur","address2":"","latitude":"13.1269","longitude":"80.2467","accuracy":"3"}],"600061":[{"address3":"Nanganallur","state":"Tamil Nadu","state_code":"25","district":"Kanchipuram","district_code":"604","address1":"Saidapet","address2":"","latitude":"12.9805","longitude":"80.1881","accuracy":"4"},{"address3":"Pazhavanthangal","state":"Tamil Nadu","state_code":"25","district":"Kanchipuram","district_code":"604","address1":"Saidapet","address2":"","latitude":"12.9805","longitude":"80.1881","accuracy":"3"}],"600062":[{"address3":"Railway Carshed Complex","state":"Tamil Nadu","state_code":"25","district":"Tiruvallur","district_code":"602","address1":"Poonamallee","address2":"","latitude":"13.158","longitude":"80.1063","accuracy":"3"},{"address3":"Velnagar Vellanur","state":"Tamil Nadu","state_code":"25","district":"Tiruvallur","district_code":"602","address1":"Avadi","address2":"","latitude":"13.158","longitude":"80.1063","accuracy":"3"},{"address3":"Vellanur","state":"Tamil Nadu","state_code":"25","district":"Tiruvallur","district_code":"602","address1":"Poonamallee","address2":"","latitude":"13.158","longitude":"80.1063","accuracy":"4"},{"address3":"Senthilnagar","state":"Tamil Nadu","state_code":"25","district":"Tiruvallur","district_code":"602","address1":"Poonamallee","address2":"","latitude":"13.158","longitude":"80.1063","accuracy":"3"},{"address3":"Tirumullaivoyal","state":"Tamil Nadu","state_code":"25","district":"Tiruvallur","district_code":"602","address1":"Poonamallee","address2":"","latitude":"13.158","longitude":"80.1063","accuracy":"3"},{"address3":"Kovilpadagai","state":"Tamil Nadu","state_code":"25","district":"Tiruvallur","district_code":"602","address1":"Poonamallee","address2":"","latitude":"13.158","longitude":"80.1063","accuracy":"3"}],"600063":[{"address3":"Srinivasanagar (Kanchipuram)","state":"Tamil Nadu","state_code":"25","district":"Kanchipuram","district_code":"604","address1":"Tambaram","address2":"","latitude":"13.0063","longitude":"79.8869","accuracy":"1"},{"address3":"Old Perungalathur","state":"Tamil Nadu","state_code":"25","district":"Kanchipuram","district_code":"604","address1":"Tambaram","address2":"","latitude":"13.0063","longitude":"79.8869","accuracy":"1"},{"address3":"Srinivasanagar East","state":"Tamil Nadu","state_code":"25","district":"Kanchipuram","district_code":"604","address1":"Tambaram","address2":"","latitude":"13.0063","longitude":"79.8869","accuracy":"1"}],"600064":[{"address3":"Chitlapakkam","state":"Tamil Nadu","state_code":"25","district":"Kanchipuram","district_code":"604","address1":"NA","address2":"","latitude":"13.0063","longitude":"79.8869","accuracy":"1"},{"address3":"Hasthinapuram","state":"Tamil Nadu","state_code":"25","district":"Kanchipuram","district_code":"604","address1":"NA","address2":"","latitude":"13.0063","longitude":"79.8869","accuracy":"1"}],"600066":[{"address3":"Kadirvedu","state":"Tamil Nadu","state_code":"25","district":"Tiruvallur","district_code":"602","address1":"Ambattur","address2":"","latitude":"13.0063","longitude":"79.8869","accuracy":"1"},{"address3":"Pozhal","state":"Tamil Nadu","state_code":"25","district":"Tiruvallur","district_code":"602","address1":"Ponneri","address2":"","latitude":"13.0063","longitude":"79.8869","accuracy":"1"}],"600067":[{"address3":"Jagannathapuram","state":"Tamil Nadu","state_code":"25","district":"Tiruvallur","district_code":"602","address1":"Ponneri","address2":"","latitude":"13.2431","longitude":"79.94","accuracy":"4"},{"address3":"Orakadu","state":"Tamil Nadu","state_code":"25","district":"Tiruvallur","district_code":"602","address1":"Ponneri","address2":"","latitude":"12.9517","longitude":"79.6216","accuracy":"3"},{"address3":"Alinjivakkam","state":"Tamil Nadu","state_code":"25","district":"Tiruvallur","district_code":"602","address1":"Ponneri","address2":"","latitude":"13.2737","longitude":"80.149","accuracy":"4"},{"address3":"Sholavaram","state":"Tamil Nadu","state_code":"25","district":"Tiruvallur","district_code":"602","address1":"Ponneri","address2":"","latitude":"12.9517","longitude":"79.6216","accuracy":"3"},{"address3":"Budur","state":"Tamil Nadu","state_code":"25","district":"Tiruvallur","district_code":"602","address1":"Ponneri","address2":"","latitude":"13.2431","longitude":"79.94","accuracy":"4"},{"address3":"Erumaivettipalayam","state":"Tamil Nadu","state_code":"25","district":"Tiruvallur","district_code":"602","address1":"Ponneri","address2":"","latitude":"12.9517","longitude":"79.6216","accuracy":"3"},{"address3":"Nayar","state":"Tamil Nadu","state_code":"25","district":"Tiruvallur","district_code":"602","address1":"Ponneri","address2":"","latitude":"13.2626","longitude":"80.2194","accuracy":"4"}],"600068":[{"address3":"Manali (Tiruvallur)","state":"Tamil Nadu","state_code":"25","district":"Tiruvallur","district_code":"602","address1":"Ambattur","address2":"","latitude":"13.0063","longitude":"79.8869","accuracy":"1"}],"600069":[{"address3":"Sirukalathur","state":"Tamil Nadu","state_code":"25","district":"Kanchipuram","district_code":"604","address1":"Sriperumbudur","address2":"","latitude":"12.978","longitude":"80.0678","accuracy":"3"},{"address3":"Nandambakkam","state":"Tamil Nadu","state_code":"25","district":"Kanchipuram","district_code":"604","address1":"Sriperumbudur","address2":"","latitude":"12.978","longitude":"80.0678","accuracy":"4"},{"address3":"Somangalam","state":"Tamil Nadu","state_code":"25","district":"Kanchipuram","district_code":"604","address1":"Sriperumbudur","address2":"","latitude":"12.978","longitude":"80.0678","accuracy":"3"},{"address3":"Kunnathur (Kanchipuram)","state":"Tamil Nadu","state_code":"25","district":"Kanchipuram","district_code":"604","address1":"Sriperumbudur","address2":"","latitude":"12.978","longitude":"80.0678","accuracy":"3"},{"address3":"South Malayambakkam","state":"Tamil Nadu","state_code":"25","district":"Kanchipuram","district_code":"604","address1":"Sriperumbudur","address2":"","latitude":"12.978","longitude":"80.0678","accuracy":"3"}],"600070":[{"address3":"Anakaputhur","state":"Tamil Nadu","state_code":"25","district":"Kanchipuram","district_code":"604","address1":"NA","address2":"","latitude":"12.9828","longitude":"80.1264","accuracy":"4"}],"600071":[{"address3":"Paruthipattu","state":"Tamil Nadu","state_code":"25","district":"Tiruvallur","district_code":"602","address1":"Poonamallee","address2":"","latitude":"12.9591","longitude":"80.1436","accuracy":"1"},{"address3":"Kamarajnagar","state":"Tamil Nadu","state_code":"25","district":"Tiruvallur","district_code":"602","address1":"Poonamallee","address2":"","latitude":"12.9591","longitude":"80.1436","accuracy":"1"}],"600072":[{"address3":"Thandarai","state":"Tamil Nadu","state_code":"25","district":"Tiruvallur","district_code":"602","address1":"Poonamallee","address2":"","latitude":"12.9591","longitude":"80.1436","accuracy":"1"},{"address3":"Soranjeri","state":"Tamil Nadu","state_code":"25","district":"Tiruvallur","district_code":"602","address1":"Poonamallee","address2":"","latitude":"12.9591","longitude":"80.1436","accuracy":"1"},{"address3":"Arignar Anna Nagar","state":"Tamil Nadu","state_code":"25","district":"Tiruvallur","district_code":"602","address1":"Poonamallee","address2":"","latitude":"12.9591","longitude":"80.1436","accuracy":"1"},{"address3":"Pattabiram","state":"Tamil Nadu","state_code":"25","district":"Tiruvallur","district_code":"602","address1":"Poonamallee","address2":"","latitude":"12.9591","longitude":"80.1436","accuracy":"1"},{"address3":"Kolappancheri","state":"Tamil Nadu","state_code":"25","district":"Tiruvallur","district_code":"602","address1":"Poonamallee","address2":"","latitude":"12.9591","longitude":"80.1436","accuracy":"1"},{"address3":"Voyalanallur","state":"Tamil Nadu","state_code":"25","district":"Tiruvallur","district_code":"602","address1":"Poonamallee","address2":"","latitude":"12.9591","longitude":"80.1436","accuracy":"1"}],"600073":[{"address3":"Rajakilpakkam","state":"Tamil Nadu","state_code":"25","district":"Kanchipuram","district_code":"604","address1":"Tambaram","address2":"","latitude":"12.9194","longitude":"80.1697","accuracy":"4"},{"address3":"Selaiyur","state":"Tamil Nadu","state_code":"25","district":"Kanchipuram","district_code":"604","address1":"NA","address2":"","latitude":"12.6952","longitude":"79.9479","accuracy":"3"},{"address3":"Gowriwakkam","state":"Tamil Nadu","state_code":"25","district":"Kanchipuram","district_code":"604","address1":"NA","address2":"","latitude":"12.9194","longitude":"80.1697","accuracy":"3"}],"600074":[{"address3":"Polichalur","state":"Tamil Nadu","state_code":"25","district":"Kanchipuram","district_code":"604","address1":"Tambaram","address2":"","latitude":"12.9591","longitude":"80.1436","accuracy":"1"}],"600075":[{"address3":"Pammal","state":"Tamil Nadu","state_code":"25","district":"Kanchipuram","district_code":"604","address1":"NA","address2":"","latitude":"12.975","longitude":"80.1347","accuracy":"4"},{"address3":"Pammal East","state":"Tamil Nadu","state_code":"25","district":"Kanchipuram","district_code":"604","address1":"NA","address2":"","latitude":"12.975","longitude":"80.1347","accuracy":"3"}],"600076":[{"address3":"Korattur RS","state":"Tamil Nadu","state_code":"25","district":"Tiruvallur","district_code":"602","address1":"Ambattur","address2":"","latitude":"12.9591","longitude":"80.1436","accuracy":"1"}],"600077":[{"address3":"Veeraraghavapuram","state":"Tamil Nadu","state_code":"25","district":"Tiruvallur","district_code":"602","address1":"Poonamallee","address2":"","latitude":"12.9591","longitude":"80.1436","accuracy":"1"},{"address3":"Ayapakkam","state":"Tamil Nadu","state_code":"25","district":"Tiruvallur","district_code":"602","address1":"Poonamallee","address2":"","latitude":"12.9591","longitude":"80.1436","accuracy":"1"},{"address3":"Numbal","state":"Tamil Nadu","state_code":"25","district":"Tiruvallur","district_code":"602","address1":"Poonamallee","address2":"","latitude":"12.9591","longitude":"80.1436","accuracy":"1"},{"address3":"Thiruverkadu","state":"Tamil Nadu","state_code":"25","district":"Tiruvallur","district_code":"602","address1":"Poonamallee","address2":"","latitude":"12.9591","longitude":"80.1436","accuracy":"1"}],"600078":[{"address3":"Kalaignar Karunanidhi Nagar","state":"Tamil Nadu","state_code":"25","district":"Chennai","district_code":"603","address1":"Chennai City Corporation","address2":"","latitude":"12.9591","longitude":"80.1436","accuracy":"1"}],"600081":[{"address3":"Tondiarpet West","state":"Tamil Nadu","state_code":"25","district":"Chennai","district_code":"603","address1":"Tondiarpet Fort St George","address2":"","latitude":"13.1274","longitude":"80.2886","accuracy":"3"},{"address3":"Tondiarpet","state":"Tamil Nadu","state_code":"25","district":"Chennai","district_code":"603","address1":"Tondiarpet Fort St George","address2":"","latitude":"13.1274","longitude":"80.2886","accuracy":"4"},{"address3":"Tondiarpet Bazaar","state":"Tamil Nadu","state_code":"25","district":"Chennai","district_code":"603","address1":"Tondiarpet Fort St George","address2":"","latitude":"13.1274","longitude":"80.2886","accuracy":"3"}],"600082":[{"address3":"Kumaran Nagar","state":"Tamil Nadu","state_code":"25","district":"Chennai","district_code":"603","address1":"NA","address2":"","latitude":"13.1242","longitude":"80.2811","accuracy":"4"},{"address3":"Periyar Nagar","state":"Tamil Nadu","state_code":"25","district":"Chennai","district_code":"603","address1":"Perambur","address2":"","latitude":"13.0572","longitude":"80.2297","accuracy":"4"},{"address3":"G K M Colony","state":"Tamil Nadu","state_code":"25","district":"Chennai","district_code":"603","address1":"Perambur Purawalkam","address2":"","latitude":"13.0907","longitude":"80.2554","accuracy":"3"}],"600083":[{"address3":"Jafferkhanpet","state":"Tamil Nadu","state_code":"25","district":"Chennai","district_code":"603","address1":"Chennai City Corporation","address2":"","latitude":"13.0582","longitude":"80.24","accuracy":"1"},{"address3":"Ashoknagar (Chennai)","state":"Tamil Nadu","state_code":"25","district":"Chennai","district_code":"603","address1":"Chennai City Corporation","address2":"","latitude":"13.0582","longitude":"80.24","accuracy":"1"}],"600084":[{"address3":"Flowers Road","state":"Tamil Nadu","state_code":"25","district":"Chennai","district_code":"603","address1":"Perambur Purasawalkam","address2":"","latitude":"13.0582","longitude":"80.24","accuracy":"1"}],"600085":[{"address3":"Kotturpuram","state":"Tamil Nadu","state_code":"25","district":"Chennai","district_code":"603","address1":"Chennai City Corporation","address2":"","latitude":"13.0156","longitude":"80.2467","accuracy":"4"}],"600086":[{"address3":"Gopalapuram (Chennai)","state":"Tamil Nadu","state_code":"25","district":"Chennai","district_code":"603","address1":"Chennai","address2":"","latitude":"13.0472","longitude":"80.2578","accuracy":"4"}],"600087":[{"address3":"Valasaravakkam","state":"Tamil Nadu","state_code":"25","district":"Tiruvallur","district_code":"602","address1":"NA","address2":"","latitude":"13.0439","longitude":"80.1725","accuracy":"4"},{"address3":"Alwarthirunagar","state":"Tamil Nadu","state_code":"25","district":"Tiruvallur","district_code":"602","address1":"NA","address2":"","latitude":"13.0439","longitude":"80.1725","accuracy":"3"}],"600088":[{"address3":"Nilamangai Nagar","state":"Tamil Nadu","state_code":"25","district":"Kanchipuram","district_code":"604","address1":"Saidapet","address2":"","latitude":"12.9918","longitude":"80.2035","accuracy":"3"},{"address3":"Adambakkam","state":"Tamil Nadu","state_code":"25","district":"Kanchipuram","district_code":"604","address1":"NA","address2":"","latitude":"12.9918","longitude":"80.2035","accuracy":"4"}],"600089":[{"address3":"Nandambakkam Kudiyiruppu","state":"Tamil Nadu","state_code":"25","district":"Kanchipuram","district_code":"604","address1":"Saidapet","address2":"","latitude":"13.0582","longitude":"80.24","accuracy":"1"},{"address3":"Ramapuram (Kanchipuram)","state":"Tamil Nadu","state_code":"25","district":"Kanchipuram","district_code":"604","address1":"Saidapet","address2":"","latitude":"13.0582","longitude":"80.24","accuracy":"1"}],"600090":[{"address3":"Rajaji Bhavan","state":"Tamil Nadu","state_code":"25","district":"Chennai","district_code":"603","address1":"Chennai City Corporation","address2":"","latitude":"12.8503","longitude":"80.0707","accuracy":"1"},{"address3":"Besantnagar","state":"Tamil Nadu","state_code":"25","district":"Chennai","district_code":"603","address1":"Chennai City Corporation","address2":"","latitude":"12.8503","longitude":"80.0707","accuracy":"1"}],"600091":[{"address3":"Ram Nagar","state":"Tamil Nadu","state_code":"25","district":"Kanchipuram","district_code":"604","address1":"St.Thomas Mount","address2":"","latitude":"12.9623","longitude":"80.1986","accuracy":"3"},{"address3":"Madipakkam","state":"Tamil Nadu","state_code":"25","district":"Kanchipuram","district_code":"604","address1":"Saidapet","address2":"","latitude":"12.9623","longitude":"80.1986","accuracy":"4"},{"address3":"Madipakkam South","state":"Tamil Nadu","state_code":"25","district":"Kanchipuram","district_code":"604","address1":"Saidapet","address2":"","latitude":"12.9623","longitude":"80.1986","accuracy":"3"}],"600092":[{"address3":"Virugambakkam","state":"Tamil Nadu","state_code":"25","district":"Chennai","district_code":"603","address1":"Chennai City Corporation","address2":"","latitude":"13.0647","longitude":"80.2523","accuracy":"4"}],"600093":[{"address3":"Saligramam","state":"Tamil Nadu","state_code":"25","district":"Chennai","district_code":"603","address1":"Chennai City Corporation","address2":"","latitude":"13.0647","longitude":"80.2523","accuracy":"4"}],"600094":[{"address3":"Choolaimedu","state":"Tamil Nadu","state_code":"25","district":"Chennai","district_code":"603","address1":"Chennai","address2":"","latitude":"12.8503","longitude":"80.0707","accuracy":"1"}],"600095":[{"address3":"Ayanambakkam","state":"Tamil Nadu","state_code":"25","district":"Tiruvallur","district_code":"602","address1":"Poonamallee","address2":"","latitude":"13.0675","longitude":"80.1632","accuracy":"3"},{"address3":"Maduravoyal","state":"Tamil Nadu","state_code":"25","district":"Tiruvallur","district_code":"602","address1":"Poonamalee","address2":"","latitude":"13.0675","longitude":"80.1632","accuracy":"4"},{"address3":"Vanagaram","state":"Tamil Nadu","state_code":"25","district":"Tiruvallur","district_code":"602","address1":"Poonamallee","address2":"","latitude":"13.0675","longitude":"80.1632","accuracy":"3"}],"600096":[{"address3":"Perungudi","state":"Tamil Nadu","state_code":"25","district":"Kanchipuram","district_code":"604","address1":"Saidapet","address2":"","latitude":"12.9609","longitude":"80.2409","accuracy":"4"}],"600097":[{"address3":"Oggiamthoraipakkam","state":"Tamil Nadu","state_code":"25","district":"Kanchipuram","district_code":"604","address1":"NA","address2":"","latitude":"12.8503","longitude":"80.0707","accuracy":"1"},{"address3":"Karapakkam","state":"Tamil Nadu","state_code":"25","district":"Kanchipuram","district_code":"604","address1":"NA","address2":"","latitude":"12.8503","longitude":"80.0707","accuracy":"1"}],"600099":[{"address3":"Kolathur","state":"Tamil Nadu","state_code":"25","district":"Tiruvallur","district_code":"602","address1":"Ambattur","address2":"","latitude":"13.2431","longitude":"79.94","accuracy":"4"},{"address3":"Lakshmipuram","state":"Tamil Nadu","state_code":"25","district":"Chennai","district_code":"603","address1":"Ambattur","address2":"","latitude":"13.0647","longitude":"80.2523","accuracy":"4"}],"600100":[{"address3":"Medavakkam ","state":"Tamil Nadu","state_code":"25","district":"Kanchipuram","district_code":"604","address1":"Tambaram","address2":"","latitude":"12.9377","longitude":"80.2153","accuracy":"3"},{"address3":"Pallikaranai","state":"Tamil Nadu","state_code":"25","district":"Kanchipuram","district_code":"604","address1":"Tambaram","address2":"","latitude":"12.9377","longitude":"80.2153","accuracy":"4"}],"600101":[{"address3":"Anna Nagar Western Extn","state":"Tamil Nadu","state_code":"25","district":"Chennai","district_code":"603","address1":"Ambattur","address2":"","latitude":"13.0974","longitude":"80.195","accuracy":"1"}],"600102":[{"address3":"Anna Nagar East","state":"Tamil Nadu","state_code":"25","district":"Chennai","district_code":"603","address1":"Perambur Purasawalkam","address2":"","latitude":"13.0974","longitude":"80.195","accuracy":"1"}],"600103":[{"address3":"Andarkuppam","state":"Tamil Nadu","state_code":"25","district":"Tiruvallur","district_code":"602","address1":"Ambattur","address2":"","latitude":"13.3062","longitude":"80.1565","accuracy":"4"},{"address3":"Vichoor","state":"Tamil Nadu","state_code":"25","district":"Tiruvallur","district_code":"602","address1":"Ambattur","address2":"","latitude":"13.3062","longitude":"80.1565","accuracy":"3"},{"address3":"Manali New Town","state":"Tamil Nadu","state_code":"25","district":"Tiruvallur","district_code":"602","address1":"Gummidipoondi","address2":"","latitude":"13.3062","longitude":"80.1565","accuracy":"3"},{"address3":"Vellivoyalchavadi","state":"Tamil Nadu","state_code":"25","district":"Tiruvallur","district_code":"602","address1":"Ambattur","address2":"","latitude":"13.3062","longitude":"80.1565","accuracy":"3"}],"600104":[{"address3":"High Court Building (Chennai)","state":"Tamil Nadu","state_code":"25","district":"Chennai","district_code":"603","address1":"Tondiarpet Fort St George","address2":"","latitude":"13.0974","longitude":"80.195","accuracy":"1"}],"600106":[{"address3":"Arumbakkam","state":"Tamil Nadu","state_code":"25","district":"Chennai","district_code":"603","address1":"Maduravoyal","address2":"","latitude":"13.0734","longitude":"80.2069","accuracy":"4"},{"address3":"D G Vaishnav College","state":"Tamil Nadu","state_code":"25","district":"Chennai","district_code":"603","address1":"Egmore Nungambakkam","address2":"","latitude":"13.0734","longitude":"80.2069","accuracy":"3"}],"600107":[{"address3":"Nerkundram","state":"Tamil Nadu","state_code":"25","district":"Tiruvallur","district_code":"602","address1":"Chennai Corporation","address2":"","latitude":"13.0722","longitude":"80.2014","accuracy":"3"},{"address3":"Koyambedu Wholesale Market Com","state":"Tamil Nadu","state_code":"25","district":"Chennai","district_code":"603","address1":"Chennai City Corporation","address2":"","latitude":"13.0722","longitude":"80.2014","accuracy":"3"},{"address3":"Koyambedu","state":"Tamil Nadu","state_code":"25","district":"Chennai","district_code":"603","address1":"Maduravoyal","address2":"","latitude":"13.0647","longitude":"80.2523","accuracy":"4"}],"600110":[{"address3":"Ponniammanmedu","state":"Tamil Nadu","state_code":"25","district":"Tiruvallur","district_code":"602","address1":"Ambattur","address2":"","latitude":"13.13","longitude":"80.2311","accuracy":"4"}],"600113":[{"address3":"TTTI Taramani","state":"Tamil Nadu","state_code":"25","district":"Chennai","district_code":"603","address1":"Chennai City Corporation","address2":"","latitude":"12.9293","longitude":"80.034","accuracy":"1"},{"address3":"Tidel Park","state":"Tamil Nadu","state_code":"25","district":"Chennai","district_code":"603","address1":"Mambalam","address2":"","latitude":"12.9293","longitude":"80.034","accuracy":"1"}],"600115":[{"address3":"Injambakkam","state":"Tamil Nadu","state_code":"25","district":"Kanchipuram","district_code":"604","address1":"Kancheepuram","address2":"","latitude":"12.8959","longitude":"79.693","accuracy":"4"},{"address3":"Neelangarai","state":"Tamil Nadu","state_code":"25","district":"Kanchipuram","district_code":"604","address1":"Kanchipuram","address2":"","latitude":"12.8959","longitude":"79.693","accuracy":"3"}],"600116":[{"address3":"Alapakkam","state":"Tamil Nadu","state_code":"25","district":"Kanchipuram","district_code":"604","address1":"Sriperumbudur","address2":"","latitude":"12.6952","longitude":"79.9479","accuracy":"4"},{"address3":"Porur","state":"Tamil Nadu","state_code":"25","district":"Kanchipuram","district_code":"604","address1":"Sriperumbudur","address2":"","latitude":"12.3515","longitude":"79.9101","accuracy":"4"},{"address3":"Sriramachandra Deemed Uty","state":"Tamil Nadu","state_code":"25","district":"Kanchipuram","district_code":"604","address1":"Sriperumbudur","address2":"","latitude":"12.6666","longitude":"79.7855","accuracy":"3"}],"600117":[{"address3":"Old Pallavaram","state":"Tamil Nadu","state_code":"25","district":"Kanchipuram","district_code":"604","address1":"NA","address2":"","latitude":"12.9293","longitude":"80.034","accuracy":"1"},{"address3":"Keelakattalai","state":"Tamil Nadu","state_code":"25","district":"Kanchipuram","district_code":"604","address1":"Tambaram","address2":"","latitude":"12.9293","longitude":"80.034","accuracy":"1"}],"600118":[{"address3":"Erukkancheri","state":"Tamil Nadu","state_code":"25","district":"Chennai","district_code":"603","address1":"Chennai","address2":"","latitude":"13.0647","longitude":"80.2523","accuracy":"4"},{"address3":"Kodungaiyur","state":"Tamil Nadu","state_code":"25","district":"Chennai","district_code":"603","address1":"Chennai City","address2":"","latitude":"13.0647","longitude":"80.2523","accuracy":"4"},{"address3":"Rv Nagar","state":"Tamil Nadu","state_code":"25","district":"Chennai","district_code":"603","address1":"Chennai","address2":"","latitude":"13.1281","longitude":"80.2557","accuracy":"3"}],"600119":[{"address3":"Sholinganallur","state":"Tamil Nadu","state_code":"25","district":"Kanchipuram","district_code":"604","address1":"Saidapet","address2":"","latitude":"12.89","longitude":"80.2313","accuracy":"4"}],"600120":[{"address3":"North Chennai Thermal PP","state":"Tamil Nadu","state_code":"25","district":"Tiruvallur","district_code":"602","address1":"Ponneri","address2":"","latitude":"13.256","longitude":"80.2818","accuracy":"3"},{"address3":"Nandiambakkam","state":"Tamil Nadu","state_code":"25","district":"Tiruvallur","district_code":"602","address1":"Ambattur","address2":"","latitude":"13.256","longitude":"80.2818","accuracy":"3"},{"address3":"Vallur","state":"Tamil Nadu","state_code":"25","district":"Tiruvallur","district_code":"602","address1":"Ambattur","address2":"","latitude":"13.256","longitude":"80.2818","accuracy":"4"},{"address3":"Subbareddypalayam","state":"Tamil Nadu","state_code":"25","district":"Tiruvallur","district_code":"602","address1":"Ambattur","address2":"","latitude":"13.256","longitude":"80.2818","accuracy":"3"}],"600122":[{"address3":"Paraniputhur","state":"Tamil Nadu","state_code":"25","district":"Kanchipuram","district_code":"604","address1":"Sriperumbudur","address2":"","latitude":"12.8808","longitude":"79.3531","accuracy":"3"},{"address3":"Mangadu","state":"Tamil Nadu","state_code":"25","district":"Kanchipuram","district_code":"604","address1":"Sriperumbudur","address2":"","latitude":"12.6952","longitude":"79.9479","accuracy":"4"}],"600123":[{"address3":"Nazarethpettai","state":"Tamil Nadu","state_code":"25","district":"Tiruvallur","district_code":"602","address1":"Poonamallee","address2":"","latitude":"13.2431","longitude":"79.94","accuracy":"4"},{"address3":"Malayambakkam","state":"Tamil Nadu","state_code":"25","district":"Tiruvallur","district_code":"602","address1":"Poonamallee","address2":"","latitude":"13.2431","longitude":"79.94","accuracy":"4"},{"address3":"Sembarambakkam","state":"Tamil Nadu","state_code":"25","district":"Tiruvallur","district_code":"602","address1":"Poonamallee","address2":"","latitude":"13.2431","longitude":"79.94","accuracy":"4"}],"600124":[{"address3":"Vellavedu","state":"Tamil Nadu","state_code":"25","district":"Tiruvallur","district_code":"602","address1":"Poonamallee","address2":"","latitude":"12.7207","longitude":"79.6536","accuracy":"3"},{"address3":"Kuttambakkam","state":"Tamil Nadu","state_code":"25","district":"Tiruvallur","district_code":"602","address1":"Poonamallee","address2":"","latitude":"13.2431","longitude":"79.94","accuracy":"4"},{"address3":"Nemam","state":"Tamil Nadu","state_code":"25","district":"Tiruvallur","district_code":"602","address1":"Poonamallee","address2":"","latitude":"13.2431","longitude":"79.94","accuracy":"4"},{"address3":"Thirumushi","state":"Tamil Nadu","state_code":"25","district":"Tiruvallur","district_code":"602","address1":"Poonamallee","address2":"","latitude":"12.7207","longitude":"79.6536","accuracy":"3"},{"address3":"Puduchatram","state":"Tamil Nadu","state_code":"25","district":"Tiruvallur","district_code":"602","address1":"Poonamallee","address2":"","latitude":"12.7207","longitude":"79.6536","accuracy":"3"},{"address3":"Udayarkoil","state":"Tamil Nadu","state_code":"25","district":"Tiruvallur","district_code":"602","address1":"Poonamallee","address2":"","latitude":"12.7207","longitude":"79.6536","accuracy":"3"}],"600125":[{"address3":"Mugalivakkam","state":"Tamil Nadu","state_code":"25","district":"Kanchipuram","district_code":"604","address1":"Sriperumbudur","address2":"","latitude":"13.0205","longitude":"80.1653","accuracy":"4"},{"address3":"Manapakkam","state":"Tamil Nadu","state_code":"25","district":"Kanchipuram","district_code":"604","address1":"Sriperumbudur","address2":"","latitude":"13.0158","longitude":"80.1761","accuracy":"4"}],"600126":[{"address3":"Mappedu","state":"Tamil Nadu","state_code":"25","district":"Kanchipuram","district_code":"604","address1":"Tambaram","address2":"","latitude":"12.6952","longitude":"79.9479","accuracy":"4"},{"address3":"Madambakkam","state":"Tamil Nadu","state_code":"25","district":"Kanchipuram","district_code":"604","address1":"Tambaram","address2":"","latitude":"12.8525","longitude":"80.0467","accuracy":"4"}],"600127":[{"address3":"Nallambakkam","state":"Tamil Nadu","state_code":"25","district":"Kanchipuram","district_code":"604","address1":"Chinglepet","address2":"","latitude":"12.5223","longitude":"79.8379","accuracy":"3"},{"address3":"Mambakkam","state":"Tamil Nadu","state_code":"25","district":"Kanchipuram","district_code":"604","address1":"Tiruporur","address2":"","latitude":"12.4956","longitude":"79.8897","accuracy":"4"},{"address3":"Ponmar","state":"Tamil Nadu","state_code":"25","district":"Kanchipuram","district_code":"604","address1":"Chinglepet","address2":"","latitude":"12.5223","longitude":"79.8379","accuracy":"3"},{"address3":"Melakkottaiyur","state":"Tamil Nadu","state_code":"25","district":"Kanchipuram","district_code":"604","address1":"Chengalpattu","address2":"","latitude":"12.5223","longitude":"79.8379","accuracy":"3"},{"address3":"Kolapakkam","state":"Tamil Nadu","state_code":"25","district":"Kanchipuram","district_code":"604","address1":"Chinglepet","address2":"","latitude":"12.8708","longitude":"80.1078","accuracy":"4"},{"address3":"Kolathur","state":"Tamil Nadu","state_code":"25","district":"Kanchipuram","district_code":"604","address1":"Tiruporur","address2":"","latitude":"12.6952","longitude":"79.9479","accuracy":"4"}],"600128":[{"address3":"Kovur","state":"Tamil Nadu","state_code":"25","district":"Tiruvallur","district_code":"602","address1":"Poonamallee","address2":"","latitude":"13.2431","longitude":"79.94","accuracy":"4"},{"address3":"Thandalam","state":"Tamil Nadu","state_code":"25","district":"Kanchipuram","district_code":"604","address1":"Sriperumbudur","address2":"","latitude":"12.6952","longitude":"79.9479","accuracy":"4"},{"address3":"Gerugambakkam","state":"Tamil Nadu","state_code":"25","district":"Kanchipuram","district_code":"604","address1":"Sriperumbudur","address2":"","latitude":"13.0407","longitude":"79.2949","accuracy":"3"}],"600129":[{"address3":"Kovilambakkam","state":"Tamil Nadu","state_code":"25","district":"Kanchipuram","district_code":"604","address1":"Sholinganallur","address2":"","latitude":"12.8745","longitude":"79.763","accuracy":"1"}],"600130":[{"address3":"Thazambur","state":"Tamil Nadu","state_code":"25","district":"Kanchipuram","district_code":"604","address1":"Tiruporur","address2":"","latitude":"12.5938","longitude":"80.0429","accuracy":"3"},{"address3":"Navalur","state":"Tamil Nadu","state_code":"25","district":"Kanchipuram","district_code":"604","address1":"Tiruporur","address2":"","latitude":"12.5938","longitude":"80.0429","accuracy":"4"}],"600131":[{"address3":"Sithalapakkam","state":"Tamil Nadu","state_code":"25","district":"Kanchipuram","district_code":"604","address1":"TAMBARAM","address2":"","latitude":"12.5938","longitude":"80.0429","accuracy":"1"}],"600132":[{"address3":"Darkash","state":"Tamil Nadu","state_code":"25","district":"Kanchipuram","district_code":"604","address1":"Sriperumbudur","address2":"","latitude":"12.5938","longitude":"80.0429","accuracy":"1"},{"address3":"Tirumudivakkam","state":"Tamil Nadu","state_code":"25","district":"Kanchipuram","district_code":"604","address1":"Sriperumbudur","address2":"","latitude":"12.5938","longitude":"80.0429","accuracy":"1"},{"address3":"Tiruneermalai","state":"Tamil Nadu","state_code":"25","district":"Kanchipuram","district_code":"604","address1":"Tambaram","address2":"","latitude":"12.5938","longitude":"80.0429","accuracy":"1"}],"credits":[{"name":"geonames","url":"https://www.geonames.org"}],"last_update":"2019-03-01T09:01:35.062Z"}