{"601101":[{"address3":"Pondavakkam","state":"Tamil Nadu","state_code":"25","district":"Tiruvallur","district_code":"602","address1":"Ponneri","address2":"","latitude":"13.3448","longitude":"80.0996","accuracy":"4"},{"address3":"Panayancheri","state":"Tamil Nadu","state_code":"25","district":"Tiruvallur","district_code":"602","address1":"Ponneri","address2":"","latitude":"13.3364","longitude":"80.0846","accuracy":"3"},{"address3":"Rallapadi","state":"Tamil Nadu","state_code":"25","district":"Tiruvallur","district_code":"602","address1":"Ponneri","address2":"","latitude":"13.328","longitude":"80.0695","accuracy":"4"},{"address3":"Arni CPT","state":"Tamil Nadu","state_code":"25","district":"Tiruvallur","district_code":"602","address1":"Ponneri","address2":"","latitude":"13.3364","longitude":"80.0846","accuracy":"3"}],"601102":[{"address3":"Periapalayam","state":"Tamil Nadu","state_code":"25","district":"Tiruvallur","district_code":"602","address1":"NA","address2":"","latitude":"13.1879","longitude":"79.7968","accuracy":"3"},{"address3":"Thandalam","state":"Tamil Nadu","state_code":"25","district":"Tiruvallur","district_code":"602","address1":"Uttukottai","address2":"","latitude":"13.2431","longitude":"79.94","accuracy":"4"},{"address3":"Kannigaipair","state":"Tamil Nadu","state_code":"25","district":"Tiruvallur","district_code":"602","address1":"Uttukottai","address2":"","latitude":"13.1879","longitude":"79.7968","accuracy":"3"},{"address3":"Majankaranai","state":"Tamil Nadu","state_code":"25","district":"Tiruvallur","district_code":"602","address1":"Uttukottai","address2":"","latitude":"13.1879","longitude":"79.7968","accuracy":"3"},{"address3":"Mukkarambakkam","state":"Tamil Nadu","state_code":"25","district":"Tiruvallur","district_code":"602","address1":"Uttukottai","address2":"","latitude":"13.3336","longitude":"80.0149","accuracy":"4"},{"address3":"Nelvoy","state":"Tamil Nadu","state_code":"25","district":"Tiruvallur","district_code":"602","address1":"NA","address2":"","latitude":"13.1879","longitude":"79.7968","accuracy":"3"},{"address3":"Vadamadurai","state":"Tamil Nadu","state_code":"25","district":"Tiruvallur","district_code":"602","address1":"Uttukottai","address2":"","latitude":"13.2869","longitude":"80.0405","accuracy":"4"},{"address3":"Athivakkam","state":"Tamil Nadu","state_code":"25","district":"Kanchipuram","district_code":"604","address1":"Kancheepuram","address2":"","latitude":"13.1879","longitude":"79.7968","accuracy":"3"}],"601103":[{"address3":"Velliyur","state":"Tamil Nadu","state_code":"25","district":"Tiruvallur","district_code":"602","address1":"Tiruvallur","address2":"","latitude":"13.2431","longitude":"79.94","accuracy":"4"},{"address3":"Vengal","state":"Tamil Nadu","state_code":"25","district":"Tiruvallur","district_code":"602","address1":"Uttukottai","address2":"","latitude":"13.2522","longitude":"80.0129","accuracy":"4"},{"address3":"Enambakkam","state":"Tamil Nadu","state_code":"25","district":"Tiruvallur","district_code":"602","address1":"Tiruvallur","address2":"","latitude":"13.2878","longitude":"79.9945","accuracy":"4"},{"address3":"Kalpattu","state":"Tamil Nadu","state_code":"25","district":"Tiruvallur","district_code":"602","address1":"Tiruvallur","address2":"","latitude":"13.2826","longitude":"79.9767","accuracy":"4"},{"address3":"Sembedu","state":"Tamil Nadu","state_code":"25","district":"Tiruvallur","district_code":"602","address1":"Tiruvallur","address2":"","latitude":"13.2385","longitude":"79.9939","accuracy":"4"},{"address3":"Damaraipakkam","state":"Tamil Nadu","state_code":"25","district":"Tiruvallur","district_code":"602","address1":"Tiruvallur","address2":"","latitude":"13.1666","longitude":"79.8187","accuracy":"3"},{"address3":"Meyyur","state":"Tamil Nadu","state_code":"25","district":"Tiruvallur","district_code":"602","address1":"Tiruvallur","address2":"","latitude":"13.2425","longitude":"79.944","accuracy":"4"},{"address3":"Poorivakkam","state":"Tamil Nadu","state_code":"25","district":"Tiruvallur","district_code":"602","address1":"NA","address2":"","latitude":"13.1666","longitude":"79.8187","accuracy":"3"},{"address3":"Tirukandalam","state":"Tamil Nadu","state_code":"25","district":"Tiruvallur","district_code":"602","address1":"NA","address2":"","latitude":"13.1666","longitude":"79.8187","accuracy":"3"}],"601201":[{"address3":"Kallur","state":"Tamil Nadu","state_code":"25","district":"Tiruvallur","district_code":"602","address1":"Gummidipundi","address2":"","latitude":"13.2431","longitude":"79.94","accuracy":"4"},{"address3":"Edoor","state":"Tamil Nadu","state_code":"25","district":"Tiruvallur","district_code":"602","address1":"Gummidipundi","address2":"","latitude":"13.3974","longitude":"79.9891","accuracy":"3"},{"address3":"Mangavaram","state":"Tamil Nadu","state_code":"25","district":"Tiruvallur","district_code":"602","address1":"Gummidipundi","address2":"","latitude":"13.4447","longitude":"80.1615","accuracy":"4"},{"address3":"Spicto Industrial Estate","state":"Tamil Nadu","state_code":"25","district":"Tiruvallur","district_code":"602","address1":"Gummidipoondi","address2":"","latitude":"13.3974","longitude":"79.9891","accuracy":"3"},{"address3":"Arambakkam","state":"Tamil Nadu","state_code":"25","district":"Tiruvallur","district_code":"602","address1":"Gummidipundi","address2":"","latitude":"13.5258","longitude":"80.071","accuracy":"4"},{"address3":"Periaobulapuam","state":"Tamil Nadu","state_code":"25","district":"Tiruvallur","district_code":"602","address1":"Gummidipundi","address2":"","latitude":"13.3974","longitude":"79.9891","accuracy":"3"},{"address3":"Gummidipundi","state":"Tamil Nadu","state_code":"25","district":"Tiruvallur","district_code":"602","address1":"Gummidipundi","address2":"","latitude":"13.4077","longitude":"80.1088","accuracy":"4"},{"address3":"Podiyarankulam","state":"Tamil Nadu","state_code":"25","district":"Tiruvallur","district_code":"602","address1":"Gummidpundi","address2":"","latitude":"13.3974","longitude":"79.9891","accuracy":"3"},{"address3":"Sunnambukulam","state":"Tamil Nadu","state_code":"25","district":"Tiruvallur","district_code":"602","address1":"Gummidipundi","address2":"","latitude":"13.4873","longitude":"80.148","accuracy":"4"},{"address3":"Siddharajakandigai","state":"Tamil Nadu","state_code":"25","district":"Tiruvallur","district_code":"602","address1":"Gummidipundi","address2":"","latitude":"13.3974","longitude":"79.9891","accuracy":"3"},{"address3":"Sirupulalpettai","state":"Tamil Nadu","state_code":"25","district":"Tiruvallur","district_code":"602","address1":"Gummidipundi","address2":"","latitude":"13.3983","longitude":"80.089","accuracy":"4"},{"address3":"New Gummidipundi","state":"Tamil Nadu","state_code":"25","district":"Tiruvallur","district_code":"602","address1":"Gummidipundi","address2":"","latitude":"13.3974","longitude":"79.9891","accuracy":"3"},{"address3":"Elavur","state":"Tamil Nadu","state_code":"25","district":"Tiruvallur","district_code":"602","address1":"Gummidipundi","address2":"","latitude":"13.4782","longitude":"80.1212","accuracy":"4"},{"address3":"Iguvarpalayam","state":"Tamil Nadu","state_code":"25","district":"Tiruvallur","district_code":"602","address1":"Gummidipundi","address2":"","latitude":"13.3974","longitude":"79.9891","accuracy":"3"},{"address3":"Tervali","state":"Tamil Nadu","state_code":"25","district":"Tiruvallur","district_code":"602","address1":"Gummidipundii","address2":"","latitude":"13.4274","longitude":"80.1388","accuracy":"4"},{"address3":"Devampattu","state":"Tamil Nadu","state_code":"25","district":"Tiruvallur","district_code":"602","address1":"Gummidipundi","address2":"","latitude":"13.4517","longitude":"80.1985","accuracy":"4"}],"601202":[{"address3":"Kannankottai","state":"Tamil Nadu","state_code":"25","district":"Tiruvallur","district_code":"602","address1":"Gummidipundi","address2":"","latitude":"13.2431","longitude":"79.94","accuracy":"3"},{"address3":"Roshanagaram","state":"Tamil Nadu","state_code":"25","district":"Tiruvallur","district_code":"602","address1":"Gummidipundi","address2":"","latitude":"13.4394","longitude":"79.9864","accuracy":"4"},{"address3":"Madarpakkam","state":"Tamil Nadu","state_code":"25","district":"Tiruvallur","district_code":"602","address1":"Gummidipundi","address2":"","latitude":"13.4467","longitude":"80.0054","accuracy":"4"},{"address3":"Manellore","state":"Tamil Nadu","state_code":"25","district":"Tiruvallur","district_code":"602","address1":"Gummidipundi","address2":"","latitude":"13.454","longitude":"80.0047","accuracy":"3"},{"address3":"Pallavada","state":"Tamil Nadu","state_code":"25","district":"Tiruvallur","district_code":"602","address1":"Gummidipundi","address2":"","latitude":"13.4759","longitude":"80.0222","accuracy":"4"},{"address3":"Thanipoondi","state":"Tamil Nadu","state_code":"25","district":"Tiruvallur","district_code":"602","address1":"Gummidipundi","address2":"","latitude":"13.454","longitude":"80.0047","accuracy":"3"},{"address3":"Thervoy","state":"Tamil Nadu","state_code":"25","district":"Tiruvallur","district_code":"602","address1":"Gummidipundi","address2":"","latitude":"13.454","longitude":"80.0047","accuracy":"3"}],"601203":[{"address3":"Voyalur","state":"Tamil Nadu","state_code":"25","district":"Tiruvallur","district_code":"602","address1":"Ponneri","address2":"","latitude":"13.2431","longitude":"79.94","accuracy":"4"},{"address3":"Devadanam","state":"Tamil Nadu","state_code":"25","district":"Tiruvallur","district_code":"602","address1":"Ponneri","address2":"","latitude":"13.3095","longitude":"80.2446","accuracy":"4"},{"address3":"Nallur","state":"Tamil Nadu","state_code":"25","district":"Tiruvallur","district_code":"602","address1":"Ponneri","address2":"","latitude":"13.2431","longitude":"79.94","accuracy":"4"},{"address3":"Kattur","state":"Tamil Nadu","state_code":"25","district":"Tiruvallur","district_code":"602","address1":"Ponneri","address2":"","latitude":"13.3553","longitude":"80.2847","accuracy":"4"},{"address3":"Seemapuram South","state":"Tamil Nadu","state_code":"25","district":"Tiruvallur","district_code":"602","address1":"Ponneri","address2":"","latitude":"13.1832","longitude":"80.1329","accuracy":"3"},{"address3":"Velur","state":"Tamil Nadu","state_code":"25","district":"Tiruvallur","district_code":"602","address1":"Ponneri","address2":"","latitude":"13.3295","longitude":"80.267","accuracy":"4"},{"address3":"Neidavoyal","state":"Tamil Nadu","state_code":"25","district":"Tiruvallur","district_code":"602","address1":"Ponneri","address2":"","latitude":"13.3022","longitude":"80.2733","accuracy":"4"},{"address3":"Anuppampattu","state":"Tamil Nadu","state_code":"25","district":"Tiruvallur","district_code":"602","address1":"Ponneri","address2":"","latitude":"13.3018","longitude":"80.2258","accuracy":"4"},{"address3":"Thriuvellavoyal","state":"Tamil Nadu","state_code":"25","district":"Tiruvallur","district_code":"602","address1":"Ponneri","address2":"","latitude":"13.1832","longitude":"80.1329","accuracy":"3"},{"address3":"Minjur","state":"Tamil Nadu","state_code":"25","district":"Tiruvallur","district_code":"602","address1":"Ponneri","address2":"","latitude":"13.2795","longitude":"80.2581","accuracy":"4"},{"address3":"Jothi Nagar","state":"Tamil Nadu","state_code":"25","district":"Tiruvallur","district_code":"602","address1":"Ponneri","address2":"","latitude":"13.1832","longitude":"80.1329","accuracy":"3"}],"601204":[{"address3":"Panjetti","state":"Tamil Nadu","state_code":"25","district":"Tiruvallur","district_code":"602","address1":"Ponneri","address2":"","latitude":"13.2881","longitude":"80.1512","accuracy":"4"},{"address3":"Krishnapuram","state":"Tamil Nadu","state_code":"25","district":"Tiruvallur","district_code":"602","address1":"Ponneri","address2":"","latitude":"13.2282","longitude":"79.8743","accuracy":"4"},{"address3":"Medur","state":"Tamil Nadu","state_code":"25","district":"Tiruvallur","district_code":"602","address1":"Ponneri","address2":"","latitude":"13.3842","longitude":"80.2183","accuracy":"4"},{"address3":"Ponneri","state":"Tamil Nadu","state_code":"25","district":"Tiruvallur","district_code":"602","address1":"Ponneri","address2":"","latitude":"13.3387","longitude":"80.1949","accuracy":"4"},{"address3":"Perumbedu","state":"Tamil Nadu","state_code":"25","district":"Tiruvallur","district_code":"602","address1":"Ponneri","address2":"","latitude":"13.3583","longitude":"80.2423","accuracy":"4"},{"address3":"Ponneri Public Office","state":"Tamil Nadu","state_code":"25","district":"Tiruvallur","district_code":"602","address1":"Ponneri","address2":"","latitude":"13.3302","longitude":"80.1546","accuracy":"3"},{"address3":"Aladu","state":"Tamil Nadu","state_code":"25","district":"Tiruvallur","district_code":"602","address1":"Ponneri","address2":"","latitude":"13.3328","longitude":"80.2113","accuracy":"4"},{"address3":"Reddipalayam","state":"Tamil Nadu","state_code":"25","district":"Tiruvallur","district_code":"602","address1":"Ponneri","address2":"","latitude":"13.3302","longitude":"80.1546","accuracy":"3"},{"address3":"Arasur","state":"Tamil Nadu","state_code":"25","district":"Tiruvallur","district_code":"602","address1":"Ponneri","address2":"","latitude":"13.3813","longitude":"80.1899","accuracy":"4"},{"address3":"Amoor","state":"Tamil Nadu","state_code":"25","district":"Tiruvallur","district_code":"602","address1":"Ponneri","address2":"","latitude":"13.3302","longitude":"80.1546","accuracy":"3"}],"601205":[{"address3":"Kolur","state":"Tamil Nadu","state_code":"25","district":"Tiruvallur","district_code":"602","address1":"Ponneri","address2":"","latitude":"13.4304","longitude":"80.2252","accuracy":"4"},{"address3":"Pulicat","state":"Tamil Nadu","state_code":"25","district":"Tiruvallur","district_code":"602","address1":"Ponneri","address2":"","latitude":"13.4161","longitude":"80.3168","accuracy":"4"},{"address3":"Thirupalavanam","state":"Tamil Nadu","state_code":"25","district":"Tiruvallur","district_code":"602","address1":"Ponneri","address2":"","latitude":"13.4233","longitude":"80.271","accuracy":"3"}],"601206":[{"address3":"Puvalambedu","state":"Tamil Nadu","state_code":"25","district":"Tiruvallur","district_code":"602","address1":"Ponneri","address2":"","latitude":"13.4077","longitude":"80.0404","accuracy":"4"},{"address3":"Puduvoyal","state":"Tamil Nadu","state_code":"25","district":"Tiruvallur","district_code":"602","address1":"Ponneri","address2":"","latitude":"13.361","longitude":"80.1056","accuracy":"3"},{"address3":"Chinnambedu","state":"Tamil Nadu","state_code":"25","district":"Tiruvallur","district_code":"602","address1":"Ponneri","address2":"","latitude":"13.3198","longitude":"80.1205","accuracy":"4"},{"address3":"Kilikodi","state":"Tamil Nadu","state_code":"25","district":"Tiruvallur","district_code":"602","address1":"Ponneri","address2":"","latitude":"13.361","longitude":"80.1056","accuracy":"3"},{"address3":"Kilmudalambedu","state":"Tamil Nadu","state_code":"25","district":"Tiruvallur","district_code":"602","address1":"Ponneri","address2":"","latitude":"13.3529","longitude":"80.1205","accuracy":"4"},{"address3":"Kavarapettai","state":"Tamil Nadu","state_code":"25","district":"Tiruvallur","district_code":"602","address1":"Gummidipoondi","address2":"","latitude":"13.3638","longitude":"80.1411","accuracy":"4"}],"601301":[{"address3":"Padappai","state":"Tamil Nadu","state_code":"25","district":"Kanchipuram","district_code":"604","address1":"Sriperumbudur","address2":"","latitude":"12.921","longitude":"80.025","accuracy":"3"},{"address3":"Manimangalam","state":"Tamil Nadu","state_code":"25","district":"Kanchipuram","district_code":"604","address1":"Sriperumbudur","address2":"","latitude":"12.9171","longitude":"80.0417","accuracy":"4"},{"address3":"Malaipattu","state":"Tamil Nadu","state_code":"25","district":"Kanchipuram","district_code":"604","address1":"Sriperumbudur","address2":"","latitude":"12.9248","longitude":"80.0083","accuracy":"4"},{"address3":"Serpananchery","state":"Tamil Nadu","state_code":"25","district":"Kanchipuram","district_code":"604","address1":"NA","address2":"","latitude":"12.921","longitude":"80.025","accuracy":"3"}],"credits":[{"name":"geonames","url":"https://www.geonames.org"}],"last_update":"2019-03-01T09:01:35.074Z"}