{"603001":[{"address3":"Chengalpattu Cutcherry","state":"Tamil Nadu","state_code":"25","district":"Kanchipuram","district_code":"604","address1":"Chengalpattu","address2":"","latitude":"12.6363","longitude":"79.9843","accuracy":"1"},{"address3":"Chengalpattu Med.College","state":"Tamil Nadu","state_code":"25","district":"Kanchipuram","district_code":"604","address1":"Chengalpattu","address2":"","latitude":"12.6363","longitude":"79.9843","accuracy":"1"},{"address3":"Chengalpattu H.O","state":"Tamil Nadu","state_code":"25","district":"Kanchipuram","district_code":"604","address1":"Chengalpattu","address2":"","latitude":"12.6363","longitude":"79.9843","accuracy":"1"}],"603002":[{"address3":"Natham-chengalpattu","state":"Tamil Nadu","state_code":"25","district":"Kanchipuram","district_code":"604","address1":"Chengalpattu","address2":"","latitude":"12.6334","longitude":"79.9277","accuracy":"3"},{"address3":"Kunnavakkam","state":"Tamil Nadu","state_code":"25","district":"Kanchipuram","district_code":"604","address1":"Chengalpattu","address2":"","latitude":"12.5386","longitude":"79.8655","accuracy":"4"},{"address3":"Pulipakkam","state":"Tamil Nadu","state_code":"25","district":"Kanchipuram","district_code":"604","address1":"Chengalpattu","address2":"","latitude":"12.6334","longitude":"79.9277","accuracy":"3"},{"address3":"Paranur","state":"Tamil Nadu","state_code":"25","district":"Kanchipuram","district_code":"604","address1":"Chengalpattu","address2":"","latitude":"12.7282","longitude":"79.9899","accuracy":"4"},{"address3":"Chengalpattu Bazaar","state":"Tamil Nadu","state_code":"25","district":"Kanchipuram","district_code":"604","address1":"Chengalpattu","address2":"","latitude":"12.6334","longitude":"79.9277","accuracy":"3"},{"address3":"Gundur-chengalpattu","state":"Tamil Nadu","state_code":"25","district":"Kanchipuram","district_code":"604","address1":"Chengalpattu","address2":"","latitude":"12.6334","longitude":"79.9277","accuracy":"3"}],"603003":[{"address3":"Ammanambakkam","state":"Tamil Nadu","state_code":"25","district":"Kanchipuram","district_code":"604","address1":"Chengalpattu","address2":"","latitude":"12.579","longitude":"80.0626","accuracy":"4"},{"address3":"Meleripakkam","state":"Tamil Nadu","state_code":"25","district":"Kanchipuram","district_code":"604","address1":"Chengalpattu","address2":"","latitude":"12.6551","longitude":"80.0072","accuracy":"4"},{"address3":"Vallam","state":"Tamil Nadu","state_code":"25","district":"Kanchipuram","district_code":"604","address1":"Chengalpattu","address2":"","latitude":"12.6808","longitude":"79.9965","accuracy":"4"},{"address3":"Nenmeli","state":"Tamil Nadu","state_code":"25","district":"Kanchipuram","district_code":"604","address1":"Chengalpattu","address2":"","latitude":"12.6383","longitude":"80.0221","accuracy":"3"},{"address3":"Tiruvadisoolam","state":"Tamil Nadu","state_code":"25","district":"Kanchipuram","district_code":"604","address1":"Chengalpattu","address2":"","latitude":"12.6383","longitude":"80.0221","accuracy":"3"}],"603004":[{"address3":"Mahindra World City (Kanchipuram)","state":"Tamil Nadu","state_code":"25","district":"Kanchipuram","district_code":"604","address1":"Chengalpattu","address2":"","latitude":"12.6363","longitude":"79.9843","accuracy":"1"}],"603101":[{"address3":"Athur-chengalpattu","state":"Tamil Nadu","state_code":"25","district":"Kanchipuram","district_code":"604","address1":"Chengalpattu","address2":"","latitude":"12.767","longitude":"79.9148","accuracy":"3"},{"address3":"Palur","state":"Tamil Nadu","state_code":"25","district":"Kanchipuram","district_code":"604","address1":"Chengalpattu","address2":"","latitude":"12.767","longitude":"79.9148","accuracy":"4"},{"address3":"Reddipalayam","state":"Tamil Nadu","state_code":"25","district":"Kanchipuram","district_code":"604","address1":"NA","address2":"","latitude":"12.767","longitude":"79.9148","accuracy":"3"},{"address3":"Villiambakkam","state":"Tamil Nadu","state_code":"25","district":"Kanchipuram","district_code":"604","address1":"Chengalpattu","address2":"","latitude":"12.767","longitude":"79.9148","accuracy":"3"},{"address3":"Thimmavaram","state":"Tamil Nadu","state_code":"25","district":"Kanchipuram","district_code":"604","address1":"Chengalpattu","address2":"","latitude":"12.767","longitude":"79.9148","accuracy":"3"}],"603102":[{"address3":"Vayalur","state":"Tamil Nadu","state_code":"25","district":"Kanchipuram","district_code":"604","address1":"Tirukalikundram","address2":"","latitude":"12.3138","longitude":"79.9372","accuracy":"4"},{"address3":"Kalpakkam","state":"Tamil Nadu","state_code":"25","district":"Kanchipuram","district_code":"604","address1":"Tirukalikundram","address2":"","latitude":"12.5638","longitude":"80.1736","accuracy":"4"},{"address3":"Manamai","state":"Tamil Nadu","state_code":"25","district":"Kanchipuram","district_code":"604","address1":"Tirukalikundram","address2":"","latitude":"12.5876","longitude":"80.15","accuracy":"4"},{"address3":"Reactor Research Centre ","state":"Tamil Nadu","state_code":"25","district":"Kanchipuram","district_code":"604","address1":"Tirukalukundram","address2":"","latitude":"12.5029","longitude":"80.0955","accuracy":"3"},{"address3":"Suradimangalam","state":"Tamil Nadu","state_code":"25","district":"Kanchipuram","district_code":"604","address1":"Tirukalikundram","address2":"","latitude":"12.5291","longitude":"80.0857","accuracy":"4"},{"address3":"Vittalapuram","state":"Tamil Nadu","state_code":"25","district":"Kanchipuram","district_code":"604","address1":"Tirukalukundram","address2":"","latitude":"12.5201","longitude":"80.1309","accuracy":"4"},{"address3":"Pattaraikalani","state":"Tamil Nadu","state_code":"25","district":"Kanchipuram","district_code":"604","address1":"NA","address2":"","latitude":"12.5029","longitude":"80.0955","accuracy":"3"},{"address3":"Pudupattinam Colony","state":"Tamil Nadu","state_code":"25","district":"Kanchipuram","district_code":"604","address1":"Tirukalukundram","address2":"","latitude":"12.5029","longitude":"80.0955","accuracy":"3"},{"address3":"Melprumal Chery","state":"Tamil Nadu","state_code":"25","district":"Kanchipuram","district_code":"604","address1":"NA","address2":"","latitude":"12.5029","longitude":"80.0955","accuracy":"3"},{"address3":"Ayapakkam","state":"Tamil Nadu","state_code":"25","district":"Kanchipuram","district_code":"604","address1":"Tiruklalikundram","address2":"","latitude":"12.5029","longitude":"80.0955","accuracy":"3"},{"address3":"Vengapakkam","state":"Tamil Nadu","state_code":"25","district":"Kanchipuram","district_code":"604","address1":"Tirukalikundram","address2":"","latitude":"12.5029","longitude":"80.0955","accuracy":"3"},{"address3":"Vazhuvadur","state":"Tamil Nadu","state_code":"25","district":"Kanchipuram","district_code":"604","address1":"Tirukalikundram","address2":"","latitude":"12.5029","longitude":"80.0955","accuracy":"3"}],"603103":[{"address3":"Padur","state":"Tamil Nadu","state_code":"25","district":"Kanchipuram","district_code":"604","address1":"Thiruporur","address2":"","latitude":"12.7093","longitude":"79.8233","accuracy":"4"},{"address3":"Thaiyur","state":"Tamil Nadu","state_code":"25","district":"Kanchipuram","district_code":"604","address1":"Chinglepet","address2":"","latitude":"12.7743","longitude":"80.1942","accuracy":"4"},{"address3":"Kelambakkam","state":"Tamil Nadu","state_code":"25","district":"Kanchipuram","district_code":"604","address1":"Chingleput","address2":"","latitude":"12.7873","longitude":"80.2216","accuracy":"4"},{"address3":"Pudupakkam","state":"Tamil Nadu","state_code":"25","district":"Kanchipuram","district_code":"604","address1":"Chinglepet","address2":"","latitude":"12.9194","longitude":"79.6717","accuracy":"4"}],"603104":[{"address3":"Kadambadi","state":"Tamil Nadu","state_code":"25","district":"Kanchipuram","district_code":"604","address1":"Tirukalikundram","address2":"","latitude":"12.6952","longitude":"79.9479","accuracy":"4"},{"address3":"Kokilamedu","state":"Tamil Nadu","state_code":"25","district":"Kanchipuram","district_code":"604","address1":"Tirukalilkundram","address2":"","latitude":"11.8723","longitude":"79.9328","accuracy":"3"},{"address3":"Perur","state":"Tamil Nadu","state_code":"25","district":"Kanchipuram","district_code":"604","address1":"Chengalpattu","address2":"","latitude":"12.6952","longitude":"79.9479","accuracy":"4"},{"address3":"Mamallapuram","state":"Tamil Nadu","state_code":"25","district":"Kanchipuram","district_code":"604","address1":"Tirukalikundram","address2":"","latitude":"12.6209","longitude":"80.1933","accuracy":"4"},{"address3":"Zamin Paiyanur","state":"Tamil Nadu","state_code":"25","district":"Kanchipuram","district_code":"604","address1":"Chengalpattu","address2":"","latitude":"11.8723","longitude":"79.9328","accuracy":"3"},{"address3":"Poonjeri","state":"Tamil Nadu","state_code":"25","district":"Kanchipuram","district_code":"604","address1":"NA","address2":"","latitude":"11.8723","longitude":"79.9328","accuracy":"3"},{"address3":"Koothavakkam","state":"Tamil Nadu","state_code":"25","district":"Kanchipuram","district_code":"604","address1":"Sriperumbudur","address2":"","latitude":"11.8723","longitude":"79.9328","accuracy":"3"},{"address3":"Vadakadambadi","state":"Tamil Nadu","state_code":"25","district":"Kanchipuram","district_code":"604","address1":"Tirukalikundram","address2":"","latitude":"11.8723","longitude":"79.9328","accuracy":"3"},{"address3":"Pattipulam","state":"Tamil Nadu","state_code":"25","district":"Kanchipuram","district_code":"604","address1":"Tirukalikundram","address2":"","latitude":"12.6816","longitude":"80.2121","accuracy":"4"}],"603105":[{"address3":"Sirudavur","state":"Tamil Nadu","state_code":"25","district":"Kanchipuram","district_code":"604","address1":"Chengalpattu","address2":"","latitude":"12.6835","longitude":"80.1592","accuracy":"4"},{"address3":"Manambathi","state":"Tamil Nadu","state_code":"25","district":"Kanchipuram","district_code":"604","address1":"Chengalpattu","address2":"","latitude":"12.6822","longitude":"80.1218","accuracy":"3"},{"address3":"Mullipakkam","state":"Tamil Nadu","state_code":"25","district":"Kanchipuram","district_code":"604","address1":"Tirukalilkundram","address2":"","latitude":"12.681","longitude":"80.0844","accuracy":"4"},{"address3":"Peria Irumbedu","state":"Tamil Nadu","state_code":"25","district":"Kanchipuram","district_code":"604","address1":"Chengalpattu","address2":"","latitude":"12.6822","longitude":"80.1218","accuracy":"3"},{"address3":"Kuzhipanthandalam","state":"Tamil Nadu","state_code":"25","district":"Kanchipuram","district_code":"604","address1":"Tirukalikundram","address2":"","latitude":"12.6822","longitude":"80.1218","accuracy":"3"}],"603106":[{"address3":"Orakattupettai","state":"Tamil Nadu","state_code":"25","district":"Kanchipuram","district_code":"604","address1":"Chengalpattu","address2":"","latitude":"12.5256","longitude":"79.9764","accuracy":"1"},{"address3":"Seethananjeri","state":"Tamil Nadu","state_code":"25","district":"Kanchipuram","district_code":"604","address1":"Uttiramerur","address2":"","latitude":"12.5256","longitude":"79.9764","accuracy":"1"},{"address3":"Arumbuliyur","state":"Tamil Nadu","state_code":"25","district":"Kanchipuram","district_code":"604","address1":"Uthiramerur","address2":"","latitude":"12.5256","longitude":"79.9764","accuracy":"1"},{"address3":"Sathanjeri","state":"Tamil Nadu","state_code":"25","district":"Kanchipuram","district_code":"604","address1":"Uttiramerur","address2":"","latitude":"12.5256","longitude":"79.9764","accuracy":"1"},{"address3":"Tiruvanaikoil","state":"Tamil Nadu","state_code":"25","district":"Kanchipuram","district_code":"604","address1":"Uttiramerur","address2":"","latitude":"12.5256","longitude":"79.9764","accuracy":"1"},{"address3":"Vitchur","state":"Tamil Nadu","state_code":"25","district":"Kanchipuram","district_code":"604","address1":"Uttiramerur","address2":"","latitude":"12.5256","longitude":"79.9764","accuracy":"1"}],"603107":[{"address3":"Porpandal","state":"Tamil Nadu","state_code":"25","district":"Kanchipuram","district_code":"604","address1":"Uttiramerur","address2":"","latitude":"12.6967","longitude":"79.8848","accuracy":"4"},{"address3":"Salavakkam","state":"Tamil Nadu","state_code":"25","district":"Kanchipuram","district_code":"604","address1":"Utiramerur","address2":"","latitude":"12.6701","longitude":"79.8913","accuracy":"4"},{"address3":"Kunnavakkam","state":"Tamil Nadu","state_code":"25","district":"Kanchipuram","district_code":"604","address1":"Uthiramerur","address2":"","latitude":"12.6689","longitude":"79.8205","accuracy":"4"},{"address3":"Edayambudur","state":"Tamil Nadu","state_code":"25","district":"Kanchipuram","district_code":"604","address1":"Tirukalikundram","address2":"","latitude":"12.6627","longitude":"79.8668","accuracy":"3"},{"address3":"Anambakkam","state":"Tamil Nadu","state_code":"25","district":"Kanchipuram","district_code":"604","address1":"Uthiramerur","address2":"","latitude":"12.7022","longitude":"79.8459","accuracy":"4"},{"address3":"Palliagaram","state":"Tamil Nadu","state_code":"25","district":"Kanchipuram","district_code":"604","address1":"NA","address2":"","latitude":"12.6214","longitude":"79.8752","accuracy":"4"},{"address3":"Olaiyur","state":"Tamil Nadu","state_code":"25","district":"Kanchipuram","district_code":"604","address1":"Uthiramerur","address2":"","latitude":"12.6359","longitude":"79.8568","accuracy":"4"},{"address3":"Nelvoy","state":"Tamil Nadu","state_code":"25","district":"Kanchipuram","district_code":"604","address1":"Maduranthakam","address2":"","latitude":"12.6627","longitude":"79.8668","accuracy":"3"},{"address3":"Kilakadi","state":"Tamil Nadu","state_code":"25","district":"Kanchipuram","district_code":"604","address1":"Chengalpattu","address2":"","latitude":"12.6438","longitude":"79.8929","accuracy":"4"},{"address3":"Chithanakkavur","state":"Tamil Nadu","state_code":"25","district":"Kanchipuram","district_code":"604","address1":"Uthiramerur","address2":"","latitude":"12.6627","longitude":"79.8668","accuracy":"3"},{"address3":"Valathodu","state":"Tamil Nadu","state_code":"25","district":"Kanchipuram","district_code":"604","address1":"Uttiramerur","address2":"","latitude":"12.6627","longitude":"79.8668","accuracy":"3"}],"603108":[{"address3":"Nellikuppam","state":"Tamil Nadu","state_code":"25","district":"Kanchipuram","district_code":"604","address1":"Chengalpattu","address2":"","latitude":"12.6952","longitude":"79.9479","accuracy":"4"},{"address3":"Hanumanthapuram","state":"Tamil Nadu","state_code":"25","district":"Kanchipuram","district_code":"604","address1":"Chengalpattu Taluk","address2":"","latitude":"12.4025","longitude":"79.9866","accuracy":"4"},{"address3":"Kottamedu","state":"Tamil Nadu","state_code":"25","district":"Kanchipuram","district_code":"604","address1":"Chengalpattu","address2":"","latitude":"12.7207","longitude":"80.112","accuracy":"4"},{"address3":"Melaiyur","state":"Tamil Nadu","state_code":"25","district":"Kanchipuram","district_code":"604","address1":"Chengalpattu","address2":"","latitude":"12.6952","longitude":"79.9479","accuracy":"4"},{"address3":"Karumbakkam","state":"Tamil Nadu","state_code":"25","district":"Kanchipuram","district_code":"604","address1":"Chengalpattu","address2":"","latitude":"12.7322","longitude":"79.9084","accuracy":"4"},{"address3":"Sembakkam","state":"Tamil Nadu","state_code":"25","district":"Kanchipuram","district_code":"604","address1":"Tirukalikundram","address2":"","latitude":"12.7021","longitude":"80.1299","accuracy":"4"},{"address3":"Kalvoy","state":"Tamil Nadu","state_code":"25","district":"Kanchipuram","district_code":"604","address1":"Chengalpattu","address2":"","latitude":"12.4875","longitude":"79.9017","accuracy":"3"},{"address3":"Senneri","state":"Tamil Nadu","state_code":"25","district":"Kanchipuram","district_code":"604","address1":"Chengalpattu","address2":"","latitude":"12.7001","longitude":"80.0502","accuracy":"4"},{"address3":"Sirunkundram","state":"Tamil Nadu","state_code":"25","district":"Kanchipuram","district_code":"604","address1":"Chengalpattu","address2":"","latitude":"12.4875","longitude":"79.9017","accuracy":"3"},{"address3":"Madayathur","state":"Tamil Nadu","state_code":"25","district":"Kanchipuram","district_code":"604","address1":"Tirukalikundram","address2":"","latitude":"12.4875","longitude":"79.9017","accuracy":"3"}],"603109":[{"address3":"Oragadam","state":"Tamil Nadu","state_code":"25","district":"Kanchipuram","district_code":"604","address1":"Chengalpattu","address2":"","latitude":"12.6455","longitude":"80.0653","accuracy":"4"},{"address3":"Edaiyur","state":"Tamil Nadu","state_code":"25","district":"Kanchipuram","district_code":"604","address1":"Tirukalikundram","address2":"","latitude":"12.5652","longitude":"80.1777","accuracy":"4"},{"address3":"Irumbulichery","state":"Tamil Nadu","state_code":"25","district":"Kanchipuram","district_code":"604","address1":"Tirukalikundram","address2":"","latitude":"12.5906","longitude":"80.0823","accuracy":"3"},{"address3":"Desumugipettai","state":"Tamil Nadu","state_code":"25","district":"Kanchipuram","district_code":"604","address1":"NA","address2":"","latitude":"12.5906","longitude":"80.0823","accuracy":"3"},{"address3":"Pandur","state":"Tamil Nadu","state_code":"25","district":"Kanchipuram","district_code":"604","address1":"Tirukalikundram","address2":"","latitude":"12.536","longitude":"80.0355","accuracy":"4"},{"address3":"Tirukalikundram","state":"Tamil Nadu","state_code":"25","district":"Kanchipuram","district_code":"604","address1":"Tirukalikundram","address2":"","latitude":"12.608","longitude":"80.0555","accuracy":"4"},{"address3":"Ammanambakkam","state":"Tamil Nadu","state_code":"25","district":"Kanchipuram","district_code":"604","address1":"Tirukalikundram","address2":"","latitude":"12.579","longitude":"80.0626","accuracy":"4"},{"address3":"Thathalur","state":"Tamil Nadu","state_code":"25","district":"Kanchipuram","district_code":"604","address1":"Tirukalikundram","address2":"","latitude":"12.5906","longitude":"80.0823","accuracy":"3"},{"address3":"Puliyur","state":"Tamil Nadu","state_code":"25","district":"Kanchipuram","district_code":"604","address1":"Tirukalikundram","address2":"","latitude":"12.6098","longitude":"80.0972","accuracy":"4"},{"address3":"Tirukalikundram Bazaar","state":"Tamil Nadu","state_code":"25","district":"Kanchipuram","district_code":"604","address1":"Tirukalukundram","address2":"","latitude":"12.5906","longitude":"80.0823","accuracy":"3"},{"address3":"Veerapuram","state":"Tamil Nadu","state_code":"25","district":"Kanchipuram","district_code":"604","address1":"Tirukalikundram","address2":"","latitude":"12.5906","longitude":"80.0823","accuracy":"3"},{"address3":"Mullikolathur","state":"Tamil Nadu","state_code":"25","district":"Kanchipuram","district_code":"604","address1":"Tirulkalikundram","address2":"","latitude":"12.5906","longitude":"80.0823","accuracy":"3"}],"603110":[{"address3":"Alathur Industrial Estate","state":"Tamil Nadu","state_code":"25","district":"Kanchipuram","district_code":"604","address1":"Chengalpattu","address2":"","latitude":"12.7311","longitude":"80.1747","accuracy":"3"},{"address3":"Illalur","state":"Tamil Nadu","state_code":"25","district":"Kanchipuram","district_code":"604","address1":"Chengalpattu","address2":"","latitude":"12.7363","longitude":"80.1598","accuracy":"4"},{"address3":"Kayar","state":"Tamil Nadu","state_code":"25","district":"Kanchipuram","district_code":"604","address1":"Tirukalikundram","address2":"","latitude":"12.7311","longitude":"80.1747","accuracy":"3"},{"address3":"Tiruporur","state":"Tamil Nadu","state_code":"25","district":"Kanchipuram","district_code":"604","address1":"NA","address2":"","latitude":"12.7259","longitude":"80.1895","accuracy":"4"},{"address3":"Venbedu","state":"Tamil Nadu","state_code":"25","district":"Kanchipuram","district_code":"604","address1":"Chengalpattu","address2":"","latitude":"12.7311","longitude":"80.1747","accuracy":"3"}],"603111":[{"address3":"Manapakkam","state":"Tamil Nadu","state_code":"25","district":"Kanchipuram","district_code":"604","address1":"Chengalpattu","address2":"","latitude":"12.2587","longitude":"79.8839","accuracy":"4"},{"address3":"Pazhamathur","state":"Tamil Nadu","state_code":"25","district":"Kanchipuram","district_code":"604","address1":"Chengalpattu","address2":"","latitude":"12.5498","longitude":"79.9877","accuracy":"3"},{"address3":"Venpakkam","state":"Tamil Nadu","state_code":"25","district":"Kanchipuram","district_code":"604","address1":"Chengalpattu","address2":"","latitude":"12.6645","longitude":"79.9692","accuracy":"4"},{"address3":"Ozhalur","state":"Tamil Nadu","state_code":"25","district":"Kanchipuram","district_code":"604","address1":"Tirukalikundram`","address2":"","latitude":"12.5498","longitude":"79.9877","accuracy":"3"},{"address3":"Mamandur","state":"Tamil Nadu","state_code":"25","district":"Kanchipuram","district_code":"604","address1":"Chengalpattu","address2":"","latitude":"12.6435","longitude":"79.9332","accuracy":"4"},{"address3":"Tirumani","state":"Tamil Nadu","state_code":"25","district":"Kanchipuram","district_code":"604","address1":"Chengalpattu","address2":"","latitude":"12.6531","longitude":"79.9862","accuracy":"4"},{"address3":"Meyyur","state":"Tamil Nadu","state_code":"25","district":"Kanchipuram","district_code":"604","address1":"Maduranthakam","address2":"","latitude":"12.5295","longitude":"80.166","accuracy":"4"}],"603112":[{"address3":"Muttukadu","state":"Tamil Nadu","state_code":"25","district":"Kanchipuram","district_code":"604","address1":"Chinglepet","address2":"","latitude":"12.7865","longitude":"80.2506","accuracy":"3"},{"address3":"Kovalam (Kanchipuram)","state":"Tamil Nadu","state_code":"25","district":"Kanchipuram","district_code":"604","address1":"Chinglepet","address2":"","latitude":"12.7865","longitude":"80.2506","accuracy":"4"},{"address3":"Thiruvidanthai","state":"Tamil Nadu","state_code":"25","district":"Kanchipuram","district_code":"604","address1":"Chingelpet","address2":"","latitude":"12.7865","longitude":"80.2506","accuracy":"3"}],"603127":[{"address3":"Anupuram","state":"Tamil Nadu","state_code":"25","district":"Kanchipuram","district_code":"604","address1":"Tirukalikundram","address2":"","latitude":"12.5436","longitude":"79.9929","accuracy":"1"}],"603201":[{"address3":"Elapakkam","state":"Tamil Nadu","state_code":"25","district":"Kanchipuram","district_code":"604","address1":"Madurantakam","address2":"","latitude":"12.6952","longitude":"79.9479","accuracy":"4"},{"address3":"Madhur","state":"Tamil Nadu","state_code":"25","district":"Kanchipuram","district_code":"604","address1":"Madurantakam","address2":"","latitude":"12.4895","longitude":"79.7332","accuracy":"3"},{"address3":"Ramapuram","state":"Tamil Nadu","state_code":"25","district":"Kanchipuram","district_code":"604","address1":"NA","address2":"","latitude":"12.4682","longitude":"79.7631","accuracy":"4"},{"address3":"Kattukaranai","state":"Tamil Nadu","state_code":"25","district":"Kanchipuram","district_code":"604","address1":"Madurantakam","address2":"","latitude":"12.4427","longitude":"79.7575","accuracy":"4"},{"address3":"Padiri","state":"Tamil Nadu","state_code":"25","district":"Kanchipuram","district_code":"604","address1":"Maduranthakam","address2":"","latitude":"12.4879","longitude":"79.7696","accuracy":"4"}],"603202":[{"address3":"Karanaipuduchery","state":"Tamil Nadu","state_code":"25","district":"Kanchipuram","district_code":"604","address1":"Chengalpattu","address2":"","latitude":"12.8525","longitude":"80.0467","accuracy":"3"},{"address3":"Madambakkam","state":"Tamil Nadu","state_code":"25","district":"Kanchipuram","district_code":"604","address1":"Chengalplattu","address2":"","latitude":"12.8525","longitude":"80.0467","accuracy":"4"},{"address3":"Kayarambedu;","state":"Tamil Nadu","state_code":"25","district":"Kanchipuram","district_code":"604","address1":"Chengalpattu","address2":"","latitude":"12.8525","longitude":"80.0467","accuracy":"3"},{"address3":"Thangappapuram","state":"Tamil Nadu","state_code":"25","district":"Kanchipuram","district_code":"604","address1":"Chengalpattu","address2":"","latitude":"12.8525","longitude":"80.0467","accuracy":"3"},{"address3":"Kannivakkam","state":"Tamil Nadu","state_code":"25","district":"Kanchipuram","district_code":"604","address1":"Chengalpattu","address2":"","latitude":"12.8525","longitude":"80.0467","accuracy":"3"},{"address3":"Guduvanchery","state":"Tamil Nadu","state_code":"25","district":"Kanchipuram","district_code":"604","address1":"Chengalpattu","address2":"","latitude":"12.8525","longitude":"80.0467","accuracy":"3"}],"603203":[{"address3":"Kavanur","state":"Tamil Nadu","state_code":"25","district":"Kanchipuram","district_code":"604","address1":"Chengalpattu","address2":"","latitude":"12.2796","longitude":"79.9098","accuracy":"4"},{"address3":"Ninnakarai","state":"Tamil Nadu","state_code":"25","district":"Kanchipuram","district_code":"604","address1":"NA","address2":"","latitude":"12.2796","longitude":"79.9098","accuracy":"3"},{"address3":"Kattankolathur","state":"Tamil Nadu","state_code":"25","district":"Kanchipuram","district_code":"604","address1":"Chengalpattu","address2":"","latitude":"12.2796","longitude":"79.9098","accuracy":"3"}],"603204":[{"address3":"Tirukatchur","state":"Tamil Nadu","state_code":"25","district":"Kanchipuram","district_code":"604","address1":"Chengalpattu","address2":"","latitude":"12.7039","longitude":"79.8292","accuracy":"3"},{"address3":"Singaperumalkoil","state":"Tamil Nadu","state_code":"25","district":"Kanchipuram","district_code":"604","address1":"NA","address2":"","latitude":"12.7595","longitude":"80.0075","accuracy":"4"},{"address3":"Anjur","state":"Tamil Nadu","state_code":"25","district":"Kanchipuram","district_code":"604","address1":"Chengalpattu","address2":"","latitude":"12.7951","longitude":"79.7481","accuracy":"4"},{"address3":"Vadakkupattu","state":"Tamil Nadu","state_code":"25","district":"Kanchipuram","district_code":"604","address1":"Chengalpattu","address2":"","latitude":"12.6952","longitude":"79.9479","accuracy":"4"},{"address3":"Appur","state":"Tamil Nadu","state_code":"25","district":"Kanchipuram","district_code":"604","address1":"Chengalpattu","address2":"","latitude":"12.8025","longitude":"79.9749","accuracy":"4"},{"address3":"Melrosapuram","state":"Tamil Nadu","state_code":"25","district":"Kanchipuram","district_code":"604","address1":"NA","address2":"","latitude":"12.7039","longitude":"79.8292","accuracy":"3"},{"address3":"Elutchur","state":"Tamil Nadu","state_code":"25","district":"Kanchipuram","district_code":"604","address1":"Sriperubudur Taluk","address2":"","latitude":"12.7039","longitude":"79.8292","accuracy":"3"},{"address3":"Venkatapuram","state":"Tamil Nadu","state_code":"25","district":"Kanchipuram","district_code":"604","address1":"Chengalpattu","address2":"","latitude":"12.7671","longitude":"79.9745","accuracy":"4"},{"address3":"Chettipunniam","state":"Tamil Nadu","state_code":"25","district":"Kanchipuram","district_code":"604","address1":"Chengalpatatu","address2":"","latitude":"12.7039","longitude":"79.8292","accuracy":"3"},{"address3":"Karunilam","state":"Tamil Nadu","state_code":"25","district":"Kanchipuram","district_code":"604","address1":"Chengallpattu","address2":"","latitude":"12.7039","longitude":"79.8292","accuracy":"3"}],"603209":[{"address3":"Maraimalai Nagar","state":"Tamil Nadu","state_code":"25","district":"Kanchipuram","district_code":"604","address1":"Chengalpattu","address2":"","latitude":"12.6009","longitude":"79.8214","accuracy":"1"},{"address3":"Panangottur","state":"Tamil Nadu","state_code":"25","district":"Kanchipuram","district_code":"604","address1":"Chengalpattu","address2":"","latitude":"12.6009","longitude":"79.8214","accuracy":"1"}],"603210":[{"address3":"Urapakkam","state":"Tamil Nadu","state_code":"25","district":"Kanchipuram","district_code":"604","address1":"Chengalpattu","address2":"","latitude":"12.6009","longitude":"79.8214","accuracy":"1"}],"603211":[{"address3":"Annai Anjugam Nagar","state":"Tamil Nadu","state_code":"25","district":"Kanchipuram","district_code":"604","address1":"NA","address2":"","latitude":"12.6009","longitude":"79.8214","accuracy":"1"}],"603301":[{"address3":"Acharapakkam","state":"Tamil Nadu","state_code":"25","district":"Kanchipuram","district_code":"604","address1":"NA","address2":"","latitude":"12.4028","longitude":"79.817","accuracy":"4"},{"address3":"Parukkal","state":"Tamil Nadu","state_code":"25","district":"Kanchipuram","district_code":"604","address1":"Chengalpattu","address2":"","latitude":"12.3841","longitude":"79.8548","accuracy":"4"},{"address3":"Irumbuli","state":"Tamil Nadu","state_code":"25","district":"Kanchipuram","district_code":"604","address1":"Cheyur","address2":"","latitude":"12.3968","longitude":"79.8244","accuracy":"3"},{"address3":"Seethapuram","state":"Tamil Nadu","state_code":"25","district":"Kanchipuram","district_code":"604","address1":"Madurantakam","address2":"","latitude":"12.3968","longitude":"79.8244","accuracy":"3"},{"address3":"Indalur","state":"Tamil Nadu","state_code":"25","district":"Kanchipuram","district_code":"604","address1":"Cheyyur","address2":"","latitude":"12.3641","longitude":"79.8362","accuracy":"4"},{"address3":"Kattugudalur","state":"Tamil Nadu","state_code":"25","district":"Kanchipuram","district_code":"604","address1":"Madurantakam","address2":"","latitude":"12.4361","longitude":"79.7896","accuracy":"4"},{"address3":"Kayapakkam","state":"Tamil Nadu","state_code":"25","district":"Kanchipuram","district_code":"604","address1":"Madurantakam","address2":"","latitude":"12.3968","longitude":"79.8244","accuracy":"3"}],"603302":[{"address3":"Cheyur (Kanchipuram)","state":"Tamil Nadu","state_code":"25","district":"Kanchipuram","district_code":"604","address1":"Cheyur","address2":"","latitude":"12.3495","longitude":"80.003","accuracy":"4"},{"address3":"Irumbedu","state":"Tamil Nadu","state_code":"25","district":"Kanchipuram","district_code":"604","address1":"Cheyyur","address2":"","latitude":"12.3564","longitude":"79.9723","accuracy":"4"},{"address3":"Panaiyur","state":"Tamil Nadu","state_code":"25","district":"Kanchipuram","district_code":"604","address1":"NA","address2":"","latitude":"12.6952","longitude":"79.9479","accuracy":"4"},{"address3":"Palaiyur","state":"Tamil Nadu","state_code":"25","district":"Kanchipuram","district_code":"604","address1":"NA","address2":"","latitude":"12.6006","longitude":"79.9375","accuracy":"4"},{"address3":"Chengattur","state":"Tamil Nadu","state_code":"25","district":"Kanchipuram","district_code":"604","address1":"Cheyur","address2":"","latitude":"12.4195","longitude":"79.9039","accuracy":"3"},{"address3":"Nainarkuppam","state":"Tamil Nadu","state_code":"25","district":"Kanchipuram","district_code":"604","address1":"NA","address2":"","latitude":"12.4195","longitude":"79.9039","accuracy":"3"},{"address3":"Zamin Budur","state":"Tamil Nadu","state_code":"25","district":"Kanchipuram","district_code":"604","address1":"Cheyur","address2":"","latitude":"12.4195","longitude":"79.9039","accuracy":"3"},{"address3":"Perumbakkam","state":"Tamil Nadu","state_code":"25","district":"Kanchipuram","district_code":"604","address1":"Cheyyur","address2":"","latitude":"12.5135","longitude":"79.8149","accuracy":"4"}],"603303":[{"address3":"Pudupattu","state":"Tamil Nadu","state_code":"25","district":"Kanchipuram","district_code":"604","address1":"Chengalpattu","address2":"","latitude":"12.551","longitude":"79.8836","accuracy":"4"},{"address3":"Karunguli","state":"Tamil Nadu","state_code":"25","district":"Kanchipuram","district_code":"604","address1":"Madurantakam","address2":"","latitude":"12.5332","longitude":"79.9039","accuracy":"4"},{"address3":"Janakipuram","state":"Tamil Nadu","state_code":"25","district":"Kanchipuram","district_code":"604","address1":"Madurantakam","address2":"","latitude":"12.6952","longitude":"79.9479","accuracy":"4"},{"address3":"Melavalam","state":"Tamil Nadu","state_code":"25","district":"Kanchipuram","district_code":"604","address1":"NA","address2":"","latitude":"12.4149","longitude":"79.8122","accuracy":"3"},{"address3":"Malapalayam","state":"Tamil Nadu","state_code":"25","district":"Kanchipuram","district_code":"604","address1":"NA","address2":"","latitude":"12.4149","longitude":"79.8122","accuracy":"3"},{"address3":"Vedavakkam","state":"Tamil Nadu","state_code":"25","district":"Kanchipuram","district_code":"604","address1":"Madurantakam","address2":"","latitude":"12.562","longitude":"79.8727","accuracy":"4"},{"address3":"Kinar Kandigai Pudur","state":"Tamil Nadu","state_code":"25","district":"Kanchipuram","district_code":"604","address1":"NA","address2":"","latitude":"12.4149","longitude":"79.8122","accuracy":"3"},{"address3":"Kinar","state":"Tamil Nadu","state_code":"25","district":"Kanchipuram","district_code":"604","address1":"Chengalpattu","address2":"","latitude":"12.5258","longitude":"79.9326","accuracy":"4"},{"address3":"Malayalipettai","state":"Tamil Nadu","state_code":"25","district":"Kanchipuram","district_code":"604","address1":"Madurantakam","address2":"","latitude":"12.4149","longitude":"79.8122","accuracy":"3"},{"address3":"Keelavalam","state":"Tamil Nadu","state_code":"25","district":"Kanchipuram","district_code":"604","address1":"Madurantakam","address2":"","latitude":"12.4149","longitude":"79.8122","accuracy":"3"},{"address3":"Kathirichery","state":"Tamil Nadu","state_code":"25","district":"Kanchipuram","district_code":"604","address1":"Madurantakam","address2":"","latitude":"12.4149","longitude":"79.8122","accuracy":"3"}],"603304":[{"address3":"Kolathur","state":"Tamil Nadu","state_code":"25","district":"Kanchipuram","district_code":"604","address1":"Cheyur","address2":"","latitude":"12.6952","longitude":"79.9479","accuracy":"4"},{"address3":"Kottaikadu","state":"Tamil Nadu","state_code":"25","district":"Kanchipuram","district_code":"604","address1":"Madurantakam","address2":"","latitude":"12.2556","longitude":"79.9823","accuracy":"4"},{"address3":"Kudapakkam","state":"Tamil Nadu","state_code":"25","district":"Kanchipuram","district_code":"604","address1":"Cheyyur","address2":"","latitude":"13.0753","longitude":"79.9935","accuracy":"4"},{"address3":"Vedal","state":"Tamil Nadu","state_code":"25","district":"Kanchipuram","district_code":"604","address1":"NA","address2":"","latitude":"12.3011","longitude":"79.9651","accuracy":"4"},{"address3":"Vilambur","state":"Tamil Nadu","state_code":"25","district":"Kanchipuram","district_code":"604","address1":"Cheyur","address2":"","latitude":"12.4581","longitude":"79.8643","accuracy":"3"},{"address3":"Sembulipuram","state":"Tamil Nadu","state_code":"25","district":"Kanchipuram","district_code":"604","address1":"Cheyyur","address2":"","latitude":"12.4581","longitude":"79.8643","accuracy":"3"}],"603305":[{"address3":"Mugaiyur","state":"Tamil Nadu","state_code":"25","district":"Kanchipuram","district_code":"604","address1":"Madurantakam","address2":"","latitude":"12.6952","longitude":"79.9479","accuracy":"4"},{"address3":"Kuvathur","state":"Tamil Nadu","state_code":"25","district":"Kanchipuram","district_code":"604","address1":"Cheyyur","address2":"","latitude":"12.4446","longitude":"80.1067","accuracy":"4"},{"address3":"Seekanankuppam","state":"Tamil Nadu","state_code":"25","district":"Kanchipuram","district_code":"604","address1":"NA","address2":"","latitude":"11.5198","longitude":"79.3496","accuracy":"3"},{"address3":"Nedumaram","state":"Tamil Nadu","state_code":"25","district":"Kanchipuram","district_code":"604","address1":"Madurantakam","address2":"","latitude":"12.6952","longitude":"79.9479","accuracy":"4"},{"address3":"Kadalur","state":"Tamil Nadu","state_code":"25","district":"Kanchipuram","district_code":"604","address1":"Madurantakam","address2":"","latitude":"12.6952","longitude":"79.9479","accuracy":"3"},{"address3":"Vepancheri","state":"Tamil Nadu","state_code":"25","district":"Kanchipuram","district_code":"604","address1":"Madurantakam","address2":"","latitude":"11.5198","longitude":"79.3496","accuracy":"3"},{"address3":"Kodoovur","state":"Tamil Nadu","state_code":"25","district":"Kanchipuram","district_code":"604","address1":"Cheyyur","address2":"","latitude":"11.5198","longitude":"79.3496","accuracy":"3"},{"address3":"Nerkunapattu","state":"Tamil Nadu","state_code":"25","district":"Kanchipuram","district_code":"604","address1":"Chengalpattu","address2":"","latitude":"11.5198","longitude":"79.3496","accuracy":"3"}],"603306":[{"address3":"Pakkam","state":"Tamil Nadu","state_code":"25","district":"Kanchipuram","district_code":"604","address1":"Madurantakam","address2":"","latitude":"12.4712","longitude":"79.8592","accuracy":"4"},{"address3":"Senguntharpettai","state":"Tamil Nadu","state_code":"25","district":"Kanchipuram","district_code":"604","address1":"Maduranthakam","address2":"","latitude":"12.4477","longitude":"79.8541","accuracy":"3"},{"address3":"Unamalai","state":"Tamil Nadu","state_code":"25","district":"Kanchipuram","district_code":"604","address1":"Madurantakam","address2":"","latitude":"12.4662","longitude":"79.8379","accuracy":"4"},{"address3":"Perumbakkam","state":"Tamil Nadu","state_code":"25","district":"Kanchipuram","district_code":"604","address1":"Madurantakam","address2":"","latitude":"12.5135","longitude":"79.8149","accuracy":"4"},{"address3":"New Mambakkam","state":"Tamil Nadu","state_code":"25","district":"Kanchipuram","district_code":"604","address1":"NA","address2":"","latitude":"12.4477","longitude":"79.8541","accuracy":"3"},{"address3":"Murugambakkam","state":"Tamil Nadu","state_code":"25","district":"Kanchipuram","district_code":"604","address1":"Madurantakam","address2":"","latitude":"12.4477","longitude":"79.8541","accuracy":"3"},{"address3":"Madurantakam","state":"Tamil Nadu","state_code":"25","district":"Kanchipuram","district_code":"604","address1":"Madurantakam","address2":"","latitude":"12.5117","longitude":"79.8849","accuracy":"4"},{"address3":"Arungunam","state":"Tamil Nadu","state_code":"25","district":"Kanchipuram","district_code":"604","address1":"Madurantakam","address2":"","latitude":"12.6952","longitude":"79.9479","accuracy":"4"},{"address3":"Morapakkam","state":"Tamil Nadu","state_code":"25","district":"Kanchipuram","district_code":"604","address1":"Madurantakam","address2":"","latitude":"12.4477","longitude":"79.8541","accuracy":"3"},{"address3":"Thatchur","state":"Tamil Nadu","state_code":"25","district":"Kanchipuram","district_code":"604","address1":"NA","address2":"","latitude":"12.5045","longitude":"79.9785","accuracy":"4"},{"address3":"Veeranakunnam","state":"Tamil Nadu","state_code":"25","district":"Kanchipuram","district_code":"604","address1":"Madurantakam","address2":"","latitude":"12.4477","longitude":"79.8541","accuracy":"3"}],"603307":[{"address3":"Orathy","state":"Tamil Nadu","state_code":"25","district":"Kanchipuram","district_code":"604","address1":"Maduranthakam","address2":"","latitude":"12.7122","longitude":"79.8556","accuracy":"3"},{"address3":"Sirudamur","state":"Tamil Nadu","state_code":"25","district":"Kanchipuram","district_code":"604","address1":"Madurantakam","address2":"","latitude":"12.7122","longitude":"79.8556","accuracy":"4"},{"address3":"Ananthamangalam","state":"Tamil Nadu","state_code":"25","district":"Kanchipuram","district_code":"604","address1":"Chengalpattu","address2":"","latitude":"12.7122","longitude":"79.8556","accuracy":"3"},{"address3":"Minnal Sithamur","state":"Tamil Nadu","state_code":"25","district":"Kanchipuram","district_code":"604","address1":"Madurantakam","address2":"","latitude":"12.7122","longitude":"79.8556","accuracy":"3"},{"address3":"Vadamanipakkam","state":"Tamil Nadu","state_code":"25","district":"Kanchipuram","district_code":"604","address1":"Madurantakam","address2":"","latitude":"12.7122","longitude":"79.8556","accuracy":"3"}],"603308":[{"address3":"Malaivaiyavur","state":"Tamil Nadu","state_code":"25","district":"Kanchipuram","district_code":"604","address1":"NA","address2":"","latitude":"12.595","longitude":"79.8944","accuracy":"4"},{"address3":"Kallabiranpuram","state":"Tamil Nadu","state_code":"25","district":"Kanchipuram","district_code":"604","address1":"NA","address2":"","latitude":"12.5338","longitude":"79.7983","accuracy":"3"},{"address3":"Padalam","state":"Tamil Nadu","state_code":"25","district":"Kanchipuram","district_code":"604","address1":"Maduranthakam","address2":"","latitude":"12.5926","longitude":"79.9497","accuracy":"4"},{"address3":"Isur","state":"Tamil Nadu","state_code":"25","district":"Kanchipuram","district_code":"604","address1":"Madurantakam","address2":"","latitude":"12.3084","longitude":"79.8523","accuracy":"4"},{"address3":"Budur","state":"Tamil Nadu","state_code":"25","district":"Kanchipuram","district_code":"604","address1":"Madurantakam","address2":"","latitude":"12.3483","longitude":"79.9561","accuracy":"4"},{"address3":"Kolampakkam","state":"Tamil Nadu","state_code":"25","district":"Kanchipuram","district_code":"604","address1":"Maduranthakam","address2":"","latitude":"12.5338","longitude":"79.7983","accuracy":"3"},{"address3":"Palayanur","state":"Tamil Nadu","state_code":"25","district":"Kanchipuram","district_code":"604","address1":"Chengalpattu","address2":"","latitude":"12.6952","longitude":"79.9479","accuracy":"4"},{"address3":"Bukkathurai","state":"Tamil Nadu","state_code":"25","district":"Kanchipuram","district_code":"604","address1":"Madurantakam","address2":"","latitude":"12.5338","longitude":"79.7983","accuracy":"3"},{"address3":"Tiruvandavar","state":"Tamil Nadu","state_code":"25","district":"Kanchipuram","district_code":"604","address1":"Maduranthakam","address2":"","latitude":"12.5338","longitude":"79.7983","accuracy":"3"}],"603309":[{"address3":"Paiyambadi","state":"Tamil Nadu","state_code":"25","district":"Kanchipuram","district_code":"604","address1":"NA","address2":"","latitude":"12.4341","longitude":"79.8989","accuracy":"4"},{"address3":"Polambakkam","state":"Tamil Nadu","state_code":"25","district":"Kanchipuram","district_code":"604","address1":"Cheyyur","address2":"","latitude":"12.4293","longitude":"79.8833","accuracy":"4"},{"address3":"Perukkaranai","state":"Tamil Nadu","state_code":"25","district":"Kanchipuram","district_code":"604","address1":"Cheyyur","address2":"","latitude":"12.3897","longitude":"79.8706","accuracy":"4"},{"address3":"Chitravadi","state":"Tamil Nadu","state_code":"25","district":"Kanchipuram","district_code":"604","address1":"Cheyyur","address2":"","latitude":"12.4177","longitude":"79.8842","accuracy":"3"},{"address3":"Mugundagiri","state":"Tamil Nadu","state_code":"25","district":"Kanchipuram","district_code":"604","address1":"Cheyur","address2":"","latitude":"12.4177","longitude":"79.8842","accuracy":"3"}],"603310":[{"address3":"Nerkunam","state":"Tamil Nadu","state_code":"25","district":"Kanchipuram","district_code":"604","address1":"Chengalpattu","address2":"","latitude":"12.6952","longitude":"79.9479","accuracy":"4"},{"address3":"Sirumailur","state":"Tamil Nadu","state_code":"25","district":"Kanchipuram","district_code":"604","address1":"Madurantakam","address2":"","latitude":"12.3155","longitude":"79.8438","accuracy":"4"},{"address3":"Ayakonamkolathur","state":"Tamil Nadu","state_code":"25","district":"Kanchipuram","district_code":"604","address1":"NA","address2":"","latitude":"12.3003","longitude":"79.817","accuracy":"3"},{"address3":"Isur","state":"Tamil Nadu","state_code":"25","district":"Kanchipuram","district_code":"604","address1":"Madurantakam","address2":"","latitude":"12.3084","longitude":"79.8523","accuracy":"4"},{"address3":"Thozhupedu","state":"Tamil Nadu","state_code":"25","district":"Kanchipuram","district_code":"604","address1":"Madurantakam","address2":"","latitude":"12.3003","longitude":"79.817","accuracy":"3"},{"address3":"Perumber Kandigai","state":"Tamil Nadu","state_code":"25","district":"Kanchipuram","district_code":"604","address1":"Madurantakam","address2":"","latitude":"12.3003","longitude":"79.817","accuracy":"3"},{"address3":"Karasangal","state":"Tamil Nadu","state_code":"25","district":"Kanchipuram","district_code":"604","address1":"Cheyyur","address2":"","latitude":"12.3349","longitude":"79.752","accuracy":"4"},{"address3":"Sirunagar","state":"Tamil Nadu","state_code":"25","district":"Kanchipuram","district_code":"604","address1":"Madurantakam","address2":"","latitude":"12.3003","longitude":"79.817","accuracy":"3"}],"603311":[{"address3":"Zamin Endathur","state":"Tamil Nadu","state_code":"25","district":"Kanchipuram","district_code":"604","address1":"Madurantakam","address2":"","latitude":"12.3988","longitude":"79.8708","accuracy":"1"},{"address3":"Peria Venmani","state":"Tamil Nadu","state_code":"25","district":"Kanchipuram","district_code":"604","address1":"NA","address2":"","latitude":"12.3988","longitude":"79.8708","accuracy":"1"},{"address3":"Ozhavetti","state":"Tamil Nadu","state_code":"25","district":"Kanchipuram","district_code":"604","address1":"Cheyur","address2":"","latitude":"12.3988","longitude":"79.8708","accuracy":"1"}],"603312":[{"address3":"Palur","state":"Tamil Nadu","state_code":"25","district":"Kanchipuram","district_code":"604","address1":"Cheyyur","address2":"","latitude":"12.767","longitude":"79.9148","accuracy":"4"},{"address3":"Anaicut","state":"Tamil Nadu","state_code":"25","district":"Kanchipuram","district_code":"604","address1":"NA","address2":"","latitude":"12.767","longitude":"79.9148","accuracy":"3"},{"address3":"Seevadi","state":"Tamil Nadu","state_code":"25","district":"Kanchipuram","district_code":"604","address1":"Cheyyur","address2":"","latitude":"12.767","longitude":"79.9148","accuracy":"3"},{"address3":"Pavunjur","state":"Tamil Nadu","state_code":"25","district":"Kanchipuram","district_code":"604","address1":"Cheyyur","address2":"","latitude":"12.767","longitude":"79.9148","accuracy":"3"},{"address3":"Kalkulam","state":"Tamil Nadu","state_code":"25","district":"Kanchipuram","district_code":"604","address1":"Cheyyur","address2":"","latitude":"12.6952","longitude":"79.9479","accuracy":"3"},{"address3":"Iranya Sidhi","state":"Tamil Nadu","state_code":"25","district":"Kanchipuram","district_code":"604","address1":"Cheyyur","address2":"","latitude":"12.767","longitude":"79.9148","accuracy":"3"},{"address3":"Lathur","state":"Tamil Nadu","state_code":"25","district":"Kanchipuram","district_code":"604","address1":"Cheyyur","address2":"","latitude":"12.767","longitude":"79.9148","accuracy":"3"},{"address3":"K.Nelvoy","state":"Tamil Nadu","state_code":"25","district":"Kanchipuram","district_code":"604","address1":"NA","address2":"","latitude":"12.767","longitude":"79.9148","accuracy":"3"}],"603313":[{"address3":"Neerpair","state":"Tamil Nadu","state_code":"25","district":"Kanchipuram","district_code":"604","address1":"Cheyur","address2":"","latitude":"12.3768","longitude":"79.9363","accuracy":"3"},{"address3":"Nugumbal","state":"Tamil Nadu","state_code":"25","district":"Kanchipuram","district_code":"604","address1":"NA","address2":"","latitude":"12.3438","longitude":"79.8904","accuracy":"4"},{"address3":"Chithamur","state":"Tamil Nadu","state_code":"25","district":"Kanchipuram","district_code":"604","address1":"Cheyur","address2":"","latitude":"12.3768","longitude":"79.9363","accuracy":"3"},{"address3":"Vilanganur","state":"Tamil Nadu","state_code":"25","district":"Kanchipuram","district_code":"604","address1":"NA","address2":"","latitude":"12.3843","longitude":"79.9509","accuracy":"4"},{"address3":"Onambakkam","state":"Tamil Nadu","state_code":"25","district":"Kanchipuram","district_code":"604","address1":"NA","address2":"","latitude":"12.3833","longitude":"79.9659","accuracy":"4"},{"address3":"Kattudevadur","state":"Tamil Nadu","state_code":"25","district":"Kanchipuram","district_code":"604","address1":"Cheyyur","address2":"","latitude":"12.3959","longitude":"79.9382","accuracy":"4"}],"603314":[{"address3":"Vellaputhur","state":"Tamil Nadu","state_code":"25","district":"Kanchipuram","district_code":"604","address1":"Uttiramerur","address2":"","latitude":"12.3988","longitude":"79.8708","accuracy":"1"},{"address3":"Perungozhi","state":"Tamil Nadu","state_code":"25","district":"Kanchipuram","district_code":"604","address1":"Uttiramerur","address2":"","latitude":"12.3988","longitude":"79.8708","accuracy":"1"},{"address3":"Kattiampandal","state":"Tamil Nadu","state_code":"25","district":"Kanchipuram","district_code":"604","address1":"NA","address2":"","latitude":"12.3988","longitude":"79.8708","accuracy":"1"},{"address3":"Vedanthangal","state":"Tamil Nadu","state_code":"25","district":"Kanchipuram","district_code":"604","address1":"Uttiramerur","address2":"","latitude":"12.3988","longitude":"79.8708","accuracy":"1"},{"address3":"Pulithivakkam","state":"Tamil Nadu","state_code":"25","district":"Kanchipuram","district_code":"604","address1":"Uttiramerur","address2":"","latitude":"12.3988","longitude":"79.8708","accuracy":"1"}],"603319":[{"address3":"Melmaruvathur","state":"Tamil Nadu","state_code":"25","district":"Kanchipuram","district_code":"604","address1":"Cheyyur","address2":"","latitude":"12.4554","longitude":"79.8253","accuracy":"3"},{"address3":"Sendivakkam","state":"Tamil Nadu","state_code":"25","district":"Kanchipuram","district_code":"604","address1":"Chengalpattu","address2":"","latitude":"12.4541","longitude":"79.8031","accuracy":"4"},{"address3":"Sirunagalur","state":"Tamil Nadu","state_code":"25","district":"Kanchipuram","district_code":"604","address1":"Madurantakam","address2":"","latitude":"12.4566","longitude":"79.8475","accuracy":"4"}],"603401":[{"address3":"Chunampet","state":"Tamil Nadu","state_code":"25","district":"Kanchipuram","district_code":"604","address1":"Cheyyur","address2":"","latitude":"12.2558","longitude":"79.9033","accuracy":"4"},{"address3":"Puthirankottai","state":"Tamil Nadu","state_code":"25","district":"Kanchipuram","district_code":"604","address1":"Cheyur","address2":"","latitude":"12.2781","longitude":"79.9122","accuracy":"3"},{"address3":"Kadukkalur","state":"Tamil Nadu","state_code":"25","district":"Kanchipuram","district_code":"604","address1":"Cheyyur","address2":"","latitude":"12.2835","longitude":"79.9472","accuracy":"4"},{"address3":"Velur","state":"Tamil Nadu","state_code":"25","district":"Kanchipuram","district_code":"604","address1":"NA","address2":"","latitude":"12.2897","longitude":"79.9252","accuracy":"4"},{"address3":"Vannianallur","state":"Tamil Nadu","state_code":"25","district":"Kanchipuram","district_code":"604","address1":"Madurantakam","address2":"","latitude":"12.2781","longitude":"79.9122","accuracy":"3"},{"address3":"Andarkuppam","state":"Tamil Nadu","state_code":"25","district":"Kanchipuram","district_code":"604","address1":"Cheyyur","address2":"","latitude":"12.2835","longitude":"79.873","accuracy":"4"}],"603402":[{"address3":"Elaganar","state":"Tamil Nadu","state_code":"25","district":"Kanchipuram","district_code":"604","address1":"Uttiramerur","address2":"","latitude":"12.5828","longitude":"79.7172","accuracy":"3"},{"address3":"Pennalur","state":"Tamil Nadu","state_code":"25","district":"Kanchipuram","district_code":"604","address1":"Uttiramerur","address2":"","latitude":"12.5991","longitude":"79.7118","accuracy":"4"},{"address3":"Alisoor","state":"Tamil Nadu","state_code":"25","district":"Kanchipuram","district_code":"604","address1":"Kanchipuram","address2":"","latitude":"12.5828","longitude":"79.7172","accuracy":"3"},{"address3":"Kaliyampoondi","state":"Tamil Nadu","state_code":"25","district":"Kanchipuram","district_code":"604","address1":"Uttiramerur","address2":"","latitude":"12.5828","longitude":"79.7172","accuracy":"3"},{"address3":"Hanumanthandalam","state":"Tamil Nadu","state_code":"25","district":"Kanchipuram","district_code":"604","address1":"Uttiramerur","address2":"","latitude":"12.5828","longitude":"79.7172","accuracy":"3"},{"address3":"Arasanimangalam","state":"Tamil Nadu","state_code":"25","district":"Kanchipuram","district_code":"604","address1":"Uttiramerur","address2":"","latitude":"12.5665","longitude":"79.7226","accuracy":"4"}],"603403":[{"address3":"Perunagar","state":"Tamil Nadu","state_code":"25","district":"Kanchipuram","district_code":"604","address1":"Uttiramerur","address2":"","latitude":"12.6498","longitude":"79.6585","accuracy":"4"},{"address3":"Manampathi","state":"Tamil Nadu","state_code":"25","district":"Kanchipuram","district_code":"604","address1":"Uttiramerur","address2":"","latitude":"12.6498","longitude":"79.6585","accuracy":"3"},{"address3":"Thandarai","state":"Tamil Nadu","state_code":"25","district":"Kanchipuram","district_code":"604","address1":"NA","address2":"","latitude":"12.6498","longitude":"79.6585","accuracy":"3"},{"address3":"R.N.Kandigai","state":"Tamil Nadu","state_code":"25","district":"Kanchipuram","district_code":"604","address1":"NA","address2":"","latitude":"12.6498","longitude":"79.6585","accuracy":"3"},{"address3":"Manampathikandigai","state":"Tamil Nadu","state_code":"25","district":"Kanchipuram","district_code":"604","address1":"Uthiramerur","address2":"","latitude":"12.6498","longitude":"79.6585","accuracy":"3"}],"603405":[{"address3":"Ponvilainthakalathur","state":"Tamil Nadu","state_code":"25","district":"Kanchipuram","district_code":"604","address1":"Chengalpattu","address2":"","latitude":"12.5742","longitude":"79.9887","accuracy":"3"},{"address3":"Anur","state":"Tamil Nadu","state_code":"25","district":"Kanchipuram","district_code":"604","address1":"Chengalpattu","address2":"","latitude":"12.5769","longitude":"79.9742","accuracy":"4"},{"address3":"Ponpathirkoodam","state":"Tamil Nadu","state_code":"25","district":"Kanchipuram","district_code":"604","address1":"Chengalpattu","address2":"","latitude":"12.5742","longitude":"79.9887","accuracy":"3"},{"address3":"Salur","state":"Tamil Nadu","state_code":"25","district":"Kanchipuram","district_code":"604","address1":"Chengalpattu","address2":"","latitude":"12.5922","longitude":"80.0009","accuracy":"4"},{"address3":"Sogandi","state":"Tamil Nadu","state_code":"25","district":"Kanchipuram","district_code":"604","address1":"Chengalpattu","address2":"","latitude":"12.5742","longitude":"79.9887","accuracy":"3"},{"address3":"Vallipuram","state":"Tamil Nadu","state_code":"25","district":"Kanchipuram","district_code":"604","address1":"Chengalpattu","address2":"","latitude":"12.5536","longitude":"79.9912","accuracy":"4"}],"603406":[{"address3":"Vadanallur","state":"Tamil Nadu","state_code":"25","district":"Kanchipuram","district_code":"604","address1":"Uthiramerur","address2":"","latitude":"12.6105","longitude":"79.7794","accuracy":"4"},{"address3":"Uttiramerur","state":"Tamil Nadu","state_code":"25","district":"Kanchipuram","district_code":"604","address1":"Uthiramerur","address2":"","latitude":"12.6143","longitude":"79.7575","accuracy":"4"},{"address3":"L.Endathur","state":"Tamil Nadu","state_code":"25","district":"Kanchipuram","district_code":"604","address1":"Uttiramerur","address2":"","latitude":"12.5815","longitude":"79.7753","accuracy":"3"},{"address3":"Kavanur Pudhucheri","state":"Tamil Nadu","state_code":"25","district":"Kanchipuram","district_code":"604","address1":"NA","address2":"","latitude":"12.5815","longitude":"79.7753","accuracy":"3"},{"address3":"Malliyankaranai","state":"Tamil Nadu","state_code":"25","district":"Kanchipuram","district_code":"604","address1":"NA","address2":"","latitude":"12.6322","longitude":"79.788","accuracy":"4"},{"address3":"Maruthuvambadi","state":"Tamil Nadu","state_code":"25","district":"Kanchipuram","district_code":"604","address1":"Uttiramerur","address2":"","latitude":"12.5815","longitude":"79.7753","accuracy":"3"},{"address3":"Kiliyanagar","state":"Tamil Nadu","state_code":"25","district":"Kanchipuram","district_code":"604","address1":"Maduranthakam","address2":"","latitude":"12.505","longitude":"79.7627","accuracy":"4"},{"address3":"Agaramduli","state":"Tamil Nadu","state_code":"25","district":"Kanchipuram","district_code":"604","address1":"Uttiramerur","address2":"","latitude":"12.5815","longitude":"79.7753","accuracy":"3"},{"address3":"Tittalam","state":"Tamil Nadu","state_code":"25","district":"Kanchipuram","district_code":"604","address1":"Uttiramerur","address2":"","latitude":"12.5454","longitude":"79.7889","accuracy":"4"},{"address3":"Tirupulivanam","state":"Tamil Nadu","state_code":"25","district":"Kanchipuram","district_code":"604","address1":"Uttiramerur","address2":"","latitude":"12.5815","longitude":"79.7753","accuracy":"3"},{"address3":"Sirungoli","state":"Tamil Nadu","state_code":"25","district":"Kanchipuram","district_code":"604","address1":"NA","address2":"","latitude":"12.5815","longitude":"79.7753","accuracy":"3"},{"address3":"Kammalampoondi","state":"Tamil Nadu","state_code":"25","district":"Kanchipuram","district_code":"604","address1":"Uthiramerur","address2":"","latitude":"12.5815","longitude":"79.7753","accuracy":"3"}],"credits":[{"name":"geonames","url":"https://www.geonames.org"}],"last_update":"2019-03-01T09:01:35.123Z"}