{"608001":[{"address3":"Chidambaram H.O","state":"Tamil Nadu","state_code":"25","district":"Cuddalore","district_code":"617","address1":"NA","address2":"","latitude":"11.6327","longitude":"79.4467","accuracy":"1"},{"address3":"Chidambaram North","state":"Tamil Nadu","state_code":"25","district":"Cuddalore","district_code":"617","address1":"Chidambaram North","address2":"","latitude":"11.6327","longitude":"79.4467","accuracy":"1"},{"address3":"Chidambaram Cutcherry","state":"Tamil Nadu","state_code":"25","district":"Cuddalore","district_code":"617","address1":"Chidambaram","address2":"","latitude":"11.6327","longitude":"79.4467","accuracy":"1"},{"address3":"Chidambaram East","state":"Tamil Nadu","state_code":"25","district":"Cuddalore","district_code":"617","address1":"NA","address2":"","latitude":"11.6327","longitude":"79.4467","accuracy":"1"},{"address3":"Chidambaram West","state":"Tamil Nadu","state_code":"25","district":"Cuddalore","district_code":"617","address1":"NA","address2":"","latitude":"11.6327","longitude":"79.4467","accuracy":"1"},{"address3":"Muthukamatchithottam","state":"Tamil Nadu","state_code":"25","district":"Cuddalore","district_code":"617","address1":"Chidambaram North","address2":"","latitude":"11.6327","longitude":"79.4467","accuracy":"1"}],"608002":[{"address3":"Kodiyampalayam","state":"Tamil Nadu","state_code":"25","district":"Cuddalore","district_code":"617","address1":"Chidambaram","address2":"","latitude":"11.6327","longitude":"79.4467","accuracy":"3"},{"address3":"Annamalainagar","state":"Tamil Nadu","state_code":"25","district":"Cuddalore","district_code":"617","address1":"Chidambaram","address2":"","latitude":"11.4","longitude":"79.7333","accuracy":"4"},{"address3":"Nakkaravanthankudi","state":"Tamil Nadu","state_code":"25","district":"Cuddalore","district_code":"617","address1":"Chidambaram","address2":"","latitude":"11.6327","longitude":"79.4467","accuracy":"3"},{"address3":"Perampattu","state":"Tamil Nadu","state_code":"25","district":"Cuddalore","district_code":"617","address1":"Chidambaram","address2":"","latitude":"11.535","longitude":"79.4509","accuracy":"4"},{"address3":"Annamalai University","state":"Tamil Nadu","state_code":"25","district":"Cuddalore","district_code":"617","address1":"Chidambaram","address2":"","latitude":"11.6327","longitude":"79.4467","accuracy":"3"},{"address3":"Gavarappattu","state":"Tamil Nadu","state_code":"25","district":"Cuddalore","district_code":"617","address1":"Chidambaram","address2":"","latitude":"11.3799","longitude":"79.7473","accuracy":"4"},{"address3":"Jayankondapattinam","state":"Tamil Nadu","state_code":"25","district":"Cuddalore","district_code":"617","address1":"Chidambaram","address2":"","latitude":"11.6327","longitude":"79.4467","accuracy":"3"},{"address3":"Sivapuri","state":"Tamil Nadu","state_code":"25","district":"Cuddalore","district_code":"617","address1":"NA","address2":"","latitude":"11.3713","longitude":"79.7135","accuracy":"4"},{"address3":"Uthamacholamangalam","state":"Tamil Nadu","state_code":"25","district":"Cuddalore","district_code":"617","address1":"Chidambaram","address2":"","latitude":"11.6327","longitude":"79.4467","accuracy":"3"},{"address3":"Pichavaram","state":"Tamil Nadu","state_code":"25","district":"Cuddalore","district_code":"617","address1":"Chidambaram","address2":"","latitude":"11.6327","longitude":"79.4467","accuracy":"3"},{"address3":"Kovilampoondi","state":"Tamil Nadu","state_code":"25","district":"Cuddalore","district_code":"617","address1":"Chidambaram","address2":"","latitude":"11.6327","longitude":"79.4467","accuracy":"3"}],"608102":[{"address3":"Killai","state":"Tamil Nadu","state_code":"25","district":"Cuddalore","district_code":"617","address1":"Chidambaram","address2":"","latitude":"11.4493","longitude":"79.7668","accuracy":"4"},{"address3":"C.Mutlur","state":"Tamil Nadu","state_code":"25","district":"Cuddalore","district_code":"617","address1":"Chidambaram","address2":"","latitude":"11.4493","longitude":"79.7668","accuracy":"3"},{"address3":"Thillaividangan","state":"Tamil Nadu","state_code":"25","district":"Cuddalore","district_code":"617","address1":"Chidambaram","address2":"","latitude":"11.4493","longitude":"79.7668","accuracy":"3"},{"address3":"Keelamoongiladi","state":"Tamil Nadu","state_code":"25","district":"Cuddalore","district_code":"617","address1":"Chidambaram","address2":"","latitude":"11.4493","longitude":"79.7668","accuracy":"3"},{"address3":"Ponnanthittu","state":"Tamil Nadu","state_code":"25","district":"Cuddalore","district_code":"617","address1":"Chidambaram","address2":"","latitude":"11.4493","longitude":"79.7668","accuracy":"3"},{"address3":"Nanjamahathuvazkai","state":"Tamil Nadu","state_code":"25","district":"Cuddalore","district_code":"617","address1":"Chidambaram","address2":"","latitude":"11.4493","longitude":"79.7668","accuracy":"3"},{"address3":"Keelanuvampattu","state":"Tamil Nadu","state_code":"25","district":"Cuddalore","district_code":"617","address1":"Chidambaram","address2":"","latitude":"11.4493","longitude":"79.7668","accuracy":"3"},{"address3":"Pinnathur","state":"Tamil Nadu","state_code":"25","district":"Cuddalore","district_code":"617","address1":"Chidambaram","address2":"","latitude":"11.4493","longitude":"79.7668","accuracy":"3"}],"608201":[{"address3":"Odakkanallur","state":"Tamil Nadu","state_code":"25","district":"Cuddalore","district_code":"617","address1":"Chidambaram","address2":"","latitude":"11.3934","longitude":"79.5523","accuracy":"4"},{"address3":"Paradur","state":"Tamil Nadu","state_code":"25","district":"Cuddalore","district_code":"617","address1":"Chidambaram","address2":"","latitude":"11.4257","longitude":"79.5666","accuracy":"4"},{"address3":"Ayyanur Akkaramangalam","state":"Tamil Nadu","state_code":"25","district":"Cuddalore","district_code":"617","address1":"Chidambaram","address2":"","latitude":"11.3818","longitude":"79.5856","accuracy":"4"},{"address3":"Vakkur","state":"Tamil Nadu","state_code":"25","district":"Cuddalore","district_code":"617","address1":"Chidambaram","address2":"","latitude":"11.3963","longitude":"79.57","accuracy":"4"},{"address3":"Sakkangudi","state":"Tamil Nadu","state_code":"25","district":"Cuddalore","district_code":"617","address1":"Chidambaram","address2":"","latitude":"11.4193","longitude":"79.6148","accuracy":"4"},{"address3":"Maduranthaganallur","state":"Tamil Nadu","state_code":"25","district":"Cuddalore","district_code":"617","address1":"Chidambaram","address2":"","latitude":"11.4033","longitude":"79.5779","accuracy":"3"},{"address3":"Pannapattu","state":"Tamil Nadu","state_code":"25","district":"Cuddalore","district_code":"617","address1":"Chidambaram","address2":"","latitude":"11.4033","longitude":"79.5779","accuracy":"3"},{"address3":"C.Sathamangalam","state":"Tamil Nadu","state_code":"25","district":"Cuddalore","district_code":"617","address1":"Chidambaram","address2":"","latitude":"11.4033","longitude":"79.5779","accuracy":"3"},{"address3":"Orathur","state":"Tamil Nadu","state_code":"25","district":"Cuddalore","district_code":"617","address1":"Chidambaram","address2":"","latitude":"11.4033","longitude":"79.5779","accuracy":"3"}],"608301":[{"address3":"Arantangi","state":"Tamil Nadu","state_code":"25","district":"Cuddalore","district_code":"617","address1":"Kattumannarkoil","address2":"","latitude":"11.3136","longitude":"79.5127","accuracy":"4"},{"address3":"Karunakaranallur","state":"Tamil Nadu","state_code":"25","district":"Cuddalore","district_code":"617","address1":"Kattumannarkoil","address2":"","latitude":"11.2936","longitude":"79.5111","accuracy":"4"},{"address3":"Nattarmangalam","state":"Tamil Nadu","state_code":"25","district":"Cuddalore","district_code":"617","address1":"Kattumannarkoil","address2":"","latitude":"11.2772","longitude":"79.533","accuracy":"4"},{"address3":"Kandamangalam","state":"Tamil Nadu","state_code":"25","district":"Cuddalore","district_code":"617","address1":"Kattumannarkoil","address2":"","latitude":"11.257","longitude":"79.5321","accuracy":"4"},{"address3":"Kattumannarkoil","state":"Tamil Nadu","state_code":"25","district":"Cuddalore","district_code":"617","address1":"Kattumannarkoil","address2":"","latitude":"11.2763","longitude":"79.5578","accuracy":"4"},{"address3":"Veeranandapuram","state":"Tamil Nadu","state_code":"25","district":"Cuddalore","district_code":"617","address1":"Kattumannarkoil","address2":"","latitude":"11.2836","longitude":"79.5293","accuracy":"3"},{"address3":"Rajendra Cholagam","state":"Tamil Nadu","state_code":"25","district":"Cuddalore","district_code":"617","address1":"Kattumannarkoil","address2":"","latitude":"11.2836","longitude":"79.5293","accuracy":"3"},{"address3":"Melapalachanallur","state":"Tamil Nadu","state_code":"25","district":"Cuddalore","district_code":"617","address1":"Kattumannarkoil","address2":"","latitude":"11.2836","longitude":"79.5293","accuracy":"3"},{"address3":"M.Kolakudi","state":"Tamil Nadu","state_code":"25","district":"Cuddalore","district_code":"617","address1":"Kattumannarkoil","address2":"","latitude":"11.2836","longitude":"79.5293","accuracy":"3"},{"address3":"Sithamalli","state":"Tamil Nadu","state_code":"25","district":"Cuddalore","district_code":"617","address1":"Kattumannarkoil","address2":"","latitude":"11.2836","longitude":"79.5293","accuracy":"3"},{"address3":"Udayargudi","state":"Tamil Nadu","state_code":"25","district":"Cuddalore","district_code":"617","address1":"Kattumannarkoil","address2":"","latitude":"11.2836","longitude":"79.5293","accuracy":"3"}],"608302":[{"address3":"Mullangudi","state":"Tamil Nadu","state_code":"25","district":"Cuddalore","district_code":"617","address1":"Chidambaram","address2":"","latitude":"11.312","longitude":"79.6512","accuracy":"4"},{"address3":"Temmur","state":"Tamil Nadu","state_code":"25","district":"Cuddalore","district_code":"617","address1":"Chidambaram","address2":"","latitude":"11.3373","longitude":"79.6176","accuracy":"4"},{"address3":"Nanjalur","state":"Tamil Nadu","state_code":"25","district":"Cuddalore","district_code":"617","address1":"Chidambaram","address2":"","latitude":"11.3673","longitude":"79.6563","accuracy":"4"},{"address3":"Vannaiyur","state":"Tamil Nadu","state_code":"25","district":"Cuddalore","district_code":"617","address1":"Chidambaram","address2":"","latitude":"11.3332","longitude":"79.6411","accuracy":"3"},{"address3":"Komaratchi","state":"Tamil Nadu","state_code":"25","district":"Cuddalore","district_code":"617","address1":"Kattumannarkoil","address2":"","latitude":"11.3088","longitude":"79.6266","accuracy":"4"},{"address3":"Pulamedu","state":"Tamil Nadu","state_code":"25","district":"Cuddalore","district_code":"617","address1":"Chidambaram","address2":"","latitude":"11.3403","longitude":"79.6538","accuracy":"4"},{"address3":"M.Puliyangudi","state":"Tamil Nadu","state_code":"25","district":"Cuddalore","district_code":"617","address1":"Chidambaram","address2":"","latitude":"11.3332","longitude":"79.6411","accuracy":"3"},{"address3":"Suravilandur","state":"Tamil Nadu","state_code":"25","district":"Cuddalore","district_code":"617","address1":"Chidambaram","address2":"","latitude":"11.3332","longitude":"79.6411","accuracy":"3"},{"address3":"Melavanniyur","state":"Tamil Nadu","state_code":"25","district":"Cuddalore","district_code":"617","address1":"Chidambaram","address2":"","latitude":"11.3332","longitude":"79.6411","accuracy":"3"},{"address3":"Melaparuthikudi","state":"Tamil Nadu","state_code":"25","district":"Cuddalore","district_code":"617","address1":"Chidambaram","address2":"","latitude":"11.3332","longitude":"79.6411","accuracy":"3"},{"address3":"C.Arasur","state":"Tamil Nadu","state_code":"25","district":"Cuddalore","district_code":"617","address1":"Chidambaram","address2":"","latitude":"11.3332","longitude":"79.6411","accuracy":"3"}],"608303":[{"address3":"Neyvasal","state":"Tamil Nadu","state_code":"25","district":"Cuddalore","district_code":"617","address1":"Chidambaram","address2":"","latitude":"11.3823","longitude":"79.1811","accuracy":"4"},{"address3":"Elleri","state":"Tamil Nadu","state_code":"25","district":"Cuddalore","district_code":"617","address1":"NA","address2":"","latitude":"11.3043","longitude":"79.569","accuracy":"4"},{"address3":"Tirunaraiyur","state":"Tamil Nadu","state_code":"25","district":"Cuddalore","district_code":"617","address1":"Chidambaram","address2":"","latitude":"11.2967","longitude":"79.5979","accuracy":"4"},{"address3":"Kollumedu","state":"Tamil Nadu","state_code":"25","district":"Cuddalore","district_code":"617","address1":"Chidambaram","address2":"","latitude":"11.535","longitude":"79.4509","accuracy":"4"},{"address3":"Kollimalai Kilpathi","state":"Tamil Nadu","state_code":"25","district":"Cuddalore","district_code":"617","address1":"Chidambaram","address2":"","latitude":"11.7497","longitude":"79.4811","accuracy":"3"},{"address3":"Pillaiyarthangal","state":"Tamil Nadu","state_code":"25","district":"Cuddalore","district_code":"617","address1":"Chidambaram","address2":"","latitude":"11.7497","longitude":"79.4811","accuracy":"3"},{"address3":"M.Odaiyur","state":"Tamil Nadu","state_code":"25","district":"Cuddalore","district_code":"617","address1":"Chidambaram","address2":"","latitude":"11.7497","longitude":"79.4811","accuracy":"3"},{"address3":"Maniadur","state":"Tamil Nadu","state_code":"25","district":"Cuddalore","district_code":"617","address1":"Chidambaram","address2":"","latitude":"11.7497","longitude":"79.4811","accuracy":"3"},{"address3":"Lalpet","state":"Tamil Nadu","state_code":"25","district":"Cuddalore","district_code":"617","address1":"Kattumannarkoil","address2":"","latitude":"11.7497","longitude":"79.4811","accuracy":"3"}],"608304":[{"address3":"Kanjankollai","state":"Tamil Nadu","state_code":"25","district":"Cuddalore","district_code":"617","address1":"Kattumannarkoil","address2":"","latitude":"11.1695","longitude":"79.4757","accuracy":"4"},{"address3":"Eyyalur","state":"Tamil Nadu","state_code":"25","district":"Cuddalore","district_code":"617","address1":"Kattumannarkoil","address2":"","latitude":"11.1885","longitude":"79.5166","accuracy":"4"},{"address3":"Shandan","state":"Tamil Nadu","state_code":"25","district":"Cuddalore","district_code":"617","address1":"Kattumannarkoil","address2":"","latitude":"11.2114","longitude":"79.505","accuracy":"4"},{"address3":"M.Adhanur","state":"Tamil Nadu","state_code":"25","district":"Cuddalore","district_code":"617","address1":"Kattumannarkoil","address2":"","latitude":"11.1928","longitude":"79.5019","accuracy":"3"},{"address3":"Sirukattur","state":"Tamil Nadu","state_code":"25","district":"Cuddalore","district_code":"617","address1":"Kattumannarkoil","address2":"","latitude":"11.1875","longitude":"79.4906","accuracy":"4"},{"address3":"Chettithangal","state":"Tamil Nadu","state_code":"25","district":"Cuddalore","district_code":"617","address1":"Kattumannarkoil","address2":"","latitude":"11.1928","longitude":"79.5019","accuracy":"3"},{"address3":"Reddiyur","state":"Tamil Nadu","state_code":"25","district":"Cuddalore","district_code":"617","address1":"Kattumannarkoil","address2":"","latitude":"11.2071","longitude":"79.5217","accuracy":"4"},{"address3":"Melakadambur","state":"Tamil Nadu","state_code":"25","district":"Cuddalore","district_code":"617","address1":"Kattumannarkoil","address2":"","latitude":"11.1928","longitude":"79.5019","accuracy":"3"}],"608305":[{"address3":"Kuduveli","state":"Tamil Nadu","state_code":"25","district":"Cuddalore","district_code":"617","address1":"Kattumannarkoil","address2":"","latitude":"11.3531","longitude":"79.6269","accuracy":"4"},{"address3":"Terkuviruthangam","state":"Tamil Nadu","state_code":"25","district":"Cuddalore","district_code":"617","address1":"Kattumannarkoil","address2":"","latitude":"11.361","longitude":"79.5853","accuracy":"3"},{"address3":"Perungalur","state":"Tamil Nadu","state_code":"25","district":"Cuddalore","district_code":"617","address1":"Kattumannarkoil","address2":"","latitude":"11.3605","longitude":"79.5924","accuracy":"4"},{"address3":"Alkondanatham","state":"Tamil Nadu","state_code":"25","district":"Cuddalore","district_code":"617","address1":"Kattumannarkoil","address2":"","latitude":"11.361","longitude":"79.5853","accuracy":"3"},{"address3":"Vilagam","state":"Tamil Nadu","state_code":"25","district":"Cuddalore","district_code":"617","address1":"Kattumannarkoil","address2":"","latitude":"11.3792","longitude":"79.5758","accuracy":"4"},{"address3":"Kothavasal","state":"Tamil Nadu","state_code":"25","district":"Cuddalore","district_code":"617","address1":"Kattumannarkoil","address2":"","latitude":"11.361","longitude":"79.5853","accuracy":"3"},{"address3":"Kandakumaran","state":"Tamil Nadu","state_code":"25","district":"Cuddalore","district_code":"617","address1":"Kattumannarkoil","address2":"","latitude":"11.3513","longitude":"79.5463","accuracy":"4"},{"address3":"T.Nedunjeri","state":"Tamil Nadu","state_code":"25","district":"Cuddalore","district_code":"617","address1":"Kattumannarkoil","address2":"","latitude":"11.361","longitude":"79.5853","accuracy":"3"},{"address3":"Mogaiyur","state":"Tamil Nadu","state_code":"25","district":"Cuddalore","district_code":"617","address1":"Kattumannarkoil","address2":"","latitude":"11.361","longitude":"79.5853","accuracy":"3"}],"608306":[{"address3":"Movur","state":"Tamil Nadu","state_code":"25","district":"Cuddalore","district_code":"617","address1":"Kattumannarkoil","address2":"","latitude":"11.232","longitude":"79.5616","accuracy":"4"},{"address3":"Ayangudi","state":"Tamil Nadu","state_code":"25","district":"Cuddalore","district_code":"617","address1":"Kattumannarkoil","address2":"","latitude":"11.2173","longitude":"79.5383","accuracy":"4"},{"address3":"Muttam","state":"Tamil Nadu","state_code":"25","district":"Cuddalore","district_code":"617","address1":"Kattumannarkoil","address2":"","latitude":"11.2224","longitude":"79.5799","accuracy":"4"},{"address3":"Omampuliyur","state":"Tamil Nadu","state_code":"25","district":"Cuddalore","district_code":"617","address1":"Kattumannarkoil","address2":"","latitude":"11.2238","longitude":"79.5679","accuracy":"3"},{"address3":"Kunjimedu","state":"Tamil Nadu","state_code":"25","district":"Cuddalore","district_code":"617","address1":"Kattumannarkoil","address2":"","latitude":"11.2234","longitude":"79.5919","accuracy":"4"}],"608401":[{"address3":"Ammapettai","state":"Tamil Nadu","state_code":"25","district":"Cuddalore","district_code":"617","address1":"Chidambaram","address2":"","latitude":"11.4756","longitude":"79.5754","accuracy":"4"},{"address3":"Karuppur","state":"Tamil Nadu","state_code":"25","district":"Cuddalore","district_code":"617","address1":"Chidabamram","address2":"","latitude":"11.317","longitude":"79.6789","accuracy":"4"},{"address3":"Athipatu","state":"Tamil Nadu","state_code":"25","district":"Cuddalore","district_code":"617","address1":"Chidabamram","address2":"","latitude":"11.3632","longitude":"79.6646","accuracy":"3"},{"address3":"Vallampadugai","state":"Tamil Nadu","state_code":"25","district":"Cuddalore","district_code":"617","address1":"Chidambaram","address2":"","latitude":"11.3384","longitude":"79.7055","accuracy":"4"},{"address3":"Vadakkumangudi","state":"Tamil Nadu","state_code":"25","district":"Cuddalore","district_code":"617","address1":"Chidabamram","address2":"","latitude":"11.3368","longitude":"79.693","accuracy":"4"},{"address3":"Vaiyur","state":"Tamil Nadu","state_code":"25","district":"Cuddalore","district_code":"617","address1":"Chidabamram","address2":"","latitude":"11.3482","longitude":"79.6701","accuracy":"4"},{"address3":"Salianthoppu","state":"Tamil Nadu","state_code":"25","district":"Cuddalore","district_code":"617","address1":"Chidabamram","address2":"","latitude":"11.3632","longitude":"79.6646","accuracy":"3"}],"608501":[{"address3":"Villiyanallur","state":"Tamil Nadu","state_code":"25","district":"Cuddalore","district_code":"617","address1":"Chidambaram","address2":"","latitude":"11.535","longitude":"79.4509","accuracy":"4"},{"address3":"Theethampalayam","state":"Tamil Nadu","state_code":"25","district":"Cuddalore","district_code":"617","address1":"Chidambaram","address2":"","latitude":"11.1715","longitude":"79.6304","accuracy":"3"},{"address3":"Kuriamangalam","state":"Tamil Nadu","state_code":"25","district":"Cuddalore","district_code":"617","address1":"Chidambaram","address2":"","latitude":"11.1715","longitude":"79.6304","accuracy":"3"},{"address3":"Manikollai","state":"Tamil Nadu","state_code":"25","district":"Cuddalore","district_code":"617","address1":"Chidambaram","address2":"","latitude":"11.1715","longitude":"79.6304","accuracy":"3"},{"address3":"B.Mutlur","state":"Tamil Nadu","state_code":"25","district":"Cuddalore","district_code":"617","address1":"Chidambaram","address2":"","latitude":"11.1715","longitude":"79.6304","accuracy":"3"},{"address3":"Puduchatram","state":"Tamil Nadu","state_code":"25","district":"Cuddalore","district_code":"617","address1":"Chidambaram","address2":"","latitude":"11.1715","longitude":"79.6304","accuracy":"3"},{"address3":"Thatchakadu","state":"Tamil Nadu","state_code":"25","district":"Cuddalore","district_code":"617","address1":"Chidambaram","address2":"","latitude":"11.1715","longitude":"79.6304","accuracy":"3"},{"address3":"Manjakuli","state":"Tamil Nadu","state_code":"25","district":"Cuddalore","district_code":"617","address1":"Chidambaram","address2":"","latitude":"11.1715","longitude":"79.6304","accuracy":"3"},{"address3":"B.Adivaraganallur","state":"Tamil Nadu","state_code":"25","district":"Cuddalore","district_code":"617","address1":"Chidambaram","address2":"","latitude":"11.1715","longitude":"79.6304","accuracy":"3"},{"address3":"Kothattai","state":"Tamil Nadu","state_code":"25","district":"Cuddalore","district_code":"617","address1":"Chidambaram","address2":"","latitude":"11.1715","longitude":"79.6304","accuracy":"3"},{"address3":"Periyakomatti","state":"Tamil Nadu","state_code":"25","district":"Cuddalore","district_code":"617","address1":"Chidambaram","address2":"","latitude":"11.1715","longitude":"79.6304","accuracy":"3"}],"608502":[{"address3":"Parangipettai","state":"Tamil Nadu","state_code":"25","district":"Cuddalore","district_code":"617","address1":"Chidambaram","address2":"","latitude":"11.4912","longitude":"79.7605","accuracy":"4"},{"address3":"Agaram","state":"Tamil Nadu","state_code":"25","district":"Cuddalore","district_code":"617","address1":"NA","address2":"","latitude":"11.4821","longitude":"79.7448","accuracy":"4"},{"address3":"Ariyakoshti","state":"Tamil Nadu","state_code":"25","district":"Cuddalore","district_code":"617","address1":"Chidambaram","address2":"","latitude":"11.4866","longitude":"79.7527","accuracy":"3"},{"address3":"Samiyarpettai","state":"Tamil Nadu","state_code":"25","district":"Cuddalore","district_code":"617","address1":"Chidambaram","address2":"","latitude":"11.4866","longitude":"79.7527","accuracy":"3"},{"address3":"C.Pudupettai","state":"Tamil Nadu","state_code":"25","district":"Cuddalore","district_code":"617","address1":"Chidambaram","address2":"","latitude":"11.4866","longitude":"79.7527","accuracy":"3"}],"608601":[{"address3":"Miralur","state":"Tamil Nadu","state_code":"25","district":"Cuddalore","district_code":"617","address1":"Chidambaram","address2":"","latitude":"11.4551","longitude":"79.5636","accuracy":"4"},{"address3":"Bhuvanagiri","state":"Tamil Nadu","state_code":"25","district":"Cuddalore","district_code":"617","address1":"Chidambaram","address2":"","latitude":"11.4422","longitude":"79.6476","accuracy":"4"},{"address3":"Puvalai","state":"Tamil Nadu","state_code":"25","district":"Cuddalore","district_code":"617","address1":"Chidambaram","address2":"","latitude":"11.4486","longitude":"79.6056","accuracy":"3"},{"address3":"Sathapadi","state":"Tamil Nadu","state_code":"25","district":"Cuddalore","district_code":"617","address1":"Chidambaram","address2":"","latitude":"11.4486","longitude":"79.6056","accuracy":"3"},{"address3":"Melamanakudi","state":"Tamil Nadu","state_code":"25","district":"Cuddalore","district_code":"617","address1":"Chidambaram","address2":"","latitude":"11.4486","longitude":"79.6056","accuracy":"3"},{"address3":"Manjakollai","state":"Tamil Nadu","state_code":"25","district":"Cuddalore","district_code":"617","address1":"Chidambaram","address2":"","latitude":"11.4486","longitude":"79.6056","accuracy":"3"},{"address3":"Kummidimulai","state":"Tamil Nadu","state_code":"25","district":"Cuddalore","district_code":"617","address1":"Chidambaram","address2":"","latitude":"11.4486","longitude":"79.6056","accuracy":"3"},{"address3":"Kothavacheri","state":"Tamil Nadu","state_code":"25","district":"Cuddalore","district_code":"617","address1":"Chidambaram","address2":"","latitude":"11.4486","longitude":"79.6056","accuracy":"3"},{"address3":"B.Odaiyur","state":"Tamil Nadu","state_code":"25","district":"Cuddalore","district_code":"617","address1":"Chidambaram","address2":"","latitude":"11.4486","longitude":"79.6056","accuracy":"3"},{"address3":"Budavarayanpettai","state":"Tamil Nadu","state_code":"25","district":"Cuddalore","district_code":"617","address1":"Chidambaram","address2":"","latitude":"11.4486","longitude":"79.6056","accuracy":"3"},{"address3":"Azhisikudi","state":"Tamil Nadu","state_code":"25","district":"Cuddalore","district_code":"617","address1":"Chidambaram","address2":"","latitude":"11.4486","longitude":"79.6056","accuracy":"3"}],"608602":[{"address3":"Ennanagaram","state":"Tamil Nadu","state_code":"25","district":"Cuddalore","district_code":"617","address1":"Chidambaram","address2":"","latitude":"11.414","longitude":"79.6459","accuracy":"4"},{"address3":"Vayalur","state":"Tamil Nadu","state_code":"25","district":"Cuddalore","district_code":"617","address1":"Chidambaram","address2":"","latitude":"11.4289","longitude":"79.6634","accuracy":"4"},{"address3":"Krishnapuram","state":"Tamil Nadu","state_code":"25","district":"Cuddalore","district_code":"617","address1":"Chidambaram","address2":"","latitude":"11.4836","longitude":"79.615","accuracy":"4"},{"address3":"Lalpuram","state":"Tamil Nadu","state_code":"25","district":"Cuddalore","district_code":"617","address1":"Chidambaram","address2":"","latitude":"11.4179","longitude":"79.6851","accuracy":"4"},{"address3":"Keerapalayam","state":"Tamil Nadu","state_code":"25","district":"Cuddalore","district_code":"617","address1":"Chidambaram","address2":"","latitude":"11.4361","longitude":"79.6523","accuracy":"3"},{"address3":"K.Adur","state":"Tamil Nadu","state_code":"25","district":"Cuddalore","district_code":"617","address1":"Chidambaram","address2":"","latitude":"11.4361","longitude":"79.6523","accuracy":"3"},{"address3":"K.Alambadi","state":"Tamil Nadu","state_code":"25","district":"Cuddalore","district_code":"617","address1":"Chidambaram","address2":"","latitude":"11.4361","longitude":"79.6523","accuracy":"3"},{"address3":"C.Veeracholagam","state":"Tamil Nadu","state_code":"25","district":"Cuddalore","district_code":"617","address1":"Chidambaram","address2":"","latitude":"11.4361","longitude":"79.6523","accuracy":"3"}],"608701":[{"address3":"Ramapuram","state":"Tamil Nadu","state_code":"25","district":"Cuddalore","district_code":"617","address1":"Kattumannarkioil","address2":"","latitude":"11.3463","longitude":"79.4373","accuracy":"4"},{"address3":"Palayamkottai(CDL)","state":"Tamil Nadu","state_code":"25","district":"Cuddalore","district_code":"617","address1":"NA","address2":"","latitude":"11.3628","longitude":"79.4837","accuracy":"3"},{"address3":"Kanur","state":"Tamil Nadu","state_code":"25","district":"Cuddalore","district_code":"617","address1":"Kattumannarkoil","address2":"","latitude":"11.4003","longitude":"79.4701","accuracy":"4"},{"address3":"Palayamkottai Melpathy","state":"Tamil Nadu","state_code":"25","district":"Cuddalore","district_code":"617","address1":"Kattumannarkoil","address2":"","latitude":"11.3628","longitude":"79.4837","accuracy":"3"},{"address3":"Kondasamudram","state":"Tamil Nadu","state_code":"25","district":"Cuddalore","district_code":"617","address1":"Kattummannarkoil","address2":"","latitude":"11.3361","longitude":"79.4755","accuracy":"4"},{"address3":"Sholathiram","state":"Tamil Nadu","state_code":"25","district":"Cuddalore","district_code":"617","address1":"Kattmannarkoil","address2":"","latitude":"11.3628","longitude":"79.4837","accuracy":"3"},{"address3":"Valasakkadu","state":"Tamil Nadu","state_code":"25","district":"Cuddalore","district_code":"617","address1":"Kattumannarkoil","address2":"","latitude":"11.3888","longitude":"79.4869","accuracy":"4"},{"address3":"Vadakkupalayam","state":"Tamil Nadu","state_code":"25","district":"Cuddalore","district_code":"617","address1":"Kattumannarkoil","address2":"","latitude":"11.3628","longitude":"79.4837","accuracy":"3"},{"address3":"Perur","state":"Tamil Nadu","state_code":"25","district":"Cuddalore","district_code":"617","address1":"Kattumanarkoil","address2":"","latitude":"11.4025","longitude":"79.4875","accuracy":"4"},{"address3":"Mamangalam","state":"Tamil Nadu","state_code":"25","district":"Cuddalore","district_code":"617","address1":"Kattumannarkoil","address2":"","latitude":"11.3303","longitude":"79.4909","accuracy":"4"},{"address3":"Vanamadevi","state":"Tamil Nadu","state_code":"25","district":"Cuddalore","district_code":"617","address1":"Kattumannarkoil","address2":"","latitude":"11.338","longitude":"79.5041","accuracy":"4"},{"address3":"Pudaiyur","state":"Tamil Nadu","state_code":"25","district":"Cuddalore","district_code":"617","address1":"Kattumannarkoil","address2":"","latitude":"11.3598","longitude":"79.517","accuracy":"4"}],"608702":[{"address3":"Vattathur","state":"Tamil Nadu","state_code":"25","district":"Cuddalore","district_code":"617","address1":"Kattumannarkoil","address2":"","latitude":"11.4182","longitude":"79.5099","accuracy":"3"},{"address3":"Nangudi","state":"Tamil Nadu","state_code":"25","district":"Cuddalore","district_code":"617","address1":"Kattumannarkoil","address2":"","latitude":"11.4075","longitude":"79.5203","accuracy":"4"},{"address3":"Sethiathope","state":"Tamil Nadu","state_code":"25","district":"Cuddalore","district_code":"617","address1":"Kattumannarkoil","address2":"","latitude":"11.4182","longitude":"79.5099","accuracy":"3"},{"address3":"Mudikandanallur","state":"Tamil Nadu","state_code":"25","district":"Cuddalore","district_code":"617","address1":"Kattumannarkoil","address2":"","latitude":"11.4126","longitude":"79.5036","accuracy":"4"},{"address3":"Kumarakud","state":"Tamil Nadu","state_code":"25","district":"Cuddalore","district_code":"617","address1":"Kattumannarkoil","address2":"","latitude":"11.4182","longitude":"79.5099","accuracy":"3"},{"address3":"Budangudi","state":"Tamil Nadu","state_code":"25","district":"Cuddalore","district_code":"617","address1":"Kattumannarkoil","address2":"","latitude":"11.4163","longitude":"79.5443","accuracy":"4"},{"address3":"Nandesswaramangalam","state":"Tamil Nadu","state_code":"25","district":"Cuddalore","district_code":"617","address1":"Kattumannarkoil","address2":"","latitude":"11.4182","longitude":"79.5099","accuracy":"3"},{"address3":"Agara Alambadi","state":"Tamil Nadu","state_code":"25","district":"Cuddalore","district_code":"617","address1":"Kattumannarkoil","address2":"","latitude":"11.4366","longitude":"79.4713","accuracy":"4"},{"address3":"Valakollai","state":"Tamil Nadu","state_code":"25","district":"Cuddalore","district_code":"617","address1":"Kattmannarkoil","address2":"","latitude":"11.4182","longitude":"79.5099","accuracy":"3"},{"address3":"Kavalakudi","state":"Tamil Nadu","state_code":"25","district":"Cuddalore","district_code":"617","address1":"Kattumannarkoil","address2":"","latitude":"11.4182","longitude":"79.5099","accuracy":"3"},{"address3":"Veeramudayanatham","state":"Tamil Nadu","state_code":"25","district":"Cuddalore","district_code":"617","address1":"Kattumannarkoil","address2":"","latitude":"11.4182","longitude":"79.5099","accuracy":"3"}],"608703":[{"address3":"Sriraman","state":"Tamil Nadu","state_code":"25","district":"Ariyalur","district_code":"616","address1":"Kattumannarkoil","address2":"","latitude":"11.3967","longitude":"79.3808","accuracy":"4"},{"address3":"Srimushnam","state":"Tamil Nadu","state_code":"25","district":"Cuddalore","district_code":"617","address1":"Kattumannarkoil","address2":"","latitude":"11.4012","longitude":"79.4038","accuracy":"4"},{"address3":"Srinedunjeri","state":"Tamil Nadu","state_code":"25","district":"Cuddalore","district_code":"617","address1":"Kattumannarkoil","address2":"","latitude":"11.4248","longitude":"79.3959","accuracy":"3"},{"address3":"Marungur","state":"Tamil Nadu","state_code":"25","district":"Cuddalore","district_code":"617","address1":"Kattumannarkoil","address2":"","latitude":"11.4548","longitude":"79.3978","accuracy":"4"},{"address3":"Sri Vakkaramari","state":"Tamil Nadu","state_code":"25","district":"Cuddalore","district_code":"617","address1":"Kattumannarkoil","address2":"","latitude":"11.4248","longitude":"79.3959","accuracy":"3"},{"address3":"Kunamangalam","state":"Tamil Nadu","state_code":"25","district":"Cuddalore","district_code":"617","address1":"Kattumannarkoil","address2":"","latitude":"11.4353","longitude":"79.3828","accuracy":"4"},{"address3":"Sri Pudur","state":"Tamil Nadu","state_code":"25","district":"Cuddalore","district_code":"617","address1":"Kattumannarkoil","address2":"","latitude":"11.4248","longitude":"79.3959","accuracy":"3"},{"address3":"Kavanur","state":"Tamil Nadu","state_code":"25","district":"Cuddalore","district_code":"617","address1":"Kattumannarkoil","address2":"","latitude":"11.436","longitude":"79.414","accuracy":"4"},{"address3":"Sri Adivaraganallur","state":"Tamil Nadu","state_code":"25","district":"Cuddalore","district_code":"617","address1":"Kattumannarkoil","address2":"","latitude":"11.4248","longitude":"79.3959","accuracy":"3"},{"address3":"Rajendra Pattinam","state":"Tamil Nadu","state_code":"25","district":"Cuddalore","district_code":"617","address1":"Kattumanarkoil","address2":"","latitude":"11.4248","longitude":"79.3959","accuracy":"3"},{"address3":"Poondi","state":"Tamil Nadu","state_code":"25","district":"Cuddalore","district_code":"617","address1":"Kattumannarkoil","address2":"","latitude":"11.4248","longitude":"79.3959","accuracy":"3"},{"address3":"Nagarapadi","state":"Tamil Nadu","state_code":"25","district":"Cuddalore","district_code":"617","address1":"Kattumannarkoil","address2":"","latitude":"11.4248","longitude":"79.3959","accuracy":"3"},{"address3":"Kozhai","state":"Tamil Nadu","state_code":"25","district":"Cuddalore","district_code":"617","address1":"Kattumannarkoil","address2":"","latitude":"11.4248","longitude":"79.3959","accuracy":"3"}],"608704":[{"address3":"Marudur","state":"Tamil Nadu","state_code":"25","district":"Cuddalore","district_code":"617","address1":"Kattumannarkoil","address2":"","latitude":"11.493","longitude":"79.5982","accuracy":"4"},{"address3":"Ambapuram","state":"Tamil Nadu","state_code":"25","district":"Cuddalore","district_code":"617","address1":"Kattumannarkoil","address2":"","latitude":"11.4742","longitude":"79.571","accuracy":"4"},{"address3":"Pinnalur","state":"Tamil Nadu","state_code":"25","district":"Cuddalore","district_code":"617","address1":"Kattumannarkoil","address2":"","latitude":"11.4723","longitude":"79.5585","accuracy":"4"},{"address3":"Vadathalaikulam","state":"Tamil Nadu","state_code":"25","district":"Cuddalore","district_code":"617","address1":"Kattumannarkoil","address2":"","latitude":"11.476","longitude":"79.5623","accuracy":"3"},{"address3":"Periyanellikkollai","state":"Tamil Nadu","state_code":"25","district":"Cuddalore","district_code":"617","address1":"Kattumannarkoil","address2":"","latitude":"11.476","longitude":"79.5623","accuracy":"3"},{"address3":"Chinnanargunam","state":"Tamil Nadu","state_code":"25","district":"Cuddalore","district_code":"617","address1":"Kattumannarkoil","address2":"","latitude":"11.476","longitude":"79.5623","accuracy":"3"},{"address3":"Erumbur","state":"Tamil Nadu","state_code":"25","district":"Cuddalore","district_code":"617","address1":"Kattumannarkoil","address2":"","latitude":"11.4642","longitude":"79.5215","accuracy":"4"},{"address3":"Valayamadevi","state":"Tamil Nadu","state_code":"25","district":"Cuddalore","district_code":"617","address1":"Kattumannarkoil","address2":"","latitude":"11.476","longitude":"79.5623","accuracy":"3"},{"address3":"B.Kolakudi","state":"Tamil Nadu","state_code":"25","district":"Cuddalore","district_code":"617","address1":"Kattmannarkoil","address2":"","latitude":"11.476","longitude":"79.5623","accuracy":"3"}],"608801":[{"address3":"Alapakkam","state":"Tamil Nadu","state_code":"25","district":"Cuddalore","district_code":"617","address1":"Chidambaram","address2":"","latitude":"11.535","longitude":"79.4509","accuracy":"4"},{"address3":"Andarmullipallam","state":"Tamil Nadu","state_code":"25","district":"Cuddalore","district_code":"617","address1":"Cuddalore","address2":"","latitude":"12.2091","longitude":"79.5955","accuracy":"3"},{"address3":"Periyakuppam","state":"Tamil Nadu","state_code":"25","district":"Cuddalore","district_code":"617","address1":"Cuddalore","address2":"","latitude":"11.4366","longitude":"79.53","accuracy":"4"},{"address3":"Thiyagavalli","state":"Tamil Nadu","state_code":"25","district":"Cuddalore","district_code":"617","address1":"Cuddalore","address2":"","latitude":"12.2091","longitude":"79.5955","accuracy":"3"},{"address3":"Silambimangalam","state":"Tamil Nadu","state_code":"25","district":"Cuddalore","district_code":"617","address1":"Cuddalore","address2":"","latitude":"12.2091","longitude":"79.5955","accuracy":"3"},{"address3":"Adinarayananpuram","state":"Tamil Nadu","state_code":"25","district":"Cuddalore","district_code":"617","address1":"Cuddalore","address2":"","latitude":"12.2091","longitude":"79.5955","accuracy":"3"},{"address3":"Theerthanagiri","state":"Tamil Nadu","state_code":"25","district":"Cuddalore","district_code":"617","address1":"Cuddalore","address2":"","latitude":"12.2091","longitude":"79.5955","accuracy":"3"},{"address3":"Poochimedu","state":"Tamil Nadu","state_code":"25","district":"Cuddalore","district_code":"617","address1":"Cuddalore","address2":"","latitude":"12.2091","longitude":"79.5955","accuracy":"3"},{"address3":"Poovanikkuppam","state":"Tamil Nadu","state_code":"25","district":"Cuddalore","district_code":"617","address1":"Cuddalore","address2":"","latitude":"12.2091","longitude":"79.5955","accuracy":"3"}],"608901":[{"address3":"Rangiam","state":"Tamil Nadu","state_code":"25","district":"Ariyalur","district_code":"616","address1":"Jayamkondacholapuram","address2":"","latitude":"11.2311","longitude":"79.201","accuracy":"3"},{"address3":"Silambur","state":"Tamil Nadu","state_code":"25","district":"Ariyalur","district_code":"616","address1":"Udayarpalayam","address2":"","latitude":"11.3481","longitude":"79.3098","accuracy":"4"},{"address3":"Attukurichi","state":"Tamil Nadu","state_code":"25","district":"Ariyalur","district_code":"616","address1":"Jayamkondacholapuram","address2":"","latitude":"11.1605","longitude":"79.2442","accuracy":"3"},{"address3":"Olaiyur","state":"Tamil Nadu","state_code":"25","district":"Ariyalur","district_code":"616","address1":"Jayamkondacholapuram","address2":"","latitude":"11.1605","longitude":"79.2442","accuracy":"4"},{"address3":"Kavarapalayam","state":"Tamil Nadu","state_code":"25","district":"Ariyalur","district_code":"616","address1":"Udayarpalayam","address2":"","latitude":"11.2311","longitude":"79.201","accuracy":"3"},{"address3":"Alagapuram","state":"Tamil Nadu","state_code":"25","district":"Ariyalur","district_code":"616","address1":"Jayamkondacholapuram","address2":"","latitude":"11.3715","longitude":"79.3332","accuracy":"4"},{"address3":"Ayyur","state":"Tamil Nadu","state_code":"25","district":"Ariyalur","district_code":"616","address1":"Jayamkondacholapuram","address2":"","latitude":"11.3151","longitude":"79.3121","accuracy":"4"},{"address3":"Nagampandal","state":"Tamil Nadu","state_code":"25","district":"Ariyalur","district_code":"616","address1":"Udayarpalayam","address2":"","latitude":"11.4068","longitude":"79.3672","accuracy":"4"}],"credits":[{"name":"geonames","url":"https://www.geonames.org"}],"last_update":"2019-03-01T09:01:35.538Z"}