{"612001":[{"address3":"Kumbakonam Market","state":"Tamil Nadu","state_code":"25","district":"Thanjavur","district_code":"620","address1":"Kumbakonam","address2":"","latitude":"10.9706","longitude":"79.4063","accuracy":"3"},{"address3":"Ullur","state":"Tamil Nadu","state_code":"25","district":"Thanjavur","district_code":"620","address1":"Kumbakonam","address2":"","latitude":"10.9706","longitude":"79.4063","accuracy":"4"},{"address3":"Kumbakonam H.O","state":"Tamil Nadu","state_code":"25","district":"Thanjavur","district_code":"620","address1":"Kumbakonam","address2":"","latitude":"10.9706","longitude":"79.4063","accuracy":"3"},{"address3":"Kumbakonam East","state":"Tamil Nadu","state_code":"25","district":"Thanjavur","district_code":"620","address1":"Kumbakonam","address2":"","latitude":"10.9706","longitude":"79.4063","accuracy":"3"},{"address3":"Kumbakonam Cutchery","state":"Tamil Nadu","state_code":"25","district":"Thanjavur","district_code":"620","address1":"Kumbakonam","address2":"","latitude":"10.9706","longitude":"79.4063","accuracy":"3"},{"address3":"Kumbakonam City","state":"Tamil Nadu","state_code":"25","district":"Thanjavur","district_code":"620","address1":"Kumbakonam","address2":"","latitude":"10.9706","longitude":"79.4063","accuracy":"3"},{"address3":"Kumbakonam Bazar","state":"Tamil Nadu","state_code":"25","district":"Thanjavur","district_code":"620","address1":"Kumbakonam","address2":"","latitude":"10.9706","longitude":"79.4063","accuracy":"3"},{"address3":"Krishnarayar Agraharam","state":"Tamil Nadu","state_code":"25","district":"Thanjavur","district_code":"620","address1":"Kumbakonam","address2":"","latitude":"10.9706","longitude":"79.4063","accuracy":"3"},{"address3":"Madalampettai","state":"Tamil Nadu","state_code":"25","district":"Thanjavur","district_code":"620","address1":"Kumbakonam","address2":"","latitude":"10.9706","longitude":"79.4063","accuracy":"3"},{"address3":"Thuvarankurichi","state":"Tamil Nadu","state_code":"25","district":"Thanjavur","district_code":"620","address1":"Kumbakonam","address2":"","latitude":"10.9706","longitude":"79.4063","accuracy":"3"}],"612002":[{"address3":"Melakaveri H.O","state":"Tamil Nadu","state_code":"25","district":"Thanjavur","district_code":"620","address1":"Kumbakonam","address2":"","latitude":"10.9706","longitude":"79.4063","accuracy":"1"}],"612101":[{"address3":"Tirunilakudi","state":"Tamil Nadu","state_code":"25","district":"Thanjavur","district_code":"620","address1":"Thiruvidaimarudur","address2":"","latitude":"11.0068","longitude":"79.4833","accuracy":"3"},{"address3":"Aduthurai Bazar","state":"Tamil Nadu","state_code":"25","district":"Thanjavur","district_code":"620","address1":"Tiruvidamarudur","address2":"","latitude":"11.0068","longitude":"79.4833","accuracy":"3"},{"address3":"Maruthuvakudi","state":"Tamil Nadu","state_code":"25","district":"Thanjavur","district_code":"620","address1":"Tiruvidamarudur","address2":"","latitude":"11.0154","longitude":"79.4809","accuracy":"4"},{"address3":"Avaniapuram","state":"Tamil Nadu","state_code":"25","district":"Thanjavur","district_code":"620","address1":"Thiruvidaimarudur","address2":"","latitude":"11.0068","longitude":"79.4833","accuracy":"3"},{"address3":"Melaiyur","state":"Tamil Nadu","state_code":"25","district":"Thanjavur","district_code":"620","address1":"Tiruvidamarudur","address2":"","latitude":"10.9903","longitude":"79.5024","accuracy":"4"},{"address3":"Aduthurai","state":"Tamil Nadu","state_code":"25","district":"Thanjavur","district_code":"620","address1":"Kumbakonam","address2":"","latitude":"11.0154","longitude":"79.4809","accuracy":"4"},{"address3":"Govindapuram","state":"Tamil Nadu","state_code":"25","district":"Thanjavur","district_code":"620","address1":"Tiruvidamarudur","address2":"","latitude":"11.0062","longitude":"79.4689","accuracy":"4"}],"612102":[{"address3":"Tirumangalakudi","state":"Tamil Nadu","state_code":"25","district":"Nagapattinam","district_code":"618","address1":"Kuttalam","address2":"","latitude":"9.7609","longitude":"78.8896","accuracy":"3"},{"address3":"Palakudi","state":"Tamil Nadu","state_code":"25","district":"Thanjavur","district_code":"620","address1":"Thiruvidaimarudur","address2":"","latitude":"10.6716","longitude":"79.2413","accuracy":"4"},{"address3":"Paruthikudi","state":"Tamil Nadu","state_code":"25","district":"Thanjavur","district_code":"620","address1":"Kuttalam","address2":"","latitude":"9.7609","longitude":"78.8896","accuracy":"3"},{"address3":"Suriyanarkoil","state":"Tamil Nadu","state_code":"25","district":"Thanjavur","district_code":"620","address1":"Kuttalam","address2":"","latitude":"9.7609","longitude":"78.8896","accuracy":"3"}],"612103":[{"address3":"Umamaheswarapuram","state":"Tamil Nadu","state_code":"25","district":"Thanjavur","district_code":"620","address1":"Kumbakonam","address2":"","latitude":"10.9858","longitude":"79.4102","accuracy":"4"},{"address3":"Ammachathiram","state":"Tamil Nadu","state_code":"25","district":"Thanjavur","district_code":"620","address1":"Kumbakonam","address2":"","latitude":"10.9858","longitude":"79.4102","accuracy":"3"},{"address3":"Tirupuvanam","state":"Tamil Nadu","state_code":"25","district":"Thanjavur","district_code":"620","address1":"Tiruvidamarudur","address2":"","latitude":"10.9858","longitude":"79.4102","accuracy":"3"}],"612104":[{"address3":"Andalampettai","state":"Tamil Nadu","state_code":"25","district":"Thanjavur","district_code":"620","address1":"Thiruvidaimarudur","address2":"","latitude":"10.9763","longitude":"79.4545","accuracy":"4"},{"address3":"Mahadana Street","state":"Tamil Nadu","state_code":"25","district":"Thanjavur","district_code":"620","address1":"Thiruvidaimarudur","address2":"","latitude":"10.9763","longitude":"79.4545","accuracy":"3"},{"address3":"Tiruvidaimarudur R.S.","state":"Tamil Nadu","state_code":"25","district":"Thanjavur","district_code":"620","address1":"Thiruvidaimarudur","address2":"","latitude":"10.9763","longitude":"79.4545","accuracy":"3"},{"address3":"Tiruvidaimarudur West","state":"Tamil Nadu","state_code":"25","district":"Thanjavur","district_code":"620","address1":"Thiruvidaimarudur","address2":"","latitude":"10.9763","longitude":"79.4545","accuracy":"3"},{"address3":"Tiruvidamarudur","state":"Tamil Nadu","state_code":"25","district":"Thanjavur","district_code":"620","address1":"Tiruvidamarudur","address2":"","latitude":"10.9763","longitude":"79.4545","accuracy":"3"}],"612105":[{"address3":"Tiruvisalur","state":"Tamil Nadu","state_code":"25","district":"Thanjavur","district_code":"620","address1":"Thiruvidaimarudur","address2":"","latitude":"11.0033","longitude":"79.428","accuracy":"4"},{"address3":"Anaikudi","state":"Tamil Nadu","state_code":"25","district":"Thanjavur","district_code":"620","address1":"Tiruvidamarudur","address2":"","latitude":"11.0097","longitude":"79.4349","accuracy":"3"},{"address3":"Veppathur","state":"Tamil Nadu","state_code":"25","district":"Thanjavur","district_code":"620","address1":"Thiruvidaimarudur","address2":"","latitude":"11.0161","longitude":"79.4418","accuracy":"4"}],"612106":[{"address3":"Aralur","state":"Tamil Nadu","state_code":"25","district":"Thanjavur","district_code":"620","address1":"Kuttalam","address2":"","latitude":"11.0997","longitude":"79.5203","accuracy":"4"},{"address3":"Kadiramangalam","state":"Tamil Nadu","state_code":"25","district":"Thanjavur","district_code":"620","address1":"Tiruvidamarudur","address2":"","latitude":"11.0706","longitude":"79.5318","accuracy":"4"}],"612201":[{"address3":"Paravakkarai","state":"Tamil Nadu","state_code":"25","district":"Nagapattinam","district_code":"618","address1":"Kuttalam","address2":"","latitude":"10.8494","longitude":"79.7389","accuracy":"4"},{"address3":"Vayalur","state":"Tamil Nadu","state_code":"25","district":"Nagapattinam","district_code":"618","address1":"Kuttalam","address2":"","latitude":"10.9669","longitude":"79.515","accuracy":"4"},{"address3":"Anniyur","state":"Tamil Nadu","state_code":"25","district":"Nagapattinam","district_code":"618","address1":"Kuttalam","address2":"","latitude":"10.8494","longitude":"79.7389","accuracy":"4"},{"address3":"Mallapuram","state":"Tamil Nadu","state_code":"25","district":"Nagapattinam","district_code":"618","address1":"Kuttalam","address2":"","latitude":"10.8494","longitude":"79.7389","accuracy":"4"},{"address3":"Konerirajapuram","state":"Tamil Nadu","state_code":"25","district":"Nagapattinam","district_code":"618","address1":"Mayiladuthurai","address2":"","latitude":"10.9745","longitude":"79.5385","accuracy":"4"},{"address3":"Vadamattam","state":"Tamil Nadu","state_code":"25","district":"Tiruvarur","district_code":"619","address1":"Kodavasal","address2":"","latitude":"10.6797","longitude":"79.536","accuracy":"4"}],"612202":[{"address3":"Rendankattalai","state":"Tamil Nadu","state_code":"25","district":"Thanjavur","district_code":"620","address1":"Tiruvidamarudur","address2":"","latitude":"10.9493","longitude":"79.474","accuracy":"4"},{"address3":"Poundarigapuram","state":"Tamil Nadu","state_code":"25","district":"Thanjavur","district_code":"620","address1":"Tiruvidamarudur","address2":"","latitude":"10.9507","longitude":"79.4744","accuracy":"3"},{"address3":"Ammangudi","state":"Tamil Nadu","state_code":"25","district":"Thanjavur","district_code":"620","address1":"Tiruvidamarudur","address2":"","latitude":"10.9528","longitude":"79.4957","accuracy":"4"},{"address3":"Thandanthottam","state":"Tamil Nadu","state_code":"25","district":"Thanjavur","district_code":"620","address1":"Tiruvidamarudur","address2":"","latitude":"10.9507","longitude":"79.4744","accuracy":"3"},{"address3":"Murukkangudi","state":"Tamil Nadu","state_code":"25","district":"Thanjavur","district_code":"620","address1":"Kumbakonam","address2":"","latitude":"10.9498","longitude":"79.4536","accuracy":"4"}],"612203":[{"address3":"Suraikkayur","state":"Tamil Nadu","state_code":"25","district":"Nagapattinam","district_code":"618","address1":"Kuttalam","address2":"","latitude":"10.9711","longitude":"79.6085","accuracy":"4"},{"address3":"Nakkampadi","state":"Tamil Nadu","state_code":"25","district":"Nagapattinam","district_code":"618","address1":"Kuttalam","address2":"","latitude":"10.9828","longitude":"79.5873","accuracy":"3"},{"address3":"Palaiyur","state":"Tamil Nadu","state_code":"25","district":"Nagapattinam","district_code":"618","address1":"Mayiladuthurai","address2":"","latitude":"10.9945","longitude":"79.5661","accuracy":"4"},{"address3":"Mandai","state":"Tamil Nadu","state_code":"25","district":"Nagapattinam","district_code":"618","address1":"Kuttalam","address2":"","latitude":"10.9828","longitude":"79.5873","accuracy":"3"},{"address3":"Kanjivoy","state":"Tamil Nadu","state_code":"25","district":"Nagapattinam","district_code":"618","address1":"Kuttalam","address2":"","latitude":"10.9828","longitude":"79.5873","accuracy":"3"},{"address3":"Sengarangudiputhur","state":"Tamil Nadu","state_code":"25","district":"Thanjavur","district_code":"620","address1":"Thiruvidaimarudur","address2":"","latitude":"10.9828","longitude":"79.5873","accuracy":"3"}],"612204":[{"address3":"Tepperumanallur","state":"Tamil Nadu","state_code":"25","district":"Thanjavur","district_code":"620","address1":"Kumbakonam","address2":"","latitude":"10.965","longitude":"79.4354","accuracy":"3"},{"address3":"Oppiliappankoil","state":"Tamil Nadu","state_code":"25","district":"Thanjavur","district_code":"620","address1":"Kumbakonam","address2":"","latitude":"10.965","longitude":"79.4354","accuracy":"3"},{"address3":"Sannapuram","state":"Tamil Nadu","state_code":"25","district":"Thanjavur","district_code":"620","address1":"Kumbakonam","address2":"","latitude":"10.9741","longitude":"79.4386","accuracy":"4"},{"address3":"Tirunageswaram","state":"Tamil Nadu","state_code":"25","district":"Thanjavur","district_code":"620","address1":"Kumbakonam","address2":"","latitude":"10.9646","longitude":"79.4293","accuracy":"4"},{"address3":"Ayyavadi","state":"Tamil Nadu","state_code":"25","district":"Thanjavur","district_code":"620","address1":"Kumbakonam","address2":"","latitude":"10.9561","longitude":"79.4382","accuracy":"4"}],"612301":[{"address3":"Pullabudangudi","state":"Tamil Nadu","state_code":"25","district":"Thanjavur","district_code":"620","address1":"Papanasam","address2":"","latitude":"10.9717","longitude":"79.3028","accuracy":"4"},{"address3":"Tyagasamudram","state":"Tamil Nadu","state_code":"25","district":"Thanjavur","district_code":"620","address1":"Papanasam","address2":"","latitude":"10.9773","longitude":"79.2986","accuracy":"3"},{"address3":"Tirumandangudi","state":"Tamil Nadu","state_code":"25","district":"Thanjavur","district_code":"620","address1":"Papanasam","address2":"","latitude":"10.9671","longitude":"79.2937","accuracy":"4"},{"address3":"Tiruvaikavur","state":"Tamil Nadu","state_code":"25","district":"Thanjavur","district_code":"620","address1":"Papanasam","address2":"","latitude":"10.9947","longitude":"79.2863","accuracy":"4"},{"address3":"Adanur","state":"Tamil Nadu","state_code":"25","district":"Thanjavur","district_code":"620","address1":"Papanasam","address2":"","latitude":"10.9756","longitude":"79.3114","accuracy":"4"}],"612302":[{"address3":"Tiruvalanjuli","state":"Tamil Nadu","state_code":"25","district":"Thanjavur","district_code":"620","address1":"Kumbakonam","address2":"","latitude":"10.9449","longitude":"79.3286","accuracy":"4"},{"address3":"Swamimalai East","state":"Tamil Nadu","state_code":"25","district":"Thanjavur","district_code":"620","address1":"Kumbakonam","address2":"","latitude":"10.9569","longitude":"79.3385","accuracy":"3"},{"address3":"Kottaiyur","state":"Tamil Nadu","state_code":"25","district":"Thanjavur","district_code":"620","address1":"Kumbakonam","address2":"","latitude":"10.9685","longitude":"79.3576","accuracy":"4"},{"address3":"Swamimalai","state":"Tamil Nadu","state_code":"25","district":"Thanjavur","district_code":"620","address1":"Kumbakonam","address2":"","latitude":"10.9575","longitude":"79.3293","accuracy":"4"},{"address3":"Baburajapuram","state":"Tamil Nadu","state_code":"25","district":"Thanjavur","district_code":"620","address1":"Kumbakonam","address2":"","latitude":"10.9569","longitude":"79.3385","accuracy":"3"},{"address3":"Gangadarapuram","state":"Tamil Nadu","state_code":"25","district":"Thanjavur","district_code":"620","address1":"Kumbakonam","address2":"","latitude":"10.9569","longitude":"79.3385","accuracy":"3"}],"612303":[{"address3":"Innambur","state":"Tamil Nadu","state_code":"25","district":"Thanjavur","district_code":"620","address1":"Kumbakonam","address2":"","latitude":"10.981","longitude":"79.338","accuracy":"4"},{"address3":"Tirupirambiyam","state":"Tamil Nadu","state_code":"25","district":"Thanjavur","district_code":"620","address1":"Kumbakonam","address2":"","latitude":"10.981","longitude":"79.338","accuracy":"3"},{"address3":"Eraharam","state":"Tamil Nadu","state_code":"25","district":"Thanjavur","district_code":"620","address1":"Kumbakonam","address2":"","latitude":"10.981","longitude":"79.338","accuracy":"3"}],"612401":[{"address3":"Sivapuram","state":"Tamil Nadu","state_code":"25","district":"Thanjavur","district_code":"620","address1":"Kumbakonam","address2":"","latitude":"10.9471","longitude":"79.422","accuracy":"4"},{"address3":"Palavathankattalai","state":"Tamil Nadu","state_code":"25","district":"Thanjavur","district_code":"620","address1":"Kumbakonam","address2":"","latitude":"10.9443","longitude":"79.4165","accuracy":"3"},{"address3":"Sakkottai","state":"Tamil Nadu","state_code":"25","district":"Thanjavur","district_code":"620","address1":"Kumbakonam","address2":"","latitude":"10.943","longitude":"79.3993","accuracy":"4"},{"address3":"Annalagraharam","state":"Tamil Nadu","state_code":"25","district":"Thanjavur","district_code":"620","address1":"Kumbakonam","address2":"","latitude":"10.9443","longitude":"79.4165","accuracy":"3"},{"address3":"Krishnapuram","state":"Tamil Nadu","state_code":"25","district":"Thanjavur","district_code":"620","address1":"Kumbakonam","address2":"","latitude":"10.9426","longitude":"79.4283","accuracy":"4"}],"612402":[{"address3":"Korukkaithottam","state":"Tamil Nadu","state_code":"25","district":"Thanjavur","district_code":"620","address1":"Kumbakonam","address2":"","latitude":"10.904","longitude":"79.4078","accuracy":"3"},{"address3":"Tippirajapuram","state":"Tamil Nadu","state_code":"25","district":"Thanjavur","district_code":"620","address1":"Kumbakonam","address2":"","latitude":"10.9093","longitude":"79.4052","accuracy":"4"},{"address3":"Marudanallur","state":"Tamil Nadu","state_code":"25","district":"Thanjavur","district_code":"620","address1":"Valangaiman","address2":"","latitude":"10.904","longitude":"79.4078","accuracy":"3"},{"address3":"Visalur","state":"Tamil Nadu","state_code":"25","district":"Thanjavur","district_code":"620","address1":"Valangaiman","address2":"","latitude":"10.8987","longitude":"79.4104","accuracy":"4"}],"612501":[{"address3":"Kallapuliyur","state":"Tamil Nadu","state_code":"25","district":"Thanjavur","district_code":"620","address1":"Kumbakonam","address2":"","latitude":"10.6716","longitude":"79.2413","accuracy":"4"},{"address3":"Asoor","state":"Tamil Nadu","state_code":"25","district":"Thanjavur","district_code":"620","address1":"Kumbakonam","address2":"","latitude":"11.703","longitude":"79.4","accuracy":"3"},{"address3":"Devanancheri","state":"Tamil Nadu","state_code":"25","district":"Thanjavur","district_code":"620","address1":"Kumbakonam","address2":"","latitude":"11.0224","longitude":"79.3644","accuracy":"4"},{"address3":"Koranattukkaruppur","state":"Tamil Nadu","state_code":"25","district":"Thanjavur","district_code":"620","address1":"Kumbakonam","address2":"","latitude":"11.703","longitude":"79.4","accuracy":"3"},{"address3":"Kadichambadi","state":"Tamil Nadu","state_code":"25","district":"Thanjavur","district_code":"620","address1":"Kumbakonam","address2":"","latitude":"11.703","longitude":"79.4","accuracy":"3"},{"address3":"Nirathanallur","state":"Tamil Nadu","state_code":"25","district":"Thanjavur","district_code":"620","address1":"Kumbakonam","address2":"","latitude":"11.703","longitude":"79.4","accuracy":"3"}],"612502":[{"address3":"Mullangudi","state":"Tamil Nadu","state_code":"25","district":"Thanjavur","district_code":"620","address1":"Tirupanandal","address2":"","latitude":"11.15","longitude":"79.4803","accuracy":"4"},{"address3":"Thathuvancheri","state":"Tamil Nadu","state_code":"25","district":"Thanjavur","district_code":"620","address1":"Thiruvidaimarudur","address2":"","latitude":"11.15","longitude":"79.4803","accuracy":"3"},{"address3":"Lower Anicut","state":"Tamil Nadu","state_code":"25","district":"Thanjavur","district_code":"620","address1":"Thiruvidaimarudur","address2":"","latitude":"11.15","longitude":"79.4803","accuracy":"3"}],"612503":[{"address3":"Atthiyur","state":"Tamil Nadu","state_code":"25","district":"Thanjavur","district_code":"620","address1":"Tirupanandal","address2":"","latitude":"11.1248","longitude":"79.3751","accuracy":"3"},{"address3":"Manambadi","state":"Tamil Nadu","state_code":"25","district":"Thanjavur","district_code":"620","address1":"Tirupanandal","address2":"","latitude":"10.6716","longitude":"79.2413","accuracy":"4"},{"address3":"Maharajapuram","state":"Tamil Nadu","state_code":"25","district":"Thanjavur","district_code":"620","address1":"Tirupanandal","address2":"","latitude":"10.875","longitude":"78.9981","accuracy":"4"},{"address3":"Kallur","state":"Tamil Nadu","state_code":"25","district":"Thanjavur","district_code":"620","address1":"Tiruppanandal","address2":"","latitude":"11.0213","longitude":"79.3862","accuracy":"4"},{"address3":"Kovilacherri","state":"Tamil Nadu","state_code":"25","district":"Thanjavur","district_code":"620","address1":"Tirupanandal","address2":"","latitude":"11.1248","longitude":"79.3751","accuracy":"3"},{"address3":"Sholapuram","state":"Tamil Nadu","state_code":"25","district":"Thanjavur","district_code":"620","address1":"Tiruvidaimarudur","address2":"","latitude":"10.6716","longitude":"79.2413","accuracy":"3"}],"612504":[{"address3":"Mattiyur","state":"Tamil Nadu","state_code":"25","district":"Thanjavur","district_code":"620","address1":"Thiruvidaimarudur","address2":"","latitude":"11.0261","longitude":"79.3824","accuracy":"4"},{"address3":"Sickinaickanpettai","state":"Tamil Nadu","state_code":"25","district":"Thanjavur","district_code":"620","address1":"Tirupanandal","address2":"","latitude":"11.0677","longitude":"79.4253","accuracy":"3"},{"address3":"Virakkan","state":"Tamil Nadu","state_code":"25","district":"Thanjavur","district_code":"620","address1":"Tirupanandal","address2":"","latitude":"11.0833","longitude":"79.4281","accuracy":"4"},{"address3":"Manikudi","state":"Tamil Nadu","state_code":"25","district":"Thanjavur","district_code":"620","address1":"Tirupanandal","address2":"","latitude":"11.0677","longitude":"79.4253","accuracy":"3"},{"address3":"Senganur","state":"Tamil Nadu","state_code":"25","district":"Thanjavur","district_code":"620","address1":"Tirupanandal","address2":"","latitude":"11.0692","longitude":"79.4381","accuracy":"4"},{"address3":"Koorchi","state":"Tamil Nadu","state_code":"25","district":"Thanjavur","district_code":"620","address1":"Tirupanandal","address2":"","latitude":"11.0677","longitude":"79.4253","accuracy":"3"},{"address3":"Tirupanandal","state":"Tamil Nadu","state_code":"25","district":"Thanjavur","district_code":"620","address1":"Tiruvidamarudur","address2":"","latitude":"11.0923","longitude":"79.4525","accuracy":"4"}],"612601":[{"address3":"Vellakulam","state":"Tamil Nadu","state_code":"25","district":"Tiruvarur","district_code":"619","address1":"Kodavasal","address2":"","latitude":"10.6797","longitude":"79.536","accuracy":"4"},{"address3":"Agaraohai","state":"Tamil Nadu","state_code":"25","district":"Tiruvarur","district_code":"619","address1":"Kodavasal","address2":"","latitude":"10.6008","longitude":"79.2557","accuracy":"3"},{"address3":"Kodavasal","state":"Tamil Nadu","state_code":"25","district":"Tiruvarur","district_code":"619","address1":"Kodavasal","address2":"","latitude":"10.8616","longitude":"79.4796","accuracy":"4"},{"address3":"Melapalayur","state":"Tamil Nadu","state_code":"25","district":"Tiruvarur","district_code":"619","address1":"Kodavasal","address2":"","latitude":"10.6008","longitude":"79.2557","accuracy":"3"}],"612602":[{"address3":"Kumaramangalam","state":"Tamil Nadu","state_code":"25","district":"Thanjavur","district_code":"620","address1":"Tiruvidamarudur","address2":"","latitude":"10.9305","longitude":"79.4602","accuracy":"4"},{"address3":"Natchar Koil","state":"Tamil Nadu","state_code":"25","district":"Thanjavur","district_code":"620","address1":"Kumbakonam","address2":"","latitude":"10.925","longitude":"79.4502","accuracy":"3"},{"address3":"Koohur","state":"Tamil Nadu","state_code":"25","district":"Thanjavur","district_code":"620","address1":"Kumbakonam","address2":"","latitude":"10.925","longitude":"79.4502","accuracy":"3"},{"address3":"Tirunaraiyur","state":"Tamil Nadu","state_code":"25","district":"Thanjavur","district_code":"620","address1":"Tiruvidamarudur","address2":"","latitude":"10.9195","longitude":"79.4401","accuracy":"4"},{"address3":"Kothangudi","state":"Tamil Nadu","state_code":"25","district":"Thanjavur","district_code":"620","address1":"Kumbakonam","address2":"","latitude":"10.925","longitude":"79.4502","accuracy":"3"},{"address3":"Mathur","state":"Tamil Nadu","state_code":"25","district":"Thanjavur","district_code":"620","address1":"Tiruvidamarudur","address2":"","latitude":"10.925","longitude":"79.4502","accuracy":"3"},{"address3":"Thukkachi","state":"Tamil Nadu","state_code":"25","district":"Thanjavur","district_code":"620","address1":"Tiruvidamarudur","address2":"","latitude":"10.925","longitude":"79.4502","accuracy":"3"}],"612603":[{"address3":"Arasavanangadu","state":"Tamil Nadu","state_code":"25","district":"Tiruvarur","district_code":"619","address1":"Kodavasal","address2":"","latitude":"10.8238","longitude":"79.5561","accuracy":"4"},{"address3":"Sembangudi","state":"Tamil Nadu","state_code":"25","district":"Tiruvarur","district_code":"619","address1":"Kodavasal","address2":"","latitude":"10.8346","longitude":"79.5554","accuracy":"4"},{"address3":"Perumpannaiyur","state":"Tamil Nadu","state_code":"25","district":"Tiruvarur","district_code":"619","address1":"Kodavasal","address2":"","latitude":"10.8301","longitude":"79.5472","accuracy":"3"},{"address3":"Simili","state":"Tamil Nadu","state_code":"25","district":"Tiruvarur","district_code":"619","address1":"Kodavasal","address2":"","latitude":"10.8318","longitude":"79.5301","accuracy":"4"},{"address3":"Engan","state":"Tamil Nadu","state_code":"25","district":"Thanjavur","district_code":"620","address1":"Kodavasal","address2":"","latitude":"10.8301","longitude":"79.5472","accuracy":"3"}],"612604":[{"address3":"Paruthiyur","state":"Tamil Nadu","state_code":"25","district":"Tiruvarur","district_code":"619","address1":"Kodavasla","address2":"","latitude":"10.6689","longitude":"79.2989","accuracy":"3"},{"address3":"Sengalipuram","state":"Tamil Nadu","state_code":"25","district":"Tiruvarur","district_code":"619","address1":"Kodavasal","address2":"","latitude":"10.8496","longitude":"79.5125","accuracy":"4"},{"address3":"Serukalathur","state":"Tamil Nadu","state_code":"25","district":"Tiruvarur","district_code":"619","address1":"Kodavasal","address2":"","latitude":"10.6689","longitude":"79.2989","accuracy":"3"},{"address3":"Vadaver","state":"Tamil Nadu","state_code":"25","district":"Tiruvarur","district_code":"619","address1":"Kodavasal","address2":"","latitude":"10.8701","longitude":"79.5172","accuracy":"4"},{"address3":"Kandramanickam","state":"Tamil Nadu","state_code":"25","district":"Tiruvarur","district_code":"619","address1":"Kodavasal","address2":"","latitude":"10.6797","longitude":"79.536","accuracy":"4"},{"address3":"Sidakkamangalam","state":"Tamil Nadu","state_code":"25","district":"Tiruvarur","district_code":"619","address1":"Kodavasal","address2":"","latitude":"10.9076","longitude":"79.5344","accuracy":"4"},{"address3":"Sithadi","state":"Tamil Nadu","state_code":"25","district":"Tiruvarur","district_code":"619","address1":"Kodavasal","address2":"","latitude":"10.6689","longitude":"79.2989","accuracy":"3"}],"612605":[{"address3":"Tiruchirai","state":"Tamil Nadu","state_code":"25","district":"Tiruvarur","district_code":"619","address1":"Kodavasal","address2":"","latitude":"10.8866","longitude":"79.3494","accuracy":"3"},{"address3":"Vidayalkaruppur","state":"Tamil Nadu","state_code":"25","district":"Tiruvarur","district_code":"619","address1":"Valangaiman","address2":"","latitude":"10.8866","longitude":"79.3494","accuracy":"3"},{"address3":"Injikollai","state":"Tamil Nadu","state_code":"25","district":"Thanjavur","district_code":"620","address1":"Tiruvidamarudur","address2":"","latitude":"10.8866","longitude":"79.3494","accuracy":"3"},{"address3":"Semmangudi","state":"Tamil Nadu","state_code":"25","district":"Thanjavur","district_code":"620","address1":"Tiruvidamarudur","address2":"","latitude":"10.8893","longitude":"79.2647","accuracy":"4"},{"address3":"Paruthicherri","state":"Tamil Nadu","state_code":"25","district":"Thanjavur","district_code":"620","address1":"Tiruvidamarudur","address2":"","latitude":"10.8866","longitude":"79.3494","accuracy":"3"},{"address3":"Nagarasampettai","state":"Tamil Nadu","state_code":"25","district":"Thanjavur","district_code":"620","address1":"Tiruvidamarudur","address2":"","latitude":"10.884","longitude":"79.4342","accuracy":"4"}],"612610":[{"address3":"Pudukudi","state":"Tamil Nadu","state_code":"25","district":"Tiruvarur","district_code":"619","address1":"Kodavasal","address2":"","latitude":"10.6797","longitude":"79.536","accuracy":"4"},{"address3":"Moolangudi","state":"Tamil Nadu","state_code":"25","district":"Tiruvarur","district_code":"619","address1":"Kodavasal","address2":"","latitude":"10.0111","longitude":"78.9281","accuracy":"3"},{"address3":"Kilapalaiyur","state":"Tamil Nadu","state_code":"25","district":"Tiruvarur","district_code":"619","address1":"Kodavasal","address2":"","latitude":"10.0111","longitude":"78.9281","accuracy":"3"},{"address3":"Manjakudi","state":"Tamil Nadu","state_code":"25","district":"Tiruvarur","district_code":"619","address1":"Kodavasal","address2":"","latitude":"10.0111","longitude":"78.9281","accuracy":"3"}],"612701":[{"address3":"Avoor","state":"Tamil Nadu","state_code":"25","district":"Tiruvarur","district_code":"619","address1":"Valangaman","address2":"","latitude":"10.9102","longitude":"79.3393","accuracy":"3"},{"address3":"Govindakudi","state":"Tamil Nadu","state_code":"25","district":"Tiruvarur","district_code":"619","address1":"Valangaman","address2":"","latitude":"10.9102","longitude":"79.3393","accuracy":"4"},{"address3":"Oothucadu","state":"Tamil Nadu","state_code":"25","district":"Tiruvarur","district_code":"619","address1":"Valangaman","address2":"","latitude":"10.9102","longitude":"79.3393","accuracy":"3"}],"612702":[{"address3":"Valayapettai","state":"Tamil Nadu","state_code":"25","district":"Thanjavur","district_code":"620","address1":"Kumbakonam","address2":"","latitude":"10.9499","longitude":"79.3561","accuracy":"3"},{"address3":"Darasuram","state":"Tamil Nadu","state_code":"25","district":"Thanjavur","district_code":"620","address1":"Kumbakonam","address2":"","latitude":"10.9499","longitude":"79.3561","accuracy":"4"}],"612703":[{"address3":"Pampappadaiyur","state":"Tamil Nadu","state_code":"25","district":"Thanjavur","district_code":"620","address1":"Kumbakonam","address2":"","latitude":"10.93","longitude":"79.3477","accuracy":"1"},{"address3":"Cholanmaligai","state":"Tamil Nadu","state_code":"25","district":"Thanjavur","district_code":"620","address1":"Kumbakonam","address2":"","latitude":"10.93","longitude":"79.3477","accuracy":"1"},{"address3":"Teynampadugai","state":"Tamil Nadu","state_code":"25","district":"Thanjavur","district_code":"620","address1":"Kumbakonam","address2":"","latitude":"10.93","longitude":"79.3477","accuracy":"1"},{"address3":"Patteeswaram","state":"Tamil Nadu","state_code":"25","district":"Thanjavur","district_code":"620","address1":"Kumbakonam","address2":"","latitude":"10.93","longitude":"79.3477","accuracy":"1"}],"612801":[{"address3":"Sathanur-PSM","state":"Tamil Nadu","state_code":"25","district":"Tiruvarur","district_code":"619","address1":"Valangaman","address2":"","latitude":"10.9501","longitude":"79.3358","accuracy":"1"},{"address3":"Alangudi-NID","state":"Tamil Nadu","state_code":"25","district":"Tiruvarur","district_code":"619","address1":"Nidamangalam","address2":"","latitude":"10.9501","longitude":"79.3358","accuracy":"1"},{"address3":"Mathur-NID","state":"Tamil Nadu","state_code":"25","district":"Tiruvarur","district_code":"619","address1":"Valangaman","address2":"","latitude":"10.9501","longitude":"79.3358","accuracy":"1"},{"address3":"Melamaravathy","state":"Tamil Nadu","state_code":"25","district":"Tiruvarur","district_code":"619","address1":"Valangaman","address2":"","latitude":"10.9501","longitude":"79.3358","accuracy":"1"},{"address3":"Kuvalaiveli","state":"Tamil Nadu","state_code":"25","district":"Tiruvarur","district_code":"619","address1":"Valangaman","address2":"","latitude":"10.9501","longitude":"79.3358","accuracy":"1"}],"612802":[{"address3":"Muniyur","state":"Tamil Nadu","state_code":"25","district":"Tiruvarur","district_code":"619","address1":"Valangaman","address2":"","latitude":"10.8325","longitude":"79.3107","accuracy":"4"},{"address3":"Terkupattam","state":"Tamil Nadu","state_code":"25","district":"Tiruvarur","district_code":"619","address1":"Valangaman","address2":"","latitude":"10.8684","longitude":"79.3597","accuracy":"4"},{"address3":"Vilathur","state":"Tamil Nadu","state_code":"25","district":"Tiruvarur","district_code":"619","address1":"Valangaman","address2":"","latitude":"11.1329","longitude":"79.2602","accuracy":"3"},{"address3":"Avalivanallur","state":"Tamil Nadu","state_code":"25","district":"Tiruvarur","district_code":"619","address1":"Valangaman","address2":"","latitude":"10.8325","longitude":"79.3272","accuracy":"4"},{"address3":"Maruvathur","state":"Tamil Nadu","state_code":"25","district":"Tiruvarur","district_code":"619","address1":"Valangaman","address2":"","latitude":"10.9405","longitude":"79.599","accuracy":"4"},{"address3":"Haridwaramangalam","state":"Tamil Nadu","state_code":"25","district":"Tiruvarur","district_code":"619","address1":"Valangaman","address2":"","latitude":"10.8315","longitude":"79.35","accuracy":"4"},{"address3":"Kalathur","state":"Tamil Nadu","state_code":"25","district":"Thanjavur","district_code":"620","address1":"Valangaman","address2":"","latitude":"10.6716","longitude":"79.2413","accuracy":"4"}],"612803":[{"address3":"Kalacheri","state":"Tamil Nadu","state_code":"25","district":"Tiruvarur","district_code":"619","address1":"Nidamangalam","address2":"","latitude":"10.7307","longitude":"79.4264","accuracy":"3"},{"address3":"Kalanjimodu","state":"Tamil Nadu","state_code":"25","district":"Tiruvarur","district_code":"619","address1":"Mannargudi","address2":"","latitude":"10.709","longitude":"79.422","accuracy":"4"},{"address3":"Rajappayyanchavadi","state":"Tamil Nadu","state_code":"25","district":"Tiruvarur","district_code":"619","address1":"Mannargudi","address2":"","latitude":"10.7375","longitude":"79.4251","accuracy":"4"},{"address3":"Devangudi","state":"Tamil Nadu","state_code":"25","district":"Tiruvarur","district_code":"619","address1":"Nidamangalam","address2":"","latitude":"10.7307","longitude":"79.4264","accuracy":"3"},{"address3":"Kilapattu","state":"Tamil Nadu","state_code":"25","district":"Tiruvarur","district_code":"619","address1":"Nidamangalam","address2":"","latitude":"10.7307","longitude":"79.4264","accuracy":"3"},{"address3":"Puvanur","state":"Tamil Nadu","state_code":"25","district":"Tiruvarur","district_code":"619","address1":"Nidamangalam","address2":"","latitude":"10.747","longitude":"79.4155","accuracy":"4"},{"address3":"Rayapuram","state":"Tamil Nadu","state_code":"25","district":"Tiruvarur","district_code":"619","address1":"Nidamangalam","address2":"","latitude":"10.7293","longitude":"79.4062","accuracy":"4"},{"address3":"Melalavandaseri","state":"Tamil Nadu","state_code":"25","district":"Tiruvarur","district_code":"619","address1":"Nidamangalam","address2":"","latitude":"10.7306","longitude":"79.4633","accuracy":"4"}],"612804":[{"address3":"Adichamangalam","state":"Tamil Nadu","state_code":"25","district":"Tiruvarur","district_code":"619","address1":"Valangaman","address2":"","latitude":"10.9501","longitude":"79.3358","accuracy":"1"},{"address3":"Valangaman","state":"Tamil Nadu","state_code":"25","district":"Tiruvarur","district_code":"619","address1":"Valangaman","address2":"","latitude":"10.9501","longitude":"79.3358","accuracy":"1"},{"address3":"Sithanvalur","state":"Tamil Nadu","state_code":"25","district":"Tiruvarur","district_code":"619","address1":"Valangaman","address2":"","latitude":"10.9501","longitude":"79.3358","accuracy":"1"},{"address3":"Padagacheri","state":"Tamil Nadu","state_code":"25","district":"Tiruvarur","district_code":"619","address1":"Valangaman","address2":"","latitude":"10.9501","longitude":"79.3358","accuracy":"1"},{"address3":"Chandrasekarapuram","state":"Tamil Nadu","state_code":"25","district":"Tiruvarur","district_code":"619","address1":"Valangaman","address2":"","latitude":"10.9501","longitude":"79.3358","accuracy":"1"},{"address3":"Andankoil","state":"Tamil Nadu","state_code":"25","district":"Tiruvarur","district_code":"619","address1":"Valangaman","address2":"","latitude":"10.9501","longitude":"79.3358","accuracy":"1"},{"address3":"Melavidayal Ramnagar","state":"Tamil Nadu","state_code":"25","district":"Tiruvarur","district_code":"619","address1":"Valangaman","address2":"","latitude":"10.9501","longitude":"79.3358","accuracy":"1"},{"address3":"Tholuvur","state":"Tamil Nadu","state_code":"25","district":"Tiruvarur","district_code":"619","address1":"Valangaman","address2":"","latitude":"10.9501","longitude":"79.3358","accuracy":"1"},{"address3":"Odayalur","state":"Tamil Nadu","state_code":"25","district":"Thanjavur","district_code":"620","address1":"Kumbakonam","address2":"","latitude":"10.9501","longitude":"79.3358","accuracy":"1"},{"address3":"Thillaiyambur","state":"Tamil Nadu","state_code":"25","district":"Thanjavur","district_code":"620","address1":"Kumbakonam","address2":"","latitude":"10.9501","longitude":"79.3358","accuracy":"1"}],"612901":[{"address3":"Kollapuram","state":"Tamil Nadu","state_code":"25","district":"Ariyalur","district_code":"616","address1":"Udayarpalayam","address2":"","latitude":"11.1585","longitude":"79.0798","accuracy":"4"},{"address3":"Vanarathirayankuppam","state":"Tamil Nadu","state_code":"25","district":"Ariyalur","district_code":"616","address1":"Udayarpalayam","address2":"","latitude":"11.1755","longitude":"79.2468","accuracy":"3"},{"address3":"Kidaramkondan","state":"Tamil Nadu","state_code":"25","district":"Ariyalur","district_code":"616","address1":"Udayarpalayam","address2":"","latitude":"11.1925","longitude":"79.4137","accuracy":"4"},{"address3":"Gangaikondacholapuram","state":"Tamil Nadu","state_code":"25","district":"Ariyalur","district_code":"616","address1":"Udayarpalayam","address2":"","latitude":"11.1755","longitude":"79.2468","accuracy":"3"},{"address3":"Ayuthakalam","state":"Tamil Nadu","state_code":"25","district":"Ariyalur","district_code":"616","address1":"Udayarpalayam","address2":"","latitude":"11.1755","longitude":"79.2468","accuracy":"3"},{"address3":"Kuruvalapparkoil","state":"Tamil Nadu","state_code":"25","district":"Ariyalur","district_code":"616","address1":"Jayamkondacholapuram","address2":"","latitude":"11.1755","longitude":"79.2468","accuracy":"3"},{"address3":"Meikavalputhur","state":"Tamil Nadu","state_code":"25","district":"Ariyalur","district_code":"616","address1":"Udayarpalayam","address2":"","latitude":"11.1755","longitude":"79.2468","accuracy":"3"},{"address3":"Pichanur","state":"Tamil Nadu","state_code":"25","district":"Ariyalur","district_code":"616","address1":"Jayamkondacholapuram","address2":"","latitude":"11.1755","longitude":"79.2468","accuracy":"3"},{"address3":"Thaluthalaimedu","state":"Tamil Nadu","state_code":"25","district":"Ariyalur","district_code":"616","address1":"Jayamkondacholapuram","address2":"","latitude":"11.1755","longitude":"79.2468","accuracy":"3"},{"address3":"Vanavanallur","state":"Tamil Nadu","state_code":"25","district":"Ariyalur","district_code":"616","address1":"Udayarpalayam","address2":"","latitude":"11.1755","longitude":"79.2468","accuracy":"3"}],"612902":[{"address3":"Kodali","state":"Tamil Nadu","state_code":"25","district":"Ariyalur","district_code":"616","address1":"Udayarpalayam","address2":"","latitude":"11.1306","longitude":"79.4225","accuracy":"4"},{"address3":"Anaikudam","state":"Tamil Nadu","state_code":"25","district":"Ariyalur","district_code":"616","address1":"Jayamkondacholapuram","address2":"","latitude":"11.1478","longitude":"79.4053","accuracy":"3"},{"address3":"Devamangalam","state":"Tamil Nadu","state_code":"25","district":"Ariyalur","district_code":"616","address1":"Jayamkondacholapuram","address2":"","latitude":"11.165","longitude":"79.3882","accuracy":"4"},{"address3":"Udayanatham","state":"Tamil Nadu","state_code":"25","district":"Ariyalur","district_code":"616","address1":"Jayamkondacholapuram","address2":"","latitude":"11.1478","longitude":"79.4053","accuracy":"3"},{"address3":"Kodalikaruppur","state":"Tamil Nadu","state_code":"25","district":"Ariyalur","district_code":"616","address1":"Jayamkondacholapuram","address2":"","latitude":"11.1478","longitude":"79.4053","accuracy":"3"},{"address3":"Solamadevi","state":"Tamil Nadu","state_code":"25","district":"Ariyalur","district_code":"616","address1":"Jayamkondacholapuram","address2":"","latitude":"11.1478","longitude":"79.4053","accuracy":"3"}],"612903":[{"address3":"Vangudi","state":"Tamil Nadu","state_code":"25","district":"Ariyalur","district_code":"616","address1":"Jayamkondacholapuram","address2":"","latitude":"11.2773","longitude":"79.4598","accuracy":"4"},{"address3":"Pappakudi","state":"Tamil Nadu","state_code":"25","district":"Ariyalur","district_code":"616","address1":"Udayarpalayam","address2":"","latitude":"11.1605","longitude":"79.2442","accuracy":"4"},{"address3":"Padanilai","state":"Tamil Nadu","state_code":"25","district":"Ariyalur","district_code":"616","address1":"Udayarpalayam","address2":"","latitude":"11.3026","longitude":"79.4759","accuracy":"4"},{"address3":"Ilayaperumanallur","state":"Tamil Nadu","state_code":"25","district":"Ariyalur","district_code":"616","address1":"Jayamkondacholapuram","address2":"","latitude":"11.2545","longitude":"79.4883","accuracy":"3"},{"address3":"Ayyappanaickenpettai","state":"Tamil Nadu","state_code":"25","district":"Ariyalur","district_code":"616","address1":"Udayarpalayam","address2":"","latitude":"11.2545","longitude":"79.4883","accuracy":"3"},{"address3":"Muthuservaimadam","state":"Tamil Nadu","state_code":"25","district":"Ariyalur","district_code":"616","address1":"Jayamkondacholapuram","address2":"","latitude":"11.2545","longitude":"79.4883","accuracy":"3"},{"address3":"Kattagaram","state":"Tamil Nadu","state_code":"25","district":"Ariyalur","district_code":"616","address1":"Udayarpalayam","address2":"","latitude":"11.2379","longitude":"79.4893","accuracy":"4"},{"address3":"Minsuritti","state":"Tamil Nadu","state_code":"25","district":"Ariyalur","district_code":"616","address1":"Udayarpalayam","address2":"","latitude":"11.2545","longitude":"79.4883","accuracy":"3"},{"address3":"Alathipallam","state":"Tamil Nadu","state_code":"25","district":"Ariyalur","district_code":"616","address1":"Udayarpalayam","address2":"","latitude":"11.2545","longitude":"79.4883","accuracy":"3"},{"address3":"Melanikuli","state":"Tamil Nadu","state_code":"25","district":"Ariyalur","district_code":"616","address1":"Udayarpalayam","address2":"","latitude":"11.2545","longitude":"79.4883","accuracy":"3"},{"address3":"Saluppai","state":"Tamil Nadu","state_code":"25","district":"Ariyalur","district_code":"616","address1":"Udayarpalayam","address2":"","latitude":"11.26","longitude":"79.4419","accuracy":"4"},{"address3":"Kundaveli","state":"Tamil Nadu","state_code":"25","district":"Ariyalur","district_code":"616","address1":"Udayarpalayam","address2":"","latitude":"11.2426","longitude":"79.4704","accuracy":"4"}],"612904":[{"address3":"Naduvalur","state":"Tamil Nadu","state_code":"25","district":"Ariyalur","district_code":"616","address1":"Ariyalur","address2":"","latitude":"11.0962","longitude":"79.2926","accuracy":"4"},{"address3":"Kargudi","state":"Tamil Nadu","state_code":"25","district":"Ariyalur","district_code":"616","address1":"Udayarpalayam","address2":"","latitude":"11.088","longitude":"79.3065","accuracy":"4"},{"address3":"Kottiyal","state":"Tamil Nadu","state_code":"25","district":"Ariyalur","district_code":"616","address1":"Udayarpalayam","address2":"","latitude":"11.0988","longitude":"79.3233","accuracy":"4"},{"address3":"Kaduvettankurichi","state":"Tamil Nadu","state_code":"25","district":"Ariyalur","district_code":"616","address1":"Udayarpalayam","address2":"","latitude":"11.0929","longitude":"79.3304","accuracy":"3"},{"address3":"Irugaiyur","state":"Tamil Nadu","state_code":"25","district":"Ariyalur","district_code":"616","address1":"Ariyalur","address2":"","latitude":"11.0805","longitude":"79.3398","accuracy":"4"},{"address3":"Vazhaikurichi","state":"Tamil Nadu","state_code":"25","district":"Ariyalur","district_code":"616","address1":"Ariyalur","address2":"","latitude":"11.0929","longitude":"79.3304","accuracy":"3"},{"address3":"Idanganni","state":"Tamil Nadu","state_code":"25","district":"Ariyalur","district_code":"616","address1":"Ariyalur","address2":"","latitude":"11.1012","longitude":"79.39","accuracy":"4"},{"address3":"Thathampettai Palur","state":"Tamil Nadu","state_code":"25","district":"Ariyalur","district_code":"616","address1":"Jayamkondacholapuram","address2":"","latitude":"11.0929","longitude":"79.3304","accuracy":"3"},{"address3":"Karaikurichi","state":"Tamil Nadu","state_code":"25","district":"Ariyalur","district_code":"616","address1":"Udayarpalayam","address2":"","latitude":"11.0929","longitude":"79.3304","accuracy":"3"},{"address3":"Keelamichaelpatti","state":"Tamil Nadu","state_code":"25","district":"Ariyalur","district_code":"616","address1":"Udayarpalayam","address2":"","latitude":"11.0929","longitude":"79.3304","accuracy":"3"},{"address3":"Thengachiperumalnatham","state":"Tamil Nadu","state_code":"25","district":"Ariyalur","district_code":"616","address1":"Ariyalur","address2":"","latitude":"11.0929","longitude":"79.3304","accuracy":"3"}],"612905":[{"address3":"Ulkottai","state":"Tamil Nadu","state_code":"25","district":"Tiruchirappalli","district_code":"614","address1":"Udayarpalayam","address2":"","latitude":"11.1759","longitude":"79.3924","accuracy":"1"}],"credits":[{"name":"geonames","url":"https://www.geonames.org"}],"last_update":"2019-03-01T09:01:35.491Z"}