{"613001":[{"address3":"Manambuchavadi","state":"Tamil Nadu","state_code":"25","district":"Thanjavur","district_code":"620","address1":"Thanjavur","address2":"","latitude":"10.7817","longitude":"79.1512","accuracy":"4"},{"address3":"Thanjavur East Gate","state":"Tamil Nadu","state_code":"25","district":"Thanjavur","district_code":"620","address1":"Thanjavur","address2":"","latitude":"11.0234","longitude":"79.2904","accuracy":"3"},{"address3":"Irudayapuram","state":"Tamil Nadu","state_code":"25","district":"Thanjavur","district_code":"620","address1":"Thanjavur","address2":"","latitude":"10.6716","longitude":"79.2413","accuracy":"4"},{"address3":"Thanjavur South","state":"Tamil Nadu","state_code":"25","district":"Thanjavur","district_code":"620","address1":"Thanjavur","address2":"","latitude":"11.0234","longitude":"79.2904","accuracy":"3"},{"address3":"Thanjavur East","state":"Tamil Nadu","state_code":"25","district":"Thanjavur","district_code":"620","address1":"Thanjavur","address2":"","latitude":"11.0234","longitude":"79.2904","accuracy":"3"},{"address3":"Thanjavur H.O","state":"Tamil Nadu","state_code":"25","district":"Thanjavur","district_code":"620","address1":"Thanjavur","address2":"","latitude":"11.0234","longitude":"79.2904","accuracy":"3"},{"address3":"Arisikara Street","state":"Tamil Nadu","state_code":"25","district":"Thanjavur","district_code":"620","address1":"Thanjavur","address2":"","latitude":"11.0234","longitude":"79.2904","accuracy":"3"},{"address3":"Thanjavur Collectorate","state":"Tamil Nadu","state_code":"25","district":"Thanjavur","district_code":"620","address1":"Thanjavur","address2":"","latitude":"11.0234","longitude":"79.2904","accuracy":"3"},{"address3":"Thanjavur City","state":"Tamil Nadu","state_code":"25","district":"Thanjavur","district_code":"620","address1":"Thanjavur","address2":"","latitude":"11.0234","longitude":"79.2904","accuracy":"3"},{"address3":"TJ Busstand","state":"Tamil Nadu","state_code":"25","district":"Thanjavur","district_code":"620","address1":"Thanjavur","address2":"","latitude":"11.0234","longitude":"79.2904","accuracy":"3"},{"address3":"Thanjavur Bazaar","state":"Tamil Nadu","state_code":"25","district":"Thanjavur","district_code":"620","address1":"Thanjavur","address2":"","latitude":"11.0234","longitude":"79.2904","accuracy":"3"},{"address3":"Pookkara Street","state":"Tamil Nadu","state_code":"25","district":"Thanjavur","district_code":"620","address1":"Thanjavur","address2":"","latitude":"11.0234","longitude":"79.2904","accuracy":"3"}],"613002":[{"address3":"Kalimedu","state":"Tamil Nadu","state_code":"25","district":"Thanjavur","district_code":"620","address1":"Thanjavur","address2":"","latitude":"10.6716","longitude":"79.2413","accuracy":"4"},{"address3":"Sakkarasamandam","state":"Tamil Nadu","state_code":"25","district":"Thanjavur","district_code":"620","address1":"Thanjavur","address2":"","latitude":"11.0811","longitude":"78.0544","accuracy":"3"},{"address3":"Karuntattankudi","state":"Tamil Nadu","state_code":"25","district":"Thanjavur","district_code":"620","address1":"Thanjavur","address2":"","latitude":"11.0811","longitude":"78.0544","accuracy":"3"}],"613003":[{"address3":"Ramapuram","state":"Tamil Nadu","state_code":"25","district":"Thanjavur","district_code":"620","address1":"Thiruvaiyaru","address2":"","latitude":"10.8438","longitude":"79.1575","accuracy":"4"},{"address3":"Palliagraharam","state":"Tamil Nadu","state_code":"25","district":"Thanjavur","district_code":"620","address1":"Thiruvaiyaru","address2":"","latitude":"10.8218","longitude":"79.163","accuracy":"3"},{"address3":"Tittai","state":"Tamil Nadu","state_code":"25","district":"Thanjavur","district_code":"620","address1":"Thiruvaiyaru","address2":"","latitude":"10.8365","longitude":"79.1709","accuracy":"4"},{"address3":"Annappanpettai","state":"Tamil Nadu","state_code":"25","district":"Thanjavur","district_code":"620","address1":"Thanjavur","address2":"","latitude":"10.8218","longitude":"79.163","accuracy":"3"},{"address3":"Vennar Bank","state":"Tamil Nadu","state_code":"25","district":"Thanjavur","district_code":"620","address1":"Thanjavur","address2":"","latitude":"10.8161","longitude":"79.1392","accuracy":"4"},{"address3":"Kadakadappai","state":"Tamil Nadu","state_code":"25","district":"Thanjavur","district_code":"620","address1":"Thiruvaiyaru","address2":"","latitude":"10.8008","longitude":"79.1799","accuracy":"4"},{"address3":"Gudalur","state":"Tamil Nadu","state_code":"25","district":"Thanjavur","district_code":"620","address1":"Thanjavur","address2":"","latitude":"10.812","longitude":"79.1675","accuracy":"4"}],"613004":[{"address3":"Manojipatti","state":"Tamil Nadu","state_code":"25","district":"Thanjavur","district_code":"620","address1":"Thanjavur","address2":"","latitude":"10.7661","longitude":"79.0958","accuracy":"4"},{"address3":"Thanjavur Medical College","state":"Tamil Nadu","state_code":"25","district":"Thanjavur","district_code":"620","address1":"Thanjavur","address2":"","latitude":"10.7741","longitude":"79.0994","accuracy":"3"},{"address3":"Ramanathapuram","state":"Tamil Nadu","state_code":"25","district":"Thanjavur","district_code":"620","address1":"Thanjavur","address2":"","latitude":"10.782","longitude":"79.103","accuracy":"4"},{"address3":"State Bank Colony","state":"Tamil Nadu","state_code":"25","district":"Thanjavur","district_code":"620","address1":"Thanjavur","address2":"","latitude":"10.7741","longitude":"79.0994","accuracy":"3"}],"613005":[{"address3":"Inayathukkanpatti","state":"Tamil Nadu","state_code":"25","district":"Thanjavur","district_code":"620","address1":"Thanjavur","address2":"","latitude":"10.8553","longitude":"79.1064","accuracy":"1"},{"address3":"Melavasthachavadi","state":"Tamil Nadu","state_code":"25","district":"Thanjavur","district_code":"620","address1":"Thanjavur","address2":"","latitude":"10.8553","longitude":"79.1064","accuracy":"1"},{"address3":"Raja Serfoji Govt College","state":"Tamil Nadu","state_code":"25","district":"Thanjavur","district_code":"620","address1":"Thanjavur","address2":"","latitude":"10.8553","longitude":"79.1064","accuracy":"1"}],"613006":[{"address3":"Marungulam","state":"Tamil Nadu","state_code":"25","district":"Thanjavur","district_code":"620","address1":"Thanjavur","address2":"","latitude":"10.6786","longitude":"79.1454","accuracy":"4"},{"address3":"Mukasa Nanjikottai","state":"Tamil Nadu","state_code":"25","district":"Thanjavur","district_code":"620","address1":"Thanjavur","address2":"","latitude":"10.7049","longitude":"79.1504","accuracy":"3"},{"address3":"Vilar","state":"Tamil Nadu","state_code":"25","district":"Thanjavur","district_code":"620","address1":"Thanjavur","address2":"","latitude":"10.7313","longitude":"79.1554","accuracy":"4"},{"address3":"Thanjavur P&t Colony","state":"Tamil Nadu","state_code":"25","district":"Thanjavur","district_code":"620","address1":"Thanjavur","address2":"","latitude":"10.7049","longitude":"79.1504","accuracy":"3"}],"613007":[{"address3":"Thanjavur Housing Unit","state":"Tamil Nadu","state_code":"25","district":"Thanjavur","district_code":"620","address1":"Thanjavur","address2":"","latitude":"10.8553","longitude":"79.1064","accuracy":"1"},{"address3":"TJ Co-operative Housing Colony","state":"Tamil Nadu","state_code":"25","district":"Thanjavur","district_code":"620","address1":"Thanjavur","address2":"","latitude":"10.8553","longitude":"79.1064","accuracy":"1"},{"address3":"Voc Nagar","state":"Tamil Nadu","state_code":"25","district":"Thanjavur","district_code":"620","address1":"Thanjavur","address2":"","latitude":"10.8553","longitude":"79.1064","accuracy":"1"},{"address3":"Rajappa Nagar","state":"Tamil Nadu","state_code":"25","district":"Thanjavur","district_code":"620","address1":"Thanjavur","address2":"","latitude":"10.8553","longitude":"79.1064","accuracy":"1"},{"address3":"Ganapathi Nagar","state":"Tamil Nadu","state_code":"25","district":"Thanjavur","district_code":"620","address1":"Thanjavur","address2":"","latitude":"10.8553","longitude":"79.1064","accuracy":"1"}],"613008":[{"address3":"Thanjavur North Gate","state":"Tamil Nadu","state_code":"25","district":"Thanjavur","district_code":"620","address1":"Thanjavur","address2":"","latitude":"10.8553","longitude":"79.1064","accuracy":"1"}],"613009":[{"address3":"Srinivasapuram","state":"Tamil Nadu","state_code":"25","district":"Thanjavur","district_code":"620","address1":"Thanjavur","address2":"","latitude":"10.9235","longitude":"79.4329","accuracy":"4"},{"address3":"Thanjavur West","state":"Tamil Nadu","state_code":"25","district":"Thanjavur","district_code":"620","address1":"Thanjavur","address2":"","latitude":"10.9235","longitude":"79.4329","accuracy":"3"},{"address3":"Co-operative Buildings","state":"Tamil Nadu","state_code":"25","district":"Thanjavur","district_code":"620","address1":"Thanjavur","address2":"","latitude":"10.9235","longitude":"79.4329","accuracy":"3"}],"613010":[{"address3":"Tamil University","state":"Tamil Nadu","state_code":"25","district":"Thanjavur","district_code":"620","address1":"Thanjavur","address2":"","latitude":"10.8553","longitude":"79.1064","accuracy":"1"}],"613101":[{"address3":"Allur","state":"Tamil Nadu","state_code":"25","district":"Thanjavur","district_code":"620","address1":"Thiruvaiyaru","address2":"","latitude":"10.824","longitude":"79.0281","accuracy":"4"},{"address3":"Varagur","state":"Tamil Nadu","state_code":"25","district":"Thanjavur","district_code":"620","address1":"Thiruvaiyaru","address2":"","latitude":"10.8426","longitude":"78.9978","accuracy":"4"},{"address3":"Aimbadumelnagaram","state":"Tamil Nadu","state_code":"25","district":"Thanjavur","district_code":"620","address1":"Thiruvaiyaru","address2":"","latitude":"10.8443","longitude":"79.0174","accuracy":"3"},{"address3":"Sendalai","state":"Tamil Nadu","state_code":"25","district":"Thanjavur","district_code":"620","address1":"Thiruvaiyaru","address2":"","latitude":"10.8544","longitude":"78.992","accuracy":"4"},{"address3":"Nadukaveri","state":"Tamil Nadu","state_code":"25","district":"Thanjavur","district_code":"620","address1":"Thiruvaiyaru","address2":"","latitude":"10.8443","longitude":"79.0174","accuracy":"3"},{"address3":"Vellamperambur","state":"Tamil Nadu","state_code":"25","district":"Thanjavur","district_code":"620","address1":"Thiruvaiyaru","address2":"","latitude":"10.8433","longitude":"79.0552","accuracy":"4"},{"address3":"Konerirajapuram","state":"Tamil Nadu","state_code":"25","district":"Thanjavur","district_code":"620","address1":"Thiruvaiyaru","address2":"","latitude":"10.8571","longitude":"79.014","accuracy":"4"}],"613102":[{"address3":"Kachamangalam","state":"Tamil Nadu","state_code":"25","district":"Thanjavur","district_code":"620","address1":"Thiruvaiyaru","address2":"","latitude":"10.1665","longitude":"78.6746","accuracy":"3"},{"address3":"Seyyamangalam","state":"Tamil Nadu","state_code":"25","district":"Thanjavur","district_code":"620","address1":"Thiruvaiyaru","address2":"","latitude":"10.6716","longitude":"79.2413","accuracy":"4"},{"address3":"Thogur","state":"Tamil Nadu","state_code":"25","district":"Thanjavur","district_code":"620","address1":"Thiruvaiyaru","address2":"","latitude":"10.1665","longitude":"78.6746","accuracy":"3"},{"address3":"Indalur","state":"Tamil Nadu","state_code":"25","district":"Thanjavur","district_code":"620","address1":"Thanjavur","address2":"","latitude":"10.8218","longitude":"78.8831","accuracy":"4"},{"address3":"Mekalathur","state":"Tamil Nadu","state_code":"25","district":"Thanjavur","district_code":"620","address1":"Thiruvaiyaru","address2":"","latitude":"10.1665","longitude":"78.6746","accuracy":"3"},{"address3":"Sholagampatti","state":"Tamil Nadu","state_code":"25","district":"Thanjavur","district_code":"620","address1":"Thanjavur","address2":"","latitude":"10.1665","longitude":"78.6746","accuracy":"3"}],"613103":[{"address3":"Thiruvalampozhil","state":"Tamil Nadu","state_code":"25","district":"Thanjavur","district_code":"620","address1":"Thiruvaiyaru","address2":"","latitude":"10.7531","longitude":"78.9445","accuracy":"1"},{"address3":"Kilathiruppanthuruthi","state":"Tamil Nadu","state_code":"25","district":"Thanjavur","district_code":"620","address1":"Thiruvaiyaru","address2":"","latitude":"10.7531","longitude":"78.9445","accuracy":"1"},{"address3":"Thiruppanthuruthi","state":"Tamil Nadu","state_code":"25","district":"Thanjavur","district_code":"620","address1":"Thiruvaiyaru","address2":"","latitude":"10.7531","longitude":"78.9445","accuracy":"1"}],"613104":[{"address3":"Tirukattupalli East","state":"Tamil Nadu","state_code":"25","district":"Thanjavur","district_code":"620","address1":"Thiruvaiyaru","address2":"","latitude":"10.8534","longitude":"78.9718","accuracy":"3"},{"address3":"Kandamangalam","state":"Tamil Nadu","state_code":"25","district":"Thanjavur","district_code":"620","address1":"Thiruvaiyaru","address2":"","latitude":"10.8423","longitude":"78.978","accuracy":"4"},{"address3":"Maharajapuram","state":"Tamil Nadu","state_code":"25","district":"Thanjavur","district_code":"620","address1":"Thiruvaiyaru","address2":"","latitude":"10.875","longitude":"78.9981","accuracy":"4"},{"address3":"Mullakudi","state":"Tamil Nadu","state_code":"25","district":"Thanjavur","district_code":"620","address1":"Thiruvaiyaru","address2":"","latitude":"10.8534","longitude":"78.9718","accuracy":"3"},{"address3":"Tirukattupalli","state":"Tamil Nadu","state_code":"25","district":"Thanjavur","district_code":"620","address1":"Thiruvaiyaru","address2":"","latitude":"10.8443","longitude":"78.9565","accuracy":"4"},{"address3":"Elangadu-TPL","state":"Tamil Nadu","state_code":"25","district":"Thanjavur","district_code":"620","address1":"Thiruvaiyaru","address2":"","latitude":"10.8534","longitude":"78.9718","accuracy":"3"},{"address3":"Michaelpatti","state":"Tamil Nadu","state_code":"25","district":"Thanjavur","district_code":"620","address1":"Thiruvaiyaru","address2":"","latitude":"10.851","longitude":"78.9716","accuracy":"4"},{"address3":"Kuthur","state":"Tamil Nadu","state_code":"25","district":"Thanjavur","district_code":"620","address1":"Thiruvaiyaru","address2":"","latitude":"10.8534","longitude":"78.9718","accuracy":"3"},{"address3":"Nemam","state":"Tamil Nadu","state_code":"25","district":"Thanjavur","district_code":"620","address1":"Thiruvaiyaru","address2":"","latitude":"10.8431","longitude":"78.9226","accuracy":"4"},{"address3":"Renganathapuram","state":"Tamil Nadu","state_code":"25","district":"Thanjavur","district_code":"620","address1":"Thiruvaiyaru","address2":"","latitude":"10.8534","longitude":"78.9718","accuracy":"3"},{"address3":"Valappakudi","state":"Tamil Nadu","state_code":"25","district":"Thanjavur","district_code":"620","address1":"Thiruvaiyaru","address2":"","latitude":"10.8649","longitude":"79.0042","accuracy":"4"},{"address3":"Palamaneri","state":"Tamil Nadu","state_code":"25","district":"Thanjavur","district_code":"620","address1":"Thiruvaiyaru","address2":"","latitude":"10.8534","longitude":"78.9718","accuracy":"3"}],"613105":[{"address3":"Vishnampettai","state":"Tamil Nadu","state_code":"25","district":"Thanjavur","district_code":"620","address1":"Thiruvaiyaru","address2":"","latitude":"10.8681","longitude":"78.955","accuracy":"4"},{"address3":"Poondi-TPL","state":"Tamil Nadu","state_code":"25","district":"Thanjavur","district_code":"620","address1":"Thiruvaiyaru","address2":"","latitude":"10.8681","longitude":"78.955","accuracy":"3"},{"address3":"Puduchatram","state":"Tamil Nadu","state_code":"25","district":"Thanjavur","district_code":"620","address1":"Thiruvaiyaru","address2":"","latitude":"10.8681","longitude":"78.955","accuracy":"3"},{"address3":"Tiruchinampoondi","state":"Tamil Nadu","state_code":"25","district":"Thanjavur","district_code":"620","address1":"Thiruvaiyaru","address2":"","latitude":"10.8681","longitude":"78.955","accuracy":"3"},{"address3":"Koviladi-TPL","state":"Tamil Nadu","state_code":"25","district":"Thanjavur","district_code":"620","address1":"Thiruvaiyaru","address2":"","latitude":"10.8681","longitude":"78.955","accuracy":"3"}],"613201":[{"address3":"Kalyanapuram","state":"Tamil Nadu","state_code":"25","district":"Thanjavur","district_code":"620","address1":"Thiruvaiyaru","address2":"","latitude":"10.8692","longitude":"79.1088","accuracy":"4"},{"address3":"Ponnavarai","state":"Tamil Nadu","state_code":"25","district":"Thanjavur","district_code":"620","address1":"Thiruvaiyaru","address2":"","latitude":"10.8788","longitude":"79.1182","accuracy":"4"},{"address3":"Uthamanallur","state":"Tamil Nadu","state_code":"25","district":"Thanjavur","district_code":"620","address1":"Thiruvaiyaru","address2":"","latitude":"10.874","longitude":"79.1135","accuracy":"3"},{"address3":"Mohamed Bunder","state":"Tamil Nadu","state_code":"25","district":"Thanjavur","district_code":"620","address1":"Thiruvaiyaru","address2":"","latitude":"10.874","longitude":"79.1135","accuracy":"3"}],"613202":[{"address3":"Kandiyur","state":"Tamil Nadu","state_code":"25","district":"Thanjavur","district_code":"620","address1":"Thiruvaiyaru","address2":"","latitude":"10.8609","longitude":"79.1083","accuracy":"4"},{"address3":"Tiruchottuthurai","state":"Tamil Nadu","state_code":"25","district":"Thanjavur","district_code":"620","address1":"Thiruvaiyaru","address2":"","latitude":"10.8609","longitude":"79.1083","accuracy":"3"}],"613203":[{"address3":"Thillaisthanam","state":"Tamil Nadu","state_code":"25","district":"Thanjavur","district_code":"620","address1":"Thiruvaiyaru","address2":"","latitude":"10.8822","longitude":"79.0412","accuracy":"3"},{"address3":"Vaidyanathanpettai","state":"Tamil Nadu","state_code":"25","district":"Thanjavur","district_code":"620","address1":"Thiruvaiyaru","address2":"","latitude":"10.8876","longitude":"79.0604","accuracy":"4"},{"address3":"Maruvur","state":"Tamil Nadu","state_code":"25","district":"Thanjavur","district_code":"620","address1":"Thiruvaiyaru","address2":"","latitude":"10.8767","longitude":"79.0221","accuracy":"4"},{"address3":"Sathanur","state":"Tamil Nadu","state_code":"25","district":"Thanjavur","district_code":"620","address1":"Thiruvaiyaru","address2":"","latitude":"10.8822","longitude":"79.0412","accuracy":"3"},{"address3":"Mukasakaduveli","state":"Tamil Nadu","state_code":"25","district":"Thanjavur","district_code":"620","address1":"Thiruvaiyaru","address2":"","latitude":"10.8822","longitude":"79.0412","accuracy":"3"}],"613204":[{"address3":"Thiruvaiyaru","state":"Tamil Nadu","state_code":"25","district":"Thanjavur","district_code":"620","address1":"Thiruvaiyaru","address2":"","latitude":"10.8841","longitude":"79.1036","accuracy":"4"},{"address3":"Ichangudi","state":"Tamil Nadu","state_code":"25","district":"Thanjavur","district_code":"620","address1":"Papanasam","address2":"","latitude":"10.6716","longitude":"79.2413","accuracy":"4"},{"address3":"Peramur","state":"Tamil Nadu","state_code":"25","district":"Thanjavur","district_code":"620","address1":"Thiruvaiyaru","address2":"","latitude":"10.9032","longitude":"79.1389","accuracy":"4"},{"address3":"Royampettai","state":"Tamil Nadu","state_code":"25","district":"Thanjavur","district_code":"620","address1":"Thiruvaiyaru","address2":"","latitude":"10.9701","longitude":"79.0712","accuracy":"3"},{"address3":"Tiruppayanam","state":"Tamil Nadu","state_code":"25","district":"Thanjavur","district_code":"620","address1":"Thiruvaiyaru","address2":"","latitude":"10.8888","longitude":"79.1315","accuracy":"4"},{"address3":"Ponavasal","state":"Tamil Nadu","state_code":"25","district":"Thanjavur","district_code":"620","address1":"Thiruvaiyaru","address2":"","latitude":"10.9701","longitude":"79.0712","accuracy":"3"},{"address3":"Someswarapuram","state":"Tamil Nadu","state_code":"25","district":"Thanjavur","district_code":"620","address1":"Papanasam","address2":"","latitude":"10.9193","longitude":"79.1543","accuracy":"4"},{"address3":"Anaikudi","state":"Tamil Nadu","state_code":"25","district":"Thanjavur","district_code":"620","address1":"Thiruvaiyaru","address2":"","latitude":"10.9701","longitude":"79.0712","accuracy":"3"},{"address3":"Vilangudi","state":"Tamil Nadu","state_code":"25","district":"Thanjavur","district_code":"620","address1":"Thiruvaiyaru","address2":"","latitude":"10.9186","longitude":"79.1032","accuracy":"4"},{"address3":"Thiruvaiyaru Thiyagaraja Colony","state":"Tamil Nadu","state_code":"25","district":"Thanjavur","district_code":"620","address1":"Thiruvaiyaru","address2":"","latitude":"10.9701","longitude":"79.0712","accuracy":"3"},{"address3":"Veeramangudi","state":"Tamil Nadu","state_code":"25","district":"Thanjavur","district_code":"620","address1":"Papanasam","address2":"","latitude":"10.9701","longitude":"79.0712","accuracy":"3"}],"613205":[{"address3":"Vediapuram","state":"Tamil Nadu","state_code":"25","district":"Thanjavur","district_code":"620","address1":"Thiruvaiyaru","address2":"","latitude":"11.9333","longitude":"79.3229","accuracy":"3"},{"address3":"Nagathi","state":"Tamil Nadu","state_code":"25","district":"Thanjavur","district_code":"620","address1":"Thiruvaiyaru","address2":"","latitude":"11.9333","longitude":"79.3229","accuracy":"3"},{"address3":"Arkadu","state":"Tamil Nadu","state_code":"25","district":"Thanjavur","district_code":"620","address1":"Thiruvaiyaru","address2":"","latitude":"10.6716","longitude":"79.2413","accuracy":"4"}],"613301":[{"address3":"Komapuram","state":"Tamil Nadu","state_code":"25","district":"Pudukkottai","district_code":"621","address1":"Gandarvakottai","address2":"","latitude":"10.6342","longitude":"78.9969","accuracy":"4"},{"address3":"Kovilur (Gandarvakottai)","state":"Tamil Nadu","state_code":"25","district":"Pudukkottai","district_code":"621","address1":"Gandarvakottai","address2":"","latitude":"10.7706","longitude":"79.1203","accuracy":"3"},{"address3":"Pudunagar","state":"Tamil Nadu","state_code":"25","district":"Pudukkottai","district_code":"621","address1":"Gandarvakotai","address2":"","latitude":"10.3586","longitude":"78.8812","accuracy":"4"},{"address3":"Manganur","state":"Tamil Nadu","state_code":"25","district":"Pudukkottai","district_code":"621","address1":"Gandarvakottai","address2":"","latitude":"10.6091","longitude":"78.9652","accuracy":"4"},{"address3":"Vembanpatti","state":"Tamil Nadu","state_code":"25","district":"Pudukkottai","district_code":"621","address1":"Gandarvakkottai","address2":"","latitude":"10.5487","longitude":"79.0769","accuracy":"4"},{"address3":"Ghandarvakottai","state":"Tamil Nadu","state_code":"25","district":"Pudukkottai","district_code":"621","address1":"Gandarvakottai","address2":"","latitude":"10.7706","longitude":"79.1203","accuracy":"3"},{"address3":"Mohanur","state":"Tamil Nadu","state_code":"25","district":"Pudukkottai","district_code":"621","address1":"Gandarvakkottai","address2":"","latitude":"10.5644","longitude":"79.0757","accuracy":"4"},{"address3":"Akkachipatti","state":"Tamil Nadu","state_code":"25","district":"Pudukkottai","district_code":"621","address1":"Gandarvakkottai","address2":"","latitude":"10.7706","longitude":"79.1203","accuracy":"3"},{"address3":"Mattangal","state":"Tamil Nadu","state_code":"25","district":"Pudukkottai","district_code":"621","address1":"Gandarvakottai","address2":"","latitude":"10.5647","longitude":"79.0477","accuracy":"4"},{"address3":"Vellalaviduthi","state":"Tamil Nadu","state_code":"25","district":"Pudukkottai","district_code":"621","address1":"Gandarvakottai","address2":"","latitude":"10.7706","longitude":"79.1203","accuracy":"3"},{"address3":"Valavampatti","state":"Tamil Nadu","state_code":"25","district":"Pudukkottai","district_code":"621","address1":"Gandarvakottai","address2":"","latitude":"10.5605","longitude":"78.9903","accuracy":"4"},{"address3":"Veladipatti","state":"Tamil Nadu","state_code":"25","district":"Pudukkottai","district_code":"621","address1":"Gandarvakkottai","address2":"","latitude":"10.7706","longitude":"79.1203","accuracy":"3"},{"address3":"Thachankurichi","state":"Tamil Nadu","state_code":"25","district":"Pudukkottai","district_code":"621","address1":"Gandarvakottai","address2":"","latitude":"10.7706","longitude":"79.1203","accuracy":"3"},{"address3":"Sundampatti","state":"Tamil Nadu","state_code":"25","district":"Pudukkottai","district_code":"621","address1":"Gandarvakottai","address2":"","latitude":"10.5423","longitude":"79.036","accuracy":"4"}],"613303":[{"address3":"Kurungulam","state":"Tamil Nadu","state_code":"25","district":"Thanjavur","district_code":"620","address1":"Thanjavur","address2":"","latitude":"10.6542","longitude":"79.0995","accuracy":"4"},{"address3":"Kurungulam Melpathi","state":"Tamil Nadu","state_code":"25","district":"Thanjavur","district_code":"620","address1":"Thanjavur","address2":"","latitude":"10.6542","longitude":"79.0995","accuracy":"3"},{"address3":"Thethuvasalpatti","state":"Tamil Nadu","state_code":"25","district":"Thanjavur","district_code":"620","address1":"Thanjavur","address2":"","latitude":"10.6542","longitude":"79.0995","accuracy":"3"},{"address3":"Tirukanurpatti","state":"Tamil Nadu","state_code":"25","district":"Thanjavur","district_code":"620","address1":"Thanjavur","address2":"","latitude":"10.6542","longitude":"79.0995","accuracy":"3"}],"613401":[{"address3":"Vallam Pudur","state":"Tamil Nadu","state_code":"25","district":"Thanjavur","district_code":"620","address1":"Thanjavur","address2":"","latitude":"10.7077","longitude":"79.0212","accuracy":"4"},{"address3":"Tirumalaisamudram East","state":"Tamil Nadu","state_code":"25","district":"Thanjavur","district_code":"620","address1":"Thanjavur","address2":"","latitude":"10.7211","longitude":"79.0136","accuracy":"3"},{"address3":"Tirumalaisamudram","state":"Tamil Nadu","state_code":"25","district":"Thanjavur","district_code":"620","address1":"Thanjavur","address2":"","latitude":"10.7345","longitude":"79.006","accuracy":"4"}],"613402":[{"address3":"Pudukudi","state":"Tamil Nadu","state_code":"25","district":"Thanjavur","district_code":"620","address1":"Thanjavur","address2":"","latitude":"10.6716","longitude":"79.2413","accuracy":"4"},{"address3":"Achampatti","state":"Tamil Nadu","state_code":"25","district":"Thanjavur","district_code":"620","address1":"Thanjavur","address2":"","latitude":"10.6716","longitude":"79.2413","accuracy":"4"},{"address3":"Sengipatti","state":"Tamil Nadu","state_code":"25","district":"Thanjavur","district_code":"620","address1":"Thanjavur","address2":"","latitude":"10.183","longitude":"78.5651","accuracy":"3"},{"address3":"Rayamundanpatti","state":"Tamil Nadu","state_code":"25","district":"Thanjavur","district_code":"620","address1":"Thanjavur","address2":"","latitude":"10.7659","longitude":"78.8966","accuracy":"4"},{"address3":"Vendayampatti","state":"Tamil Nadu","state_code":"25","district":"Thanjavur","district_code":"620","address1":"Thanjavur","address2":"","latitude":"10.7636","longitude":"78.9133","accuracy":"4"},{"address3":"Muthandipatti","state":"Tamil Nadu","state_code":"25","district":"Thanjavur","district_code":"620","address1":"Thanjavur","address2":"","latitude":"10.183","longitude":"78.5651","accuracy":"3"},{"address3":"MGM Sanatorium","state":"Tamil Nadu","state_code":"25","district":"Thanjavur","district_code":"620","address1":"Thanjavur","address2":"","latitude":"10.183","longitude":"78.5651","accuracy":"3"},{"address3":"Manayeripatti","state":"Tamil Nadu","state_code":"25","district":"Thanjavur","district_code":"620","address1":"Thanjavur","address2":"","latitude":"10.183","longitude":"78.5651","accuracy":"3"},{"address3":"Palayapatti South","state":"Tamil Nadu","state_code":"25","district":"Thanjavur","district_code":"620","address1":"Thanjavur","address2":"","latitude":"10.183","longitude":"78.5651","accuracy":"3"}],"613403":[{"address3":"Chennampatti","state":"Tamil Nadu","state_code":"25","district":"Thanjavur","district_code":"620","address1":"Thanjavur","address2":"","latitude":"10.6974","longitude":"79.0422","accuracy":"4"},{"address3":"Pillaiyarpatti","state":"Tamil Nadu","state_code":"25","district":"Thanjavur","district_code":"620","address1":"Thanjavur","address2":"","latitude":"10.7405","longitude":"79.0816","accuracy":"4"},{"address3":"Vallam East","state":"Tamil Nadu","state_code":"25","district":"Thanjavur","district_code":"620","address1":"Thanjavur","address2":"","latitude":"10.719","longitude":"79.0619","accuracy":"3"},{"address3":"Ravusapatti","state":"Tamil Nadu","state_code":"25","district":"Thanjavur","district_code":"620","address1":"Thanjavur","address2":"","latitude":"10.719","longitude":"79.0619","accuracy":"3"},{"address3":"Vallam-TJ","state":"Tamil Nadu","state_code":"25","district":"Thanjavur","district_code":"620","address1":"Thanjavur","address2":"","latitude":"10.719","longitude":"79.0619","accuracy":"3"}],"613501":[{"address3":"Kulichapattu","state":"Tamil Nadu","state_code":"25","district":"Thanjavur","district_code":"620","address1":"Thanjavur","address2":"","latitude":"10.7581","longitude":"79.201","accuracy":"4"},{"address3":"Mariammancoil","state":"Tamil Nadu","state_code":"25","district":"Thanjavur","district_code":"620","address1":"Thanjavur","address2":"","latitude":"10.7581","longitude":"79.201","accuracy":"3"},{"address3":"Melakalakudi","state":"Tamil Nadu","state_code":"25","district":"Thanjavur","district_code":"620","address1":"Thanjavur","address2":"","latitude":"10.7581","longitude":"79.201","accuracy":"3"},{"address3":"Raramuthirakottai","state":"Tamil Nadu","state_code":"25","district":"Thanjavur","district_code":"620","address1":"Papanasam","address2":"","latitude":"10.7581","longitude":"79.201","accuracy":"3"},{"address3":"Pulavarnatham","state":"Tamil Nadu","state_code":"25","district":"Thanjavur","district_code":"620","address1":"Papanasam","address2":"","latitude":"10.7581","longitude":"79.201","accuracy":"3"}],"613502":[{"address3":"Jambugambalpuram","state":"Tamil Nadu","state_code":"25","district":"Thanjavur","district_code":"620","address1":"Papanasam","address2":"","latitude":"10.7423","longitude":"79.2398","accuracy":"4"},{"address3":"Pundi-TJ","state":"Tamil Nadu","state_code":"25","district":"Thanjavur","district_code":"620","address1":"Papanasam","address2":"","latitude":"10.7423","longitude":"79.2398","accuracy":"3"},{"address3":"Nallavanniyankudikadu","state":"Tamil Nadu","state_code":"25","district":"Thanjavur","district_code":"620","address1":"Papanasam","address2":"","latitude":"10.7423","longitude":"79.2398","accuracy":"3"},{"address3":"Kovilur (Pundi-Tj)","state":"Tamil Nadu","state_code":"25","district":"Thanjavur","district_code":"620","address1":"Papanasam","address2":"","latitude":"10.7423","longitude":"79.2398","accuracy":"3"},{"address3":"Kumilakudi","state":"Tamil Nadu","state_code":"25","district":"Thanjavur","district_code":"620","address1":"Papanasam","address2":"","latitude":"10.7423","longitude":"79.2398","accuracy":"3"}],"613503":[{"address3":"Sri Pushpam College","state":"Tamil Nadu","state_code":"25","district":"Thanjavur","district_code":"620","address1":"Papanasam","address2":"","latitude":"10.7817","longitude":"79.2462","accuracy":"1"}],"613504":[{"address3":"Saliamangalam","state":"Tamil Nadu","state_code":"25","district":"Thanjavur","district_code":"620","address1":"Papanasam","address2":"","latitude":"10.8132","longitude":"79.2721","accuracy":"3"},{"address3":"Palliyur","state":"Tamil Nadu","state_code":"25","district":"Thanjavur","district_code":"620","address1":"Papanasam","address2":"","latitude":"10.8135","longitude":"79.2814","accuracy":"4"},{"address3":"Arsuthipattu","state":"Tamil Nadu","state_code":"25","district":"Thanjavur","district_code":"620","address1":"Papanasam","address2":"","latitude":"10.8132","longitude":"79.2721","accuracy":"3"},{"address3":"Kambayarnatham","state":"Tamil Nadu","state_code":"25","district":"Thanjavur","district_code":"620","address1":"Papanasam","address2":"","latitude":"10.8132","longitude":"79.2721","accuracy":"3"},{"address3":"Saliamangalam Bazaar","state":"Tamil Nadu","state_code":"25","district":"Thanjavur","district_code":"620","address1":"Papanasam","address2":"","latitude":"10.8132","longitude":"79.2721","accuracy":"3"},{"address3":"Kalancheri","state":"Tamil Nadu","state_code":"25","district":"Thanjavur","district_code":"620","address1":"Papanasam","address2":"","latitude":"10.8129","longitude":"79.2627","accuracy":"4"},{"address3":"Irumbuthalai","state":"Tamil Nadu","state_code":"25","district":"Thanjavur","district_code":"620","address1":"Papanasam","address2":"","latitude":"10.8132","longitude":"79.2721","accuracy":"3"},{"address3":"Suliyakottai","state":"Tamil Nadu","state_code":"25","district":"Thanjavur","district_code":"620","address1":"Papanasam","address2":"","latitude":"10.8132","longitude":"79.2721","accuracy":"3"}],"613601":[{"address3":"Tennangudi","state":"Tamil Nadu","state_code":"25","district":"Thanjavur","district_code":"620","address1":"Thanjavur","address2":"","latitude":"10.8128","longitude":"79.0623","accuracy":"4"},{"address3":"Vannarapettai","state":"Tamil Nadu","state_code":"25","district":"Thanjavur","district_code":"620","address1":"Thanjavur","address2":"","latitude":"10.6716","longitude":"79.2413","accuracy":"3"},{"address3":"Alakkudi","state":"Tamil Nadu","state_code":"25","district":"Thanjavur","district_code":"620","address1":"Thanjavur","address2":"","latitude":"10.7744","longitude":"79.0522","accuracy":"4"},{"address3":"Kallaperambur","state":"Tamil Nadu","state_code":"25","district":"Thanjavur","district_code":"620","address1":"Thanjavur","address2":"","latitude":"10.7936","longitude":"79.0573","accuracy":"3"},{"address3":"Kalvirayanpettai","state":"Tamil Nadu","state_code":"25","district":"Thanjavur","district_code":"620","address1":"Thanjavur","address2":"","latitude":"10.7936","longitude":"79.0573","accuracy":"3"}],"613602":[{"address3":"Vennamangalam","state":"Tamil Nadu","state_code":"25","district":"Thanjavur","district_code":"620","address1":"Thanjavur","address2":"","latitude":"10.448","longitude":"78.6379","accuracy":"3"},{"address3":"Budalur","state":"Tamil Nadu","state_code":"25","district":"Thanjavur","district_code":"620","address1":"Thanjavur","address2":"","latitude":"10.7954","longitude":"78.9793","accuracy":"4"},{"address3":"Orathur","state":"Tamil Nadu","state_code":"25","district":"Thanjavur","district_code":"620","address1":"Thiruvaiyaru","address2":"","latitude":"10.448","longitude":"78.6379","accuracy":"3"},{"address3":"Aiyanapuram","state":"Tamil Nadu","state_code":"25","district":"Thanjavur","district_code":"620","address1":"Thanjavur","address2":"","latitude":"10.6716","longitude":"79.2413","accuracy":"4"},{"address3":"Chitrakudi","state":"Tamil Nadu","state_code":"25","district":"Thanjavur","district_code":"620","address1":"Thanjavur","address2":"","latitude":"10.448","longitude":"78.6379","accuracy":"3"},{"address3":"Kalumangalam","state":"Tamil Nadu","state_code":"25","district":"Thanjavur","district_code":"620","address1":"Thiruvaiyaru","address2":"","latitude":"10.8199","longitude":"79.0069","accuracy":"4"},{"address3":"Royandur","state":"Tamil Nadu","state_code":"25","district":"Thanjavur","district_code":"620","address1":"Thanjavur","address2":"","latitude":"10.448","longitude":"78.6379","accuracy":"3"},{"address3":"Avarampatti","state":"Tamil Nadu","state_code":"25","district":"Thanjavur","district_code":"620","address1":"Thanjavur","address2":"","latitude":"10.7584","longitude":"78.9619","accuracy":"4"},{"address3":"Kangeyampatti","state":"Tamil Nadu","state_code":"25","district":"Thanjavur","district_code":"620","address1":"Thanjavur","address2":"","latitude":"10.448","longitude":"78.6379","accuracy":"3"},{"address3":"Marudakudi","state":"Tamil Nadu","state_code":"25","district":"Thanjavur","district_code":"620","address1":"Thanjavur","address2":"","latitude":"10.448","longitude":"78.6379","accuracy":"3"}],"613701":[{"address3":"Ammayappan","state":"Tamil Nadu","state_code":"25","district":"Tiruvarur","district_code":"619","address1":"Kodavasal","address2":"","latitude":"10.987","longitude":"79.7217","accuracy":"3"},{"address3":"Mukundanur","state":"Tamil Nadu","state_code":"25","district":"Tiruvarur","district_code":"619","address1":"Kodavasal","address2":"","latitude":"10.987","longitude":"79.7217","accuracy":"4"},{"address3":"Thazhakudi","state":"Tamil Nadu","state_code":"25","district":"Tiruvarur","district_code":"619","address1":"Kodavasal","address2":"","latitude":"10.987","longitude":"79.7217","accuracy":"3"},{"address3":"Athisolamangalam","state":"Tamil Nadu","state_code":"25","district":"Tiruvarur","district_code":"619","address1":"Kodavasal","address2":"","latitude":"10.987","longitude":"79.7217","accuracy":"3"},{"address3":"Solachery","state":"Tamil Nadu","state_code":"25","district":"Tiruvarur","district_code":"619","address1":"Kodavasal","address2":"","latitude":"10.987","longitude":"79.7217","accuracy":"3"}],"613702":[{"address3":"Tiruvidavasal","state":"Tamil Nadu","state_code":"25","district":"Nagapattinam","district_code":"618","address1":"Tiruvarur","address2":"","latitude":"10.8656","longitude":"79.4781","accuracy":"3"},{"address3":"Attikkadai","state":"Tamil Nadu","state_code":"25","district":"Tiruvarur","district_code":"619","address1":"Needamangalam","address2":"","latitude":"10.8656","longitude":"79.4781","accuracy":"4"}],"613703":[{"address3":"Koradacheri","state":"Tamil Nadu","state_code":"25","district":"Tiruvarur","district_code":"619","address1":"Tiruvarur","address2":"","latitude":"10.7702","longitude":"79.4916","accuracy":"4"},{"address3":"Oorgudi","state":"Tamil Nadu","state_code":"25","district":"Tiruvarur","district_code":"619","address1":"Koradacherry","address2":"","latitude":"11.7874","longitude":"78.8149","accuracy":"3"},{"address3":"Hanumanthapuram","state":"Tamil Nadu","state_code":"25","district":"Tiruvarur","district_code":"619","address1":"Koradacherry","address2":"","latitude":"10.6797","longitude":"79.536","accuracy":"4"},{"address3":"Kalathur","state":"Tamil Nadu","state_code":"25","district":"Tiruvarur","district_code":"619","address1":"Koradacherry","address2":"","latitude":"10.6797","longitude":"79.536","accuracy":"4"},{"address3":"Vennavasal","state":"Tamil Nadu","state_code":"25","district":"Tiruvarur","district_code":"619","address1":"Koradacherry","address2":"","latitude":"11.7874","longitude":"78.8149","accuracy":"3"},{"address3":"Perumalagaram","state":"Tamil Nadu","state_code":"25","district":"Tiruvarur","district_code":"619","address1":"Koradacherry","address2":"","latitude":"11.7874","longitude":"78.8149","accuracy":"3"},{"address3":"Kilariam","state":"Tamil Nadu","state_code":"25","district":"Tiruvarur","district_code":"619","address1":"Needamangalam","address2":"","latitude":"11.7874","longitude":"78.8149","accuracy":"3"},{"address3":"Pathur","state":"Tamil Nadu","state_code":"25","district":"Tiruvarur","district_code":"619","address1":"Koradacherry","address2":"","latitude":"11.7874","longitude":"78.8149","accuracy":"3"}],"613704":[{"address3":"Kulikarai","state":"Tamil Nadu","state_code":"25","district":"Tiruvarur","district_code":"619","address1":"Kodavasal","address2":"","latitude":"10.7335","longitude":"79.6007","accuracy":"3"},{"address3":"Kalyanamahadevi","state":"Tamil Nadu","state_code":"25","district":"Tiruvarur","district_code":"619","address1":"Tiruvarur","address2":"","latitude":"10.7335","longitude":"79.6007","accuracy":"4"}],"613705":[{"address3":"Sellur (Tiruvarur)","state":"Tamil Nadu","state_code":"25","district":"Tiruvarur","district_code":"619","address1":"Tiruvarur","address2":"","latitude":"10.81","longitude":"79.4684","accuracy":"4"},{"address3":"Ilaiyur","state":"Tamil Nadu","state_code":"25","district":"Tiruvarur","district_code":"619","address1":"Koradacherry","address2":"","latitude":"10.8341","longitude":"79.4678","accuracy":"4"},{"address3":"Abivirthiswaram","state":"Tamil Nadu","state_code":"25","district":"Tiruvarur","district_code":"619","address1":"Koradacherry","address2":"","latitude":"10.8221","longitude":"79.4681","accuracy":"3"},{"address3":"Barakadabad","state":"Tamil Nadu","state_code":"25","district":"Tiruvarur","district_code":"619","address1":"Kodavasal","address2":"","latitude":"10.8221","longitude":"79.4681","accuracy":"3"}],"credits":[{"name":"geonames","url":"https://www.geonames.org"}],"last_update":"2019-03-01T09:01:35.614Z"}