{"625001":[{"address3":"Madurai Bazaar","state":"Tamil Nadu","state_code":"25","district":"Madurai","district_code":"623","address1":"NA","address2":"","latitude":"10.0042","longitude":"78.1748","accuracy":"1"},{"address3":"Yanaikkal","state":"Tamil Nadu","state_code":"25","district":"Madurai","district_code":"623","address1":"Vadipatti","address2":"","latitude":"10.0042","longitude":"78.1748","accuracy":"1"},{"address3":"Madurai H.O","state":"Tamil Nadu","state_code":"25","district":"Madurai","district_code":"623","address1":"Madurai South","address2":"","latitude":"10.0042","longitude":"78.1748","accuracy":"1"},{"address3":"Keerathurai","state":"Tamil Nadu","state_code":"25","district":"Madurai","district_code":"623","address1":"Madurai South","address2":"","latitude":"10.0042","longitude":"78.1748","accuracy":"1"},{"address3":"Ma West Masi Street","state":"Tamil Nadu","state_code":"25","district":"Madurai","district_code":"623","address1":"NA","address2":"","latitude":"10.0042","longitude":"78.1748","accuracy":"1"},{"address3":"South Gate","state":"Tamil Nadu","state_code":"25","district":"Madurai","district_code":"623","address1":"Madurai South","address2":"","latitude":"10.0042","longitude":"78.1748","accuracy":"1"},{"address3":"Madurai West","state":"Tamil Nadu","state_code":"25","district":"Madurai","district_code":"623","address1":"Madurai South","address2":"","latitude":"10.0042","longitude":"78.1748","accuracy":"1"},{"address3":"Vilakkuthoon","state":"Tamil Nadu","state_code":"25","district":"Madurai","district_code":"623","address1":"Madurai South","address2":"","latitude":"10.0042","longitude":"78.1748","accuracy":"1"},{"address3":"Ma Periyar Bus Stand","state":"Tamil Nadu","state_code":"25","district":"Madurai","district_code":"623","address1":"Madurai South","address2":"","latitude":"10.0042","longitude":"78.1748","accuracy":"1"},{"address3":"Town Hall Road","state":"Tamil Nadu","state_code":"25","district":"Madurai","district_code":"623","address1":"Madurai South","address2":"","latitude":"10.0042","longitude":"78.1748","accuracy":"1"},{"address3":"Simmakkal","state":"Tamil Nadu","state_code":"25","district":"Madurai","district_code":"623","address1":"Madurai South","address2":"","latitude":"10.0042","longitude":"78.1748","accuracy":"1"},{"address3":"Petchiamman Paditurai","state":"Tamil Nadu","state_code":"25","district":"Madurai","district_code":"623","address1":"Madurai South","address2":"","latitude":"10.0042","longitude":"78.1748","accuracy":"1"},{"address3":"Madurai Palace","state":"Tamil Nadu","state_code":"25","district":"Madurai","district_code":"623","address1":"Madurai South","address2":"","latitude":"10.0042","longitude":"78.1748","accuracy":"1"}],"625002":[{"address3":"Sellur (Madurai)","state":"Tamil Nadu","state_code":"25","district":"Madurai","district_code":"623","address1":"Madurai North","address2":"","latitude":"9.9321","longitude":"78.1228","accuracy":"4"},{"address3":"Tallakulam H.O","state":"Tamil Nadu","state_code":"25","district":"Madurai","district_code":"623","address1":"Madurai North","address2":"","latitude":"10.4247","longitude":"78.4423","accuracy":"3"},{"address3":"Narimedu","state":"Tamil Nadu","state_code":"25","district":"Madurai","district_code":"623","address1":"Madurai North","address2":"","latitude":"9.921","longitude":"78.0063","accuracy":"4"},{"address3":"Meenambalpuram","state":"Tamil Nadu","state_code":"25","district":"Madurai","district_code":"623","address1":"Madurai North","address2":"","latitude":"10.4247","longitude":"78.4423","accuracy":"3"},{"address3":"Madurai Bibikulam","state":"Tamil Nadu","state_code":"25","district":"Madurai","district_code":"623","address1":"NA","address2":"","latitude":"10.4247","longitude":"78.4423","accuracy":"3"},{"address3":"Madurai Corporation Building","state":"Tamil Nadu","state_code":"25","district":"Madurai","district_code":"623","address1":"Madurai North","address2":"","latitude":"10.4247","longitude":"78.4423","accuracy":"3"},{"address3":"Ma Race Course","state":"Tamil Nadu","state_code":"25","district":"Madurai","district_code":"623","address1":"Madurai North","address2":"","latitude":"10.4247","longitude":"78.4423","accuracy":"3"},{"address3":"Sokkikulam","state":"Tamil Nadu","state_code":"25","district":"Madurai","district_code":"623","address1":"Madurai North","address2":"","latitude":"10.4247","longitude":"78.4423","accuracy":"3"}],"625003":[{"address3":"Madakkulam","state":"Tamil Nadu","state_code":"25","district":"Madurai","district_code":"623","address1":"Madurai South","address2":"","latitude":"9.9181","longitude":"78.0807","accuracy":"4"},{"address3":"Palanganatham","state":"Tamil Nadu","state_code":"25","district":"Madurai","district_code":"623","address1":"Madurai South","address2":"","latitude":"9.9181","longitude":"78.0807","accuracy":"3"},{"address3":"Tvs Nagar","state":"Tamil Nadu","state_code":"25","district":"Madurai","district_code":"623","address1":"Madurai South","address2":"","latitude":"9.9181","longitude":"78.0807","accuracy":"3"},{"address3":"Alagappa Nagar","state":"Tamil Nadu","state_code":"25","district":"Madurai","district_code":"623","address1":"Madurai South","address2":"","latitude":"9.9181","longitude":"78.0807","accuracy":"3"}],"625004":[{"address3":"Pasumalai","state":"Tamil Nadu","state_code":"25","district":"Madurai","district_code":"623","address1":"Madurai South","address2":"","latitude":"9.8961","longitude":"78.0813","accuracy":"4"}],"625005":[{"address3":"Harveypatti","state":"Tamil Nadu","state_code":"25","district":"Madurai","district_code":"623","address1":"Madurai South","address2":"","latitude":"9.8572","longitude":"78.0598","accuracy":"3"},{"address3":"Nilaiyur","state":"Tamil Nadu","state_code":"25","district":"Madurai","district_code":"623","address1":"Madurai South","address2":"","latitude":"9.8572","longitude":"78.0598","accuracy":"4"},{"address3":"Thiruparankundram","state":"Tamil Nadu","state_code":"25","district":"Madurai","district_code":"623","address1":"Madurai South","address2":"","latitude":"9.8572","longitude":"78.0598","accuracy":"3"}],"625006":[{"address3":"Tirunagar","state":"Tamil Nadu","state_code":"25","district":"Madurai","district_code":"623","address1":"Madurai South","address2":"","latitude":"10.0042","longitude":"78.1748","accuracy":"1"},{"address3":"Thanakkankulam","state":"Tamil Nadu","state_code":"25","district":"Madurai","district_code":"623","address1":"Madurai South","address2":"","latitude":"10.0042","longitude":"78.1748","accuracy":"1"},{"address3":"Pandian Nagar","state":"Tamil Nadu","state_code":"25","district":"Madurai","district_code":"623","address1":"Madurai South","address2":"","latitude":"10.0042","longitude":"78.1748","accuracy":"1"},{"address3":"Vilacheri","state":"Tamil Nadu","state_code":"25","district":"Madurai","district_code":"623","address1":"Madurai South","address2":"","latitude":"10.0042","longitude":"78.1748","accuracy":"1"}],"625007":[{"address3":"K.Pudur","state":"Tamil Nadu","state_code":"25","district":"Madurai","district_code":"623","address1":"NA","address2":"","latitude":"10.0042","longitude":"78.1748","accuracy":"1"},{"address3":"Pudur Bazaar","state":"Tamil Nadu","state_code":"25","district":"Madurai","district_code":"623","address1":"Madurai North","address2":"","latitude":"10.0042","longitude":"78.1748","accuracy":"1"},{"address3":"Surveyor Colony","state":"Tamil Nadu","state_code":"25","district":"Madurai","district_code":"623","address1":"Madurai North","address2":"","latitude":"10.0042","longitude":"78.1748","accuracy":"1"},{"address3":"Denobli Press","state":"Tamil Nadu","state_code":"25","district":"Madurai","district_code":"623","address1":"NA","address2":"","latitude":"10.0042","longitude":"78.1748","accuracy":"1"}],"625008":[{"address3":"Kappalur","state":"Tamil Nadu","state_code":"25","district":"Madurai","district_code":"623","address1":"Tirumangalam","address2":"","latitude":"9.8444","longitude":"78.0164","accuracy":"4"},{"address3":"Kappalur Indl.Estate","state":"Tamil Nadu","state_code":"25","district":"Madurai","district_code":"623","address1":"Madurai South","address2":"","latitude":"9.8444","longitude":"78.0164","accuracy":"3"},{"address3":"Austinpatti","state":"Tamil Nadu","state_code":"25","district":"Madurai","district_code":"623","address1":"Madurai South","address2":"","latitude":"9.8444","longitude":"78.0164","accuracy":"3"},{"address3":"Koothiyargundu","state":"Tamil Nadu","state_code":"25","district":"Madurai","district_code":"623","address1":"Madurai South","address2":"","latitude":"9.8444","longitude":"78.0164","accuracy":"3"},{"address3":"Sivanandanagar","state":"Tamil Nadu","state_code":"25","district":"Madurai","district_code":"623","address1":"Madurai South","address2":"","latitude":"9.8444","longitude":"78.0164","accuracy":"3"},{"address3":"Thoppur","state":"Tamil Nadu","state_code":"25","district":"Madurai","district_code":"623","address1":"Madurai South","address2":"","latitude":"9.8444","longitude":"78.0164","accuracy":"3"}],"625009":[{"address3":"Anuppanady","state":"Tamil Nadu","state_code":"25","district":"Madurai","district_code":"623","address1":"NA","address2":"","latitude":"9.8908","longitude":"78.1503","accuracy":"3"},{"address3":"Chintamani","state":"Tamil Nadu","state_code":"25","district":"Madurai","district_code":"623","address1":"Madurai North","address2":"","latitude":"9.8927","longitude":"78.1392","accuracy":"4"},{"address3":"Viradhanur","state":"Tamil Nadu","state_code":"25","district":"Madurai","district_code":"623","address1":"Madurai South","address2":"","latitude":"9.8908","longitude":"78.1503","accuracy":"3"},{"address3":"Viraganur","state":"Tamil Nadu","state_code":"25","district":"Madurai","district_code":"623","address1":"Madurai South","address2":"","latitude":"9.9036","longitude":"78.1552","accuracy":"4"},{"address3":"Samanatham","state":"Tamil Nadu","state_code":"25","district":"Madurai","district_code":"623","address1":"Madurai South","address2":"","latitude":"9.8908","longitude":"78.1503","accuracy":"3"},{"address3":"Panaiyur","state":"Tamil Nadu","state_code":"25","district":"Madurai","district_code":"623","address1":"Madurai South","address2":"","latitude":"9.8762","longitude":"78.1564","accuracy":"4"},{"address3":"Ma Munichalai Road","state":"Tamil Nadu","state_code":"25","district":"Madurai","district_code":"623","address1":"Madurai North","address2":"","latitude":"9.8908","longitude":"78.1503","accuracy":"3"},{"address3":"Anuppanadi Housing Board Colon","state":"Tamil Nadu","state_code":"25","district":"Madurai","district_code":"623","address1":"Madurai North","address2":"","latitude":"9.8908","longitude":"78.1503","accuracy":"3"},{"address3":"Thiagarajar College","state":"Tamil Nadu","state_code":"25","district":"Madurai","district_code":"623","address1":"Madurai North","address2":"","latitude":"9.8908","longitude":"78.1503","accuracy":"3"}],"625011":[{"address3":"Jaihindpuram","state":"Tamil Nadu","state_code":"25","district":"Madurai","district_code":"623","address1":"Madurai South","address2":"","latitude":"9.9485","longitude":"78.1616","accuracy":"1"},{"address3":"Subramaniapuram (Madurai)","state":"Tamil Nadu","state_code":"25","district":"Madurai","district_code":"623","address1":"Madurai South","address2":"","latitude":"9.9485","longitude":"78.1616","accuracy":"1"}],"625012":[{"address3":"Villapuram","state":"Tamil Nadu","state_code":"25","district":"Madurai","district_code":"623","address1":"Madurai South","address2":"","latitude":"9.9","longitude":"78.1222","accuracy":"4"},{"address3":"Avanivapuram","state":"Tamil Nadu","state_code":"25","district":"Madurai","district_code":"623","address1":"Madurai South","address2":"","latitude":"9.9","longitude":"78.1222","accuracy":"3"}],"625014":[{"address3":"Madurai North","state":"Tamil Nadu","state_code":"25","district":"Madurai","district_code":"623","address1":"Madurai North","address2":"","latitude":"9.9996","longitude":"78.1377","accuracy":"3"},{"address3":"Tiruppalai","state":"Tamil Nadu","state_code":"25","district":"Madurai","district_code":"623","address1":"Madurai North","address2":"","latitude":"9.9779","longitude":"78.1329","accuracy":"4"},{"address3":"Ma Reserve Lines","state":"Tamil Nadu","state_code":"25","district":"Madurai","district_code":"623","address1":"Madurai North","address2":"","latitude":"9.9996","longitude":"78.1377","accuracy":"3"},{"address3":"Krishnapuram Colony","state":"Tamil Nadu","state_code":"25","district":"Madurai","district_code":"623","address1":"Madurai North","address2":"","latitude":"9.9996","longitude":"78.1377","accuracy":"3"},{"address3":"Karuvanur","state":"Tamil Nadu","state_code":"25","district":"Madurai","district_code":"623","address1":"Madurai North","address2":"","latitude":"10.0213","longitude":"78.1424","accuracy":"4"},{"address3":"Tirumalpuram","state":"Tamil Nadu","state_code":"25","district":"Madurai","district_code":"623","address1":"Madurai North","address2":"","latitude":"9.9996","longitude":"78.1377","accuracy":"3"},{"address3":"Velichanatham","state":"Tamil Nadu","state_code":"25","district":"Madurai","district_code":"623","address1":"Madurai North","address2":"","latitude":"9.9996","longitude":"78.1377","accuracy":"3"},{"address3":"Chatrapatti","state":"Tamil Nadu","state_code":"25","district":"Madurai","district_code":"623","address1":"Madurai North","address2":"","latitude":"9.9996","longitude":"78.1377","accuracy":"3"},{"address3":"Kancharampettai","state":"Tamil Nadu","state_code":"25","district":"Madurai","district_code":"623","address1":"Madurai North","address2":"","latitude":"9.9996","longitude":"78.1377","accuracy":"3"}],"625015":[{"address3":"Thiagarajar Engg College","state":"Tamil Nadu","state_code":"25","district":"Madurai","district_code":"623","address1":"Madurai South","address2":"","latitude":"9.9485","longitude":"78.1616","accuracy":"1"}],"625016":[{"address3":"Ellis Nagar","state":"Tamil Nadu","state_code":"25","district":"Madurai","district_code":"623","address1":"NA","address2":"","latitude":"9.9234","longitude":"78.0898","accuracy":"3"},{"address3":"Ponmeni","state":"Tamil Nadu","state_code":"25","district":"Madurai","district_code":"623","address1":"Madurai North","address2":"","latitude":"9.9234","longitude":"78.0898","accuracy":"4"},{"address3":"Virattipathu","state":"Tamil Nadu","state_code":"25","district":"Madurai","district_code":"623","address1":"Madurai North","address2":"","latitude":"9.9234","longitude":"78.0898","accuracy":"3"},{"address3":"Gnanaolivupuram","state":"Tamil Nadu","state_code":"25","district":"Madurai","district_code":"623","address1":"Madurai North","address2":"","latitude":"9.9234","longitude":"78.0898","accuracy":"3"},{"address3":"Kochadai","state":"Tamil Nadu","state_code":"25","district":"Madurai","district_code":"623","address1":"Madurai South","address2":"","latitude":"9.9234","longitude":"78.0898","accuracy":"3"},{"address3":"Ss Colony","state":"Tamil Nadu","state_code":"25","district":"Madurai","district_code":"623","address1":"Madurai North","address2":"","latitude":"9.9234","longitude":"78.0898","accuracy":"3"},{"address3":"Arasaradi H.O","state":"Tamil Nadu","state_code":"25","district":"Madurai","district_code":"623","address1":"Madurai South","address2":"","latitude":"9.9234","longitude":"78.0898","accuracy":"3"},{"address3":"Madurai Railway Divl Office","state":"Tamil Nadu","state_code":"25","district":"Madurai","district_code":"623","address1":"NA","address2":"","latitude":"9.9234","longitude":"78.0898","accuracy":"3"},{"address3":"Mudakkuchalai","state":"Tamil Nadu","state_code":"25","district":"Madurai","district_code":"623","address1":"Madurai North","address2":"","latitude":"9.9234","longitude":"78.0898","accuracy":"3"}],"625017":[{"address3":"Kulamangalam","state":"Tamil Nadu","state_code":"25","district":"Madurai","district_code":"623","address1":"Madurai North","address2":"","latitude":"10.0122","longitude":"78.1128","accuracy":"4"},{"address3":"Vagaikulam","state":"Tamil Nadu","state_code":"25","district":"Madurai","district_code":"623","address1":"Madurai North","address2":"","latitude":"9.921","longitude":"78.0063","accuracy":"4"},{"address3":"Anaiyur","state":"Tamil Nadu","state_code":"25","district":"Madurai","district_code":"623","address1":"Madurai North","address2":"","latitude":"9.9615","longitude":"78.1118","accuracy":"4"},{"address3":"Anaiyur H.B. Colony","state":"Tamil Nadu","state_code":"25","district":"Madurai","district_code":"623","address1":"Madurai North","address2":"","latitude":"9.9302","longitude":"78.2959","accuracy":"3"},{"address3":"Buthagudi","state":"Tamil Nadu","state_code":"25","district":"Madurai","district_code":"623","address1":"Madurai North","address2":"","latitude":"9.9302","longitude":"78.2959","accuracy":"3"}],"625018":[{"address3":"Shanthi Nagar","state":"Tamil Nadu","state_code":"25","district":"Madurai","district_code":"623","address1":"Madurai North","address2":"","latitude":"9.9772","longitude":"78.0934","accuracy":"3"},{"address3":"Vilangudi","state":"Tamil Nadu","state_code":"25","district":"Madurai","district_code":"623","address1":"Madurai North","address2":"","latitude":"9.9458","longitude":"78.0935","accuracy":"4"},{"address3":"Thathaneri","state":"Tamil Nadu","state_code":"25","district":"Madurai","district_code":"623","address1":"Madurai North","address2":"","latitude":"9.9772","longitude":"78.0934","accuracy":"3"},{"address3":"Visalakshi Nagar","state":"Tamil Nadu","state_code":"25","district":"Madurai","district_code":"623","address1":"Madurai North","address2":"","latitude":"9.9772","longitude":"78.0934","accuracy":"3"},{"address3":"Kumaram","state":"Tamil Nadu","state_code":"25","district":"Madurai","district_code":"623","address1":"Madurai North","address2":"","latitude":"10.0086","longitude":"78.0933","accuracy":"4"},{"address3":"Podumbu","state":"Tamil Nadu","state_code":"25","district":"Madurai","district_code":"623","address1":"Madurai North","address2":"","latitude":"9.9772","longitude":"78.0934","accuracy":"3"}],"625019":[{"address3":"Vadivelkarai","state":"Tamil Nadu","state_code":"25","district":"Madurai","district_code":"623","address1":"Madurai North","address2":"","latitude":"9.9174","longitude":"78.0546","accuracy":"4"},{"address3":"Kilakuyilkudi","state":"Tamil Nadu","state_code":"25","district":"Madurai","district_code":"623","address1":"Madurai South","address2":"","latitude":"9.9174","longitude":"78.0546","accuracy":"3"},{"address3":"Nagamalai","state":"Tamil Nadu","state_code":"25","district":"Madurai","district_code":"623","address1":"Madurai South","address2":"","latitude":"9.921","longitude":"78.0063","accuracy":"3"},{"address3":"Erkudi Achampathu","state":"Tamil Nadu","state_code":"25","district":"Madurai","district_code":"623","address1":"Madurai South","address2":"","latitude":"9.9174","longitude":"78.0546","accuracy":"3"},{"address3":"Pulluthu","state":"Tamil Nadu","state_code":"25","district":"Madurai","district_code":"623","address1":"Madurai North","address2":"","latitude":"9.9174","longitude":"78.0546","accuracy":"3"},{"address3":"Thuvariman","state":"Tamil Nadu","state_code":"25","district":"Madurai","district_code":"623","address1":"Madurai South","address2":"","latitude":"9.9174","longitude":"78.0546","accuracy":"3"}],"625020":[{"address3":"Tallakulam Housing Board Colon","state":"Tamil Nadu","state_code":"25","district":"Madurai","district_code":"623","address1":"NA","address2":"","latitude":"9.8905","longitude":"78.202","accuracy":"3"},{"address3":"Vandiyur","state":"Tamil Nadu","state_code":"25","district":"Madurai","district_code":"623","address1":"Madurai North","address2":"","latitude":"9.9092","longitude":"78.1609","accuracy":"4"},{"address3":"Karuppayurani","state":"Tamil Nadu","state_code":"25","district":"Madurai","district_code":"623","address1":"Madurai North","address2":"","latitude":"9.8905","longitude":"78.202","accuracy":"3"},{"address3":"Ma Rajaji Hospital","state":"Tamil Nadu","state_code":"25","district":"Madurai","district_code":"623","address1":"NA","address2":"","latitude":"9.8905","longitude":"78.202","accuracy":"3"},{"address3":"Sakkudi","state":"Tamil Nadu","state_code":"25","district":"Madurai","district_code":"623","address1":"Madurai North","address2":"","latitude":"9.8651","longitude":"78.2245","accuracy":"4"},{"address3":"Varichiyur","state":"Tamil Nadu","state_code":"25","district":"Madurai","district_code":"623","address1":"Madurai North","address2":"","latitude":"9.8905","longitude":"78.202","accuracy":"3"},{"address3":"Anna Nagar (Madurai)","state":"Tamil Nadu","state_code":"25","district":"Madurai","district_code":"623","address1":"Madurai North","address2":"","latitude":"9.8905","longitude":"78.202","accuracy":"3"},{"address3":"Kalimangalam","state":"Tamil Nadu","state_code":"25","district":"Madurai","district_code":"623","address1":"Madurai North","address2":"","latitude":"9.8808","longitude":"78.2416","accuracy":"4"},{"address3":"Gandhi Nagar (MA)","state":"Tamil Nadu","state_code":"25","district":"Madurai","district_code":"623","address1":"Madurai North","address2":"","latitude":"9.8905","longitude":"78.202","accuracy":"3"},{"address3":"Andarkottaram","state":"Tamil Nadu","state_code":"25","district":"Madurai","district_code":"623","address1":"Madurai North","address2":"","latitude":"9.907","longitude":"78.1812","accuracy":"4"},{"address3":"Madurai Courts","state":"Tamil Nadu","state_code":"25","district":"Madurai","district_code":"623","address1":"NA","address2":"","latitude":"9.8905","longitude":"78.202","accuracy":"3"}],"625021":[{"address3":"Vadapalanji","state":"Tamil Nadu","state_code":"25","district":"Madurai","district_code":"623","address1":"Madurai South","address2":"","latitude":"9.9266","longitude":"78.0096","accuracy":"4"},{"address3":"Palkalai Nagar","state":"Tamil Nadu","state_code":"25","district":"Madurai","district_code":"623","address1":"Madurai South","address2":"","latitude":"9.9266","longitude":"78.0096","accuracy":"3"},{"address3":"Thenpalanji","state":"Tamil Nadu","state_code":"25","district":"Madurai","district_code":"623","address1":"Madurai South","address2":"","latitude":"9.9266","longitude":"78.0096","accuracy":"3"}],"625022":[{"address3":"S.N.College","state":"Tamil Nadu","state_code":"25","district":"Madurai","district_code":"623","address1":"Madurai South","address2":"","latitude":"9.8467","longitude":"78.1305","accuracy":"3"},{"address3":"Valayapatti","state":"Tamil Nadu","state_code":"25","district":"Madurai","district_code":"623","address1":"Madurai South","address2":"","latitude":"10.0239","longitude":"78.2458","accuracy":"4"},{"address3":"Postal Training Centre","state":"Tamil Nadu","state_code":"25","district":"Madurai","district_code":"623","address1":"Madurai South","address2":"","latitude":"9.8467","longitude":"78.1305","accuracy":"3"},{"address3":"Melauppiligundu","state":"Tamil Nadu","state_code":"25","district":"Madurai","district_code":"623","address1":"Madurai South","address2":"","latitude":"9.8467","longitude":"78.1305","accuracy":"3"},{"address3":"Nallur","state":"Tamil Nadu","state_code":"25","district":"Madurai","district_code":"623","address1":"Madurai South","address2":"","latitude":"9.7881","longitude":"78.1355","accuracy":"4"},{"address3":"Solanguruni","state":"Tamil Nadu","state_code":"25","district":"Madurai","district_code":"623","address1":"Madurai South","address2":"","latitude":"9.8467","longitude":"78.1305","accuracy":"3"},{"address3":"Perungudi","state":"Tamil Nadu","state_code":"25","district":"Madurai","district_code":"623","address1":"Madurai South","address2":"","latitude":"9.8556","longitude":"78.0908","accuracy":"4"},{"address3":"T.Kokkulam","state":"Tamil Nadu","state_code":"25","district":"Madurai","district_code":"623","address1":"Madurai North","address2":"","latitude":"9.8467","longitude":"78.1305","accuracy":"3"},{"address3":"Valayankulam","state":"Tamil Nadu","state_code":"25","district":"Madurai","district_code":"623","address1":"Madurai South","address2":"","latitude":"9.8467","longitude":"78.1305","accuracy":"3"},{"address3":"Kusavangundu","state":"Tamil Nadu","state_code":"25","district":"Madurai","district_code":"623","address1":"Madurai South","address2":"","latitude":"9.8467","longitude":"78.1305","accuracy":"3"},{"address3":"Tirumal","state":"Tamil Nadu","state_code":"25","district":"Madurai","district_code":"623","address1":"Madurai South","address2":"","latitude":"9.7192","longitude":"78.0498","accuracy":"4"},{"address3":"Kudakoil","state":"Tamil Nadu","state_code":"25","district":"Madurai","district_code":"623","address1":"Madurai South","address2":"","latitude":"9.8467","longitude":"78.1305","accuracy":"3"}],"625023":[{"address3":"Madras High Court Madurai Bench","state":"Tamil Nadu","state_code":"25","district":"Madurai","district_code":"623","address1":"Madurai North","address2":"","latitude":"9.8751","longitude":"78.1488","accuracy":"1"}],"625101":[{"address3":"Vanjinagaram","state":"Tamil Nadu","state_code":"25","district":"Madurai","district_code":"623","address1":"Melur","address2":"","latitude":"10.1364","longitude":"78.3541","accuracy":"4"},{"address3":"Nattarmangalam","state":"Tamil Nadu","state_code":"25","district":"Madurai","district_code":"623","address1":"Melur","address2":"","latitude":"9.921","longitude":"78.0063","accuracy":"4"},{"address3":"Karungalakudi","state":"Tamil Nadu","state_code":"25","district":"Madurai","district_code":"623","address1":"Melur","address2":"","latitude":"10.1609","longitude":"78.3696","accuracy":"3"},{"address3":"Kunnarampatti","state":"Tamil Nadu","state_code":"25","district":"Madurai","district_code":"623","address1":"Melur","address2":"","latitude":"10.2013","longitude":"78.3205","accuracy":"4"},{"address3":"Kachirayanpatti","state":"Tamil Nadu","state_code":"25","district":"Madurai","district_code":"623","address1":"Melur","address2":"","latitude":"10.1609","longitude":"78.3696","accuracy":"3"},{"address3":"Sekkipatti","state":"Tamil Nadu","state_code":"25","district":"Madurai","district_code":"623","address1":"Melur","address2":"","latitude":"10.1873","longitude":"78.3005","accuracy":"4"},{"address3":"Mangalampatti","state":"Tamil Nadu","state_code":"25","district":"Madurai","district_code":"623","address1":"Madurai North","address2":"","latitude":"10.1609","longitude":"78.3696","accuracy":"3"},{"address3":"Kambur","state":"Tamil Nadu","state_code":"25","district":"Madurai","district_code":"623","address1":"Melur","address2":"","latitude":"10.1599","longitude":"78.3264","accuracy":"4"},{"address3":"Othakoilpatti","state":"Tamil Nadu","state_code":"25","district":"Madurai","district_code":"623","address1":"Madurai North","address2":"","latitude":"10.1609","longitude":"78.3696","accuracy":"3"}],"625102":[{"address3":"Kilavalavu","state":"Tamil Nadu","state_code":"25","district":"Madurai","district_code":"623","address1":"Melur","address2":"","latitude":"10.0826","longitude":"78.4413","accuracy":"3"},{"address3":"Kongampatti","state":"Tamil Nadu","state_code":"25","district":"Madurai","district_code":"623","address1":"Melur","address2":"","latitude":"10.0953","longitude":"78.4384","accuracy":"4"},{"address3":"Malampatti","state":"Tamil Nadu","state_code":"25","district":"Madurai","district_code":"623","address1":"Melur","address2":"","latitude":"10.07","longitude":"78.4443","accuracy":"4"},{"address3":"Muthusamypatti","state":"Tamil Nadu","state_code":"25","district":"Madurai","district_code":"623","address1":"Madurai North","address2":"","latitude":"10.0826","longitude":"78.4413","accuracy":"3"},{"address3":"Jayankondanilai","state":"Tamil Nadu","state_code":"25","district":"Madurai","district_code":"623","address1":"Melur","address2":"","latitude":"10.0826","longitude":"78.4413","accuracy":"3"}],"625103":[{"address3":"Pandangudi","state":"Tamil Nadu","state_code":"25","district":"Madurai","district_code":"623","address1":"Melur","address2":"","latitude":"10.2034","longitude":"78.379","accuracy":"4"},{"address3":"Pallapatti","state":"Tamil Nadu","state_code":"25","district":"Madurai","district_code":"623","address1":"Melur","address2":"","latitude":"9.921","longitude":"78.0063","accuracy":"4"},{"address3":"Ayyapatti","state":"Tamil Nadu","state_code":"25","district":"Madurai","district_code":"623","address1":"Melur","address2":"","latitude":"10.1899","longitude":"78.3571","accuracy":"4"},{"address3":"Pottapatti","state":"Tamil Nadu","state_code":"25","district":"Madurai","district_code":"623","address1":"Melur","address2":"","latitude":"9.9063","longitude":"78.2182","accuracy":"3"},{"address3":"Kottampatti","state":"Tamil Nadu","state_code":"25","district":"Madurai","district_code":"623","address1":"Melur","address2":"","latitude":"10.2203","longitude":"78.3766","accuracy":"4"},{"address3":"Chockalingapuram","state":"Tamil Nadu","state_code":"25","district":"Madurai","district_code":"623","address1":"Melur","address2":"","latitude":"9.921","longitude":"78.0063","accuracy":"4"},{"address3":"Manappachery","state":"Tamil Nadu","state_code":"25","district":"Madurai","district_code":"623","address1":"Melur","address2":"","latitude":"9.9063","longitude":"78.2182","accuracy":"3"},{"address3":"Sokkampatti","state":"Tamil Nadu","state_code":"25","district":"Madurai","district_code":"623","address1":"Melur","address2":"","latitude":"9.921","longitude":"78.0063","accuracy":"4"},{"address3":"Valaicheripatti","state":"Tamil Nadu","state_code":"25","district":"Madurai","district_code":"623","address1":"Melur","address2":"","latitude":"9.9063","longitude":"78.2182","accuracy":"3"},{"address3":"Thonthilingapuram","state":"Tamil Nadu","state_code":"25","district":"Madurai","district_code":"623","address1":"Melur","address2":"","latitude":"9.9063","longitude":"78.2182","accuracy":"3"},{"address3":"Surapatti","state":"Tamil Nadu","state_code":"25","district":"Madurai","district_code":"623","address1":"Melur","address2":"","latitude":"9.9063","longitude":"78.2182","accuracy":"3"}],"625104":[{"address3":"Madurai Agricultural College","state":"Tamil Nadu","state_code":"25","district":"Madurai","district_code":"623","address1":"Madurai North","address2":"","latitude":"9.9986","longitude":"78.5732","accuracy":"3"},{"address3":"Arumbanur","state":"Tamil Nadu","state_code":"25","district":"Madurai","district_code":"623","address1":"Melur","address2":"","latitude":"9.9944","longitude":"78.1924","accuracy":"4"},{"address3":"Kodikulam","state":"Tamil Nadu","state_code":"25","district":"Madurai","district_code":"623","address1":"Melur","address2":"","latitude":"9.921","longitude":"78.0063","accuracy":"4"},{"address3":"Vowalthottam","state":"Tamil Nadu","state_code":"25","district":"Madurai","district_code":"623","address1":"Madurai North","address2":"","latitude":"9.9986","longitude":"78.5732","accuracy":"3"}],"625105":[{"address3":"Melavlavu","state":"Tamil Nadu","state_code":"25","district":"Madurai","district_code":"623","address1":"Melur","address2":"","latitude":"10.1212","longitude":"78.3075","accuracy":"3"},{"address3":"Ettimangalam","state":"Tamil Nadu","state_code":"25","district":"Madurai","district_code":"623","address1":"Melur","address2":"","latitude":"10.0624","longitude":"78.3149","accuracy":"4"},{"address3":"Pattur","state":"Tamil Nadu","state_code":"25","district":"Madurai","district_code":"623","address1":"Melur","address2":"","latitude":"10.1395","longitude":"78.3117","accuracy":"4"},{"address3":"Arukkampatti","state":"Tamil Nadu","state_code":"25","district":"Madurai","district_code":"623","address1":"Melur","address2":"","latitude":"10.17","longitude":"78.2949","accuracy":"4"},{"address3":"Sennagarampatti","state":"Tamil Nadu","state_code":"25","district":"Madurai","district_code":"623","address1":"Melur","address2":"","latitude":"10.0837","longitude":"78.3176","accuracy":"4"},{"address3":"Kesampatti","state":"Tamil Nadu","state_code":"25","district":"Madurai","district_code":"623","address1":"Melur","address2":"","latitude":"10.1506","longitude":"78.2984","accuracy":"4"}],"625106":[{"address3":"Karuthapuliyanpatti","state":"Tamil Nadu","state_code":"25","district":"Madurai","district_code":"623","address1":"Melur","address2":"","latitude":"9.9986","longitude":"78.4046","accuracy":"3"},{"address3":"Kallampatti","state":"Tamil Nadu","state_code":"25","district":"Madurai","district_code":"623","address1":"Melur","address2":"","latitude":"10.0837","longitude":"78.3732","accuracy":"4"},{"address3":"Kilaiyur","state":"Tamil Nadu","state_code":"25","district":"Madurai","district_code":"623","address1":"Melur","address2":"","latitude":"10.0474","longitude":"78.3841","accuracy":"4"},{"address3":"Melur East","state":"Tamil Nadu","state_code":"25","district":"Madurai","district_code":"623","address1":"Melur","address2":"","latitude":"9.9986","longitude":"78.4046","accuracy":"3"},{"address3":"Kottagudi","state":"Tamil Nadu","state_code":"25","district":"Madurai","district_code":"623","address1":"Melur","address2":"","latitude":"9.921","longitude":"78.0063","accuracy":"4"},{"address3":"Melur (Madurai)","state":"Tamil Nadu","state_code":"25","district":"Madurai","district_code":"623","address1":"Melur","address2":"","latitude":"10.0324","longitude":"78.3393","accuracy":"4"},{"address3":"Pathinettangudi","state":"Tamil Nadu","state_code":"25","district":"Madurai","district_code":"623","address1":"Melur","address2":"","latitude":"9.9986","longitude":"78.4046","accuracy":"3"},{"address3":"Pudusukkampatti","state":"Tamil Nadu","state_code":"25","district":"Madurai","district_code":"623","address1":"Melur","address2":"","latitude":"10.0465","longitude":"78.3197","accuracy":"4"},{"address3":"Suragundu","state":"Tamil Nadu","state_code":"25","district":"Madurai","district_code":"623","address1":"Melur","address2":"","latitude":"9.9986","longitude":"78.4046","accuracy":"3"},{"address3":"Navinipatti","state":"Tamil Nadu","state_code":"25","district":"Madurai","district_code":"623","address1":"Melur","address2":"","latitude":"10.0439","longitude":"78.3557","accuracy":"4"},{"address3":"Arittapatti","state":"Tamil Nadu","state_code":"25","district":"Madurai","district_code":"623","address1":"Melur","address2":"","latitude":"10.0375","longitude":"78.2848","accuracy":"4"}],"625107":[{"address3":"Othakadai","state":"Tamil Nadu","state_code":"25","district":"Madurai","district_code":"623","address1":"Madurai North","address2":"","latitude":"9.9272","longitude":"78.2389","accuracy":"3"},{"address3":"Uthangudi","state":"Tamil Nadu","state_code":"25","district":"Madurai","district_code":"623","address1":"Melur","address2":"","latitude":"9.9272","longitude":"78.2389","accuracy":"3"},{"address3":"Rajakkur","state":"Tamil Nadu","state_code":"25","district":"Madurai","district_code":"623","address1":"Melur","address2":"","latitude":"9.9272","longitude":"78.2389","accuracy":"4"},{"address3":"Tirumoghur","state":"Tamil Nadu","state_code":"25","district":"Madurai","district_code":"623","address1":"Melur","address2":"","latitude":"9.9272","longitude":"78.2389","accuracy":"3"},{"address3":"Puduthamaraipatti","state":"Tamil Nadu","state_code":"25","district":"Madurai","district_code":"623","address1":"Madurai North","address2":"","latitude":"9.9272","longitude":"78.2389","accuracy":"3"},{"address3":"Kathakinaru","state":"Tamil Nadu","state_code":"25","district":"Madurai","district_code":"623","address1":"Madurai North","address2":"","latitude":"9.9272","longitude":"78.2389","accuracy":"3"}],"625108":[{"address3":"Kodukkampatti","state":"Tamil Nadu","state_code":"25","district":"Madurai","district_code":"623","address1":"Melur","address2":"","latitude":"10.1157","longitude":"78.4012","accuracy":"4"},{"address3":"Thumbaipatti","state":"Tamil Nadu","state_code":"25","district":"Madurai","district_code":"623","address1":"Melur","address2":"","latitude":"10.0715","longitude":"78.3915","accuracy":"3"},{"address3":"Attapatti","state":"Tamil Nadu","state_code":"25","district":"Madurai","district_code":"623","address1":"Melur","address2":"","latitude":"9.996","longitude":"78.3891","accuracy":"4"},{"address3":"Budamangalam","state":"Tamil Nadu","state_code":"25","district":"Madurai","district_code":"623","address1":"Melur","address2":"","latitude":"10.1029","longitude":"78.3842","accuracy":"4"}],"625109":[{"address3":"Thaniyamangalam","state":"Tamil Nadu","state_code":"25","district":"Madurai","district_code":"623","address1":"Melur","address2":"","latitude":"10.0317","longitude":"78.397","accuracy":"4"},{"address3":"Kurichipatti","state":"Tamil Nadu","state_code":"25","district":"Madurai","district_code":"623","address1":"Melur","address2":"","latitude":"10.0086","longitude":"78.3682","accuracy":"3"},{"address3":"Vellalur","state":"Tamil Nadu","state_code":"25","district":"Madurai","district_code":"623","address1":"Melur","address2":"","latitude":"9.9939","longitude":"78.3981","accuracy":"4"},{"address3":"Saruguvalayapatti","state":"Tamil Nadu","state_code":"25","district":"Madurai","district_code":"623","address1":"Melur","address2":"","latitude":"10.0086","longitude":"78.3682","accuracy":"3"},{"address3":"Uranganpatti","state":"Tamil Nadu","state_code":"25","district":"Madurai","district_code":"623","address1":"Melur","address2":"","latitude":"9.9984","longitude":"78.4297","accuracy":"4"},{"address3":"Alagichipatti","state":"Tamil Nadu","state_code":"25","district":"Madurai","district_code":"623","address1":"Melur","address2":"","latitude":"10.0086","longitude":"78.3682","accuracy":"3"},{"address3":"Ambalakaranpatti","state":"Tamil Nadu","state_code":"25","district":"Madurai","district_code":"623","address1":"Melur","address2":"","latitude":"10.0103","longitude":"78.2481","accuracy":"4"},{"address3":"Kottanathampatti","state":"Tamil Nadu","state_code":"25","district":"Madurai","district_code":"623","address1":"Melur","address2":"","latitude":"10.0086","longitude":"78.3682","accuracy":"3"}],"625110":[{"address3":"Tiruvadur","state":"Tamil Nadu","state_code":"25","district":"Madurai","district_code":"623","address1":"Madurai North","address2":"","latitude":"9.9549","longitude":"78.3155","accuracy":"4"},{"address3":"Poonjuthi","state":"Tamil Nadu","state_code":"25","district":"Madurai","district_code":"623","address1":"Melur","address2":"","latitude":"9.9549","longitude":"78.3155","accuracy":"3"},{"address3":"Therkilamur","state":"Tamil Nadu","state_code":"25","district":"Madurai","district_code":"623","address1":"Madurai North","address2":"","latitude":"9.9549","longitude":"78.3155","accuracy":"3"}],"625122":[{"address3":"Narsingampatti","state":"Tamil Nadu","state_code":"25","district":"Madurai","district_code":"623","address1":"Melur","address2":"","latitude":"11.7359","longitude":"78.6225","accuracy":"3"},{"address3":"Chittampatti","state":"Tamil Nadu","state_code":"25","district":"Madurai","district_code":"623","address1":"Melur","address2":"","latitude":"9.921","longitude":"78.0063","accuracy":"4"},{"address3":"Therkutheru","state":"Tamil Nadu","state_code":"25","district":"Madurai","district_code":"623","address1":"Melur","address2":"","latitude":"11.7359","longitude":"78.6225","accuracy":"3"},{"address3":"Vellaripatti","state":"Tamil Nadu","state_code":"25","district":"Madurai","district_code":"623","address1":"Melur","address2":"","latitude":"11.7359","longitude":"78.6225","accuracy":"3"},{"address3":"Poosaripatti","state":"Tamil Nadu","state_code":"25","district":"Madurai","district_code":"623","address1":"Melur","address2":"","latitude":"11.7359","longitude":"78.6225","accuracy":"3"},{"address3":"T.Vellalapatti","state":"Tamil Nadu","state_code":"25","district":"Madurai","district_code":"623","address1":"Melur","address2":"","latitude":"11.7359","longitude":"78.6225","accuracy":"3"}],"625201":[{"address3":"Silaiman","state":"Tamil Nadu","state_code":"25","district":"Madurai","district_code":"623","address1":"Madurai South","address2":"","latitude":"9.8731","longitude":"78.1906","accuracy":"4"},{"address3":"Puliankulam","state":"Tamil Nadu","state_code":"25","district":"Madurai","district_code":"623","address1":"Madurai South","address2":"","latitude":"9.8771","longitude":"78.1915","accuracy":"3"},{"address3":"Sakkimangalam","state":"Tamil Nadu","state_code":"25","district":"Madurai","district_code":"623","address1":"Madurai South","address2":"","latitude":"9.8812","longitude":"78.1924","accuracy":"4"},{"address3":"Ilamanur","state":"Tamil Nadu","state_code":"25","district":"Madurai","district_code":"623","address1":"Madurai South","address2":"","latitude":"9.8771","longitude":"78.1915","accuracy":"3"}],"625203":[{"address3":"Genguvarpatti","state":"Tamil Nadu","state_code":"25","district":"Theni","district_code":"624","address1":"Periyakulam","address2":"","latitude":"10.058","longitude":"78.0743","accuracy":"1"},{"address3":"G.Kallupatti","state":"Tamil Nadu","state_code":"25","district":"Theni","district_code":"624","address1":"Periyakulam","address2":"","latitude":"10.058","longitude":"78.0743","accuracy":"1"}],"625205":[{"address3":"Nachikulam","state":"Tamil Nadu","state_code":"25","district":"Madurai","district_code":"623","address1":"Vadipatti","address2":"","latitude":"9.921","longitude":"78.0063","accuracy":"4"},{"address3":"Irumbadi","state":"Tamil Nadu","state_code":"25","district":"Madurai","district_code":"623","address1":"Vadipatti","address2":"","latitude":"9.4883","longitude":"77.664","accuracy":"3"},{"address3":"Karupatti","state":"Tamil Nadu","state_code":"25","district":"Madurai","district_code":"623","address1":"Vadipatti","address2":"","latitude":"9.4883","longitude":"77.664","accuracy":"3"},{"address3":"Melanachikulam","state":"Tamil Nadu","state_code":"25","district":"Madurai","district_code":"623","address1":"Vadipatti","address2":"","latitude":"9.4883","longitude":"77.664","accuracy":"3"}],"625207":[{"address3":"Kadupatti","state":"Tamil Nadu","state_code":"25","district":"Madurai","district_code":"623","address1":"Thirumangalam","address2":"","latitude":"9.921","longitude":"78.0063","accuracy":"4"},{"address3":"Vikramangalam","state":"Tamil Nadu","state_code":"25","district":"Madurai","district_code":"623","address1":"Vadipatti","address2":"","latitude":"10.9892","longitude":"78.2501","accuracy":"3"},{"address3":"Mullipallam","state":"Tamil Nadu","state_code":"25","district":"Madurai","district_code":"623","address1":"Vadipatti","address2":"","latitude":"10.9892","longitude":"78.2501","accuracy":"3"},{"address3":"Ayyankuruvithurai","state":"Tamil Nadu","state_code":"25","district":"Madurai","district_code":"623","address1":"Vadipatti","address2":"","latitude":"10.9892","longitude":"78.2501","accuracy":"3"},{"address3":"Mannadimangalam","state":"Tamil Nadu","state_code":"25","district":"Madurai","district_code":"623","address1":"Vadipatti","address2":"","latitude":"10.9892","longitude":"78.2501","accuracy":"3"},{"address3":"Nariampatti","state":"Tamil Nadu","state_code":"25","district":"Madurai","district_code":"623","address1":"Vadipatti","address2":"","latitude":"10.9892","longitude":"78.2501","accuracy":"3"},{"address3":"Sakkarappanaickanur","state":"Tamil Nadu","state_code":"25","district":"Madurai","district_code":"623","address1":"Vadipatti","address2":"","latitude":"10.9892","longitude":"78.2501","accuracy":"3"},{"address3":"Thenkarai","state":"Tamil Nadu","state_code":"25","district":"Madurai","district_code":"623","address1":"Vadipatti","address2":"","latitude":"10.9892","longitude":"78.2501","accuracy":"3"}],"625214":[{"address3":"Sholavandan","state":"Tamil Nadu","state_code":"25","district":"Madurai","district_code":"623","address1":"Vadipatti","address2":"","latitude":"10.0216","longitude":"77.9609","accuracy":"4"},{"address3":"Sholavandan Bazaar","state":"Tamil Nadu","state_code":"25","district":"Madurai","district_code":"623","address1":"Vadipatti","address2":"","latitude":"10.0216","longitude":"77.9609","accuracy":"3"}],"625218":[{"address3":"Kachakatti","state":"Tamil Nadu","state_code":"25","district":"Madurai","district_code":"623","address1":"Vadipatti","address2":"","latitude":"10.028","longitude":"78.1439","accuracy":"3"},{"address3":"Andipatti","state":"Tamil Nadu","state_code":"25","district":"Madurai","district_code":"623","address1":"Vadipatti","address2":"","latitude":"9.9711","longitude":"78.3267","accuracy":"4"},{"address3":"Kulasekarankottai","state":"Tamil Nadu","state_code":"25","district":"Madurai","district_code":"623","address1":"Vadipatti","address2":"","latitude":"10.028","longitude":"78.1439","accuracy":"3"},{"address3":"Vadipatti","state":"Tamil Nadu","state_code":"25","district":"Madurai","district_code":"623","address1":"Vadipatti","address2":"","latitude":"10.0848","longitude":"77.9611","accuracy":"4"},{"address3":"Pandiarajapuram","state":"Tamil Nadu","state_code":"25","district":"Madurai","district_code":"623","address1":"Vadipatti","address2":"","latitude":"10.028","longitude":"78.1439","accuracy":"3"}],"625221":[{"address3":"Thanichiyam","state":"Tamil Nadu","state_code":"25","district":"Madurai","district_code":"623","address1":"Vadipatti","address2":"","latitude":"10.2149","longitude":"78.2261","accuracy":"3"},{"address3":"Kondayampatti","state":"Tamil Nadu","state_code":"25","district":"Madurai","district_code":"623","address1":"Vadipatti","address2":"","latitude":"9.921","longitude":"78.0063","accuracy":"4"},{"address3":"Mariammalkulam","state":"Tamil Nadu","state_code":"25","district":"Madurai","district_code":"623","address1":"Vadipatti","address2":"","latitude":"10.2149","longitude":"78.2261","accuracy":"3"},{"address3":"Ayyankottai","state":"Tamil Nadu","state_code":"25","district":"Madurai","district_code":"623","address1":"Vadipatti","address2":"","latitude":"10.2149","longitude":"78.2261","accuracy":"3"},{"address3":"Kalvelipatti","state":"Tamil Nadu","state_code":"25","district":"Madurai","district_code":"623","address1":"Vadipatti","address2":"","latitude":"10.2149","longitude":"78.2261","accuracy":"3"},{"address3":"Sithalangudi","state":"Tamil Nadu","state_code":"25","district":"Madurai","district_code":"623","address1":"Vadipatti","address2":"","latitude":"10.2149","longitude":"78.2261","accuracy":"3"},{"address3":"Thiruvalavayanallur","state":"Tamil Nadu","state_code":"25","district":"Madurai","district_code":"623","address1":"Vadipatti","address2":"","latitude":"10.2149","longitude":"78.2261","accuracy":"3"}],"625234":[{"address3":"Royapuram","state":"Tamil Nadu","state_code":"25","district":"Madurai","district_code":"623","address1":"Vadipatti","address2":"","latitude":"9.921","longitude":"78.0063","accuracy":"3"},{"address3":"Tiruvedagam","state":"Tamil Nadu","state_code":"25","district":"Madurai","district_code":"623","address1":"Vadipatti","address2":"","latitude":"10.0062","longitude":"78.1578","accuracy":"3"},{"address3":"Melakkal","state":"Tamil Nadu","state_code":"25","district":"Madurai","district_code":"623","address1":"Vadipatti","address2":"","latitude":"10.0062","longitude":"78.1578","accuracy":"3"},{"address3":"Kodimangalam","state":"Tamil Nadu","state_code":"25","district":"Madurai","district_code":"623","address1":"Madurai South","address2":"","latitude":"10.0062","longitude":"78.1578","accuracy":"4"},{"address3":"Keelamathur","state":"Tamil Nadu","state_code":"25","district":"Madurai","district_code":"623","address1":"Madurai South","address2":"","latitude":"10.0062","longitude":"78.1578","accuracy":"3"},{"address3":"Tiruvedagam West","state":"Tamil Nadu","state_code":"25","district":"Madurai","district_code":"623","address1":"Vadipatti","address2":"","latitude":"10.0062","longitude":"78.1578","accuracy":"3"},{"address3":"Kachirayiruppu","state":"Tamil Nadu","state_code":"25","district":"Madurai","district_code":"623","address1":"Vadipatti","address2":"","latitude":"10.0062","longitude":"78.1578","accuracy":"3"}],"625301":[{"address3":"Mangulam","state":"Tamil Nadu","state_code":"25","district":"Madurai","district_code":"623","address1":"Melur","address2":"","latitude":"10.0335","longitude":"78.243","accuracy":"4"},{"address3":"Appantiruppathi","state":"Tamil Nadu","state_code":"25","district":"Madurai","district_code":"623","address1":"Melur","address2":"","latitude":"10.0329","longitude":"78.2224","accuracy":"3"},{"address3":"Kidaripatti","state":"Tamil Nadu","state_code":"25","district":"Madurai","district_code":"623","address1":"Madurai North","address2":"","latitude":"10.0329","longitude":"78.2224","accuracy":"3"},{"address3":"Kallandiri","state":"Tamil Nadu","state_code":"25","district":"Madurai","district_code":"623","address1":"Melur","address2":"","latitude":"10.0384","longitude":"78.2011","accuracy":"4"},{"address3":"A.Vellalapatti","state":"Tamil Nadu","state_code":"25","district":"Madurai","district_code":"623","address1":"Madurai North","address2":"","latitude":"10.0329","longitude":"78.2224","accuracy":"3"},{"address3":"Mathur","state":"Tamil Nadu","state_code":"25","district":"Madurai","district_code":"623","address1":"Melur","address2":"","latitude":"10.0329","longitude":"78.2224","accuracy":"3"},{"address3":"Lakshmipuram","state":"Tamil Nadu","state_code":"25","district":"Madurai","district_code":"623","address1":"Madurai North","address2":"","latitude":"10.0268","longitude":"78.2231","accuracy":"4"},{"address3":"Alagarkoil","state":"Tamil Nadu","state_code":"25","district":"Madurai","district_code":"623","address1":"Melur","address2":"","latitude":"10.0329","longitude":"78.2224","accuracy":"3"},{"address3":"Pulipatti","state":"Tamil Nadu","state_code":"25","district":"Madurai","district_code":"623","address1":"Melur","address2":"","latitude":"10.0329","longitude":"78.2224","accuracy":"3"}],"625402":[{"address3":"Samayanallur","state":"Tamil Nadu","state_code":"25","district":"Madurai","district_code":"623","address1":"Vadipatti","address2":"","latitude":"9.9792","longitude":"78.0359","accuracy":"4"},{"address3":"Thodaneri","state":"Tamil Nadu","state_code":"25","district":"Madurai","district_code":"623","address1":"Vadipatti","address2":"","latitude":"10.228","longitude":"78.1812","accuracy":"3"},{"address3":"Thenur","state":"Tamil Nadu","state_code":"25","district":"Madurai","district_code":"623","address1":"Vadipatti","address2":"","latitude":"9.921","longitude":"78.0063","accuracy":"4"},{"address3":"Siruvalai","state":"Tamil Nadu","state_code":"25","district":"Madurai","district_code":"623","address1":"Vadipatti","address2":"","latitude":"10.0256","longitude":"78.0628","accuracy":"4"},{"address3":"Vayalur","state":"Tamil Nadu","state_code":"25","district":"Madurai","district_code":"623","address1":"Vadipatti","address2":"","latitude":"9.921","longitude":"78.0063","accuracy":"4"},{"address3":"Paravai","state":"Tamil Nadu","state_code":"25","district":"Madurai","district_code":"623","address1":"Madurai North","address2":"","latitude":"9.9645","longitude":"78.0667","accuracy":"4"}],"625501":[{"address3":"Vavidaimaruthur","state":"Tamil Nadu","state_code":"25","district":"Madurai","district_code":"623","address1":"Vadipatti","address2":"","latitude":"9.8884","longitude":"78.1146","accuracy":"3"},{"address3":"Mettupatti","state":"Tamil Nadu","state_code":"25","district":"Madurai","district_code":"623","address1":"NA","address2":"","latitude":"9.9982","longitude":"78.2151","accuracy":"4"},{"address3":"A.Pudupatti","state":"Tamil Nadu","state_code":"25","district":"Madurai","district_code":"623","address1":"Vadipatti","address2":"","latitude":"9.8884","longitude":"78.1146","accuracy":"3"},{"address3":"Kuttimeichanpatti","state":"Tamil Nadu","state_code":"25","district":"Madurai","district_code":"623","address1":"Madurai North","address2":"","latitude":"9.8884","longitude":"78.1146","accuracy":"3"},{"address3":"Valasai","state":"Tamil Nadu","state_code":"25","district":"Madurai","district_code":"623","address1":"Madurai North","address2":"","latitude":"9.921","longitude":"78.0063","accuracy":"4"},{"address3":"Errampatti","state":"Tamil Nadu","state_code":"25","district":"Madurai","district_code":"623","address1":"Vadipatti","address2":"","latitude":"10.0842","longitude":"78.086","accuracy":"4"},{"address3":"Alagapuri","state":"Tamil Nadu","state_code":"25","district":"Madurai","district_code":"623","address1":"Vadipatti","address2":"","latitude":"10.0612","longitude":"78.2364","accuracy":"4"},{"address3":"Kallanai","state":"Tamil Nadu","state_code":"25","district":"Madurai","district_code":"623","address1":"Vadipatti","address2":"","latitude":"10.0374","longitude":"78.0829","accuracy":"4"},{"address3":"Achampatti","state":"Tamil Nadu","state_code":"25","district":"Madurai","district_code":"623","address1":"Vadipatti","address2":"","latitude":"9.921","longitude":"78.0063","accuracy":"4"},{"address3":"Ayyur","state":"Tamil Nadu","state_code":"25","district":"Madurai","district_code":"623","address1":"Madurai North","address2":"","latitude":"10.0696","longitude":"78.0813","accuracy":"4"},{"address3":"Alanganallur","state":"Tamil Nadu","state_code":"25","district":"Madurai","district_code":"623","address1":"Vadipatti","address2":"","latitude":"10.047","longitude":"78.0903","accuracy":"4"}],"625503":[{"address3":"Chatravellalapatti","state":"Tamil Nadu","state_code":"25","district":"Madurai","district_code":"623","address1":"Vadipatti","address2":"","latitude":"10.1112","longitude":"78.1174","accuracy":"3"},{"address3":"Muduvarpatti","state":"Tamil Nadu","state_code":"25","district":"Madurai","district_code":"623","address1":"Vadipatti","address2":"","latitude":"10.0821","longitude":"78.1257","accuracy":"4"},{"address3":"Palamedu","state":"Tamil Nadu","state_code":"25","district":"Madurai","district_code":"623","address1":"Vadipatti","address2":"","latitude":"10.105","longitude":"78.1134","accuracy":"4"},{"address3":"Vellayampatti","state":"Tamil Nadu","state_code":"25","district":"Madurai","district_code":"623","address1":"Vadipatti","address2":"","latitude":"10.1112","longitude":"78.1174","accuracy":"3"},{"address3":"Kodangipatti","state":"Tamil Nadu","state_code":"25","district":"Madurai","district_code":"623","address1":"Vadipatti","address2":"","latitude":"10.1168","longitude":"78.1502","accuracy":"4"},{"address3":"Sendamangalam","state":"Tamil Nadu","state_code":"25","district":"Madurai","district_code":"623","address1":"Vadipatti","address2":"","latitude":"10.139","longitude":"78.1448","accuracy":"4"},{"address3":"Tettur","state":"Tamil Nadu","state_code":"25","district":"Madurai","district_code":"623","address1":"Vadipatti","address2":"","latitude":"10.1132","longitude":"78.053","accuracy":"4"}],"625512":[{"address3":"Ammapatti","state":"Tamil Nadu","state_code":"25","district":"Theni","district_code":"624","address1":"Andipatti","address2":"","latitude":"10.0415","longitude":"77.5244","accuracy":"4"},{"address3":"Kanniappapillaipatti","state":"Tamil Nadu","state_code":"25","district":"Theni","district_code":"624","address1":"Andipatti","address2":"","latitude":"10.0415","longitude":"77.5244","accuracy":"3"},{"address3":"Kothaloothu","state":"Tamil Nadu","state_code":"25","district":"Theni","district_code":"624","address1":"Andipatti","address2":"","latitude":"10.0415","longitude":"77.5244","accuracy":"3"},{"address3":"Shunmugasundarapuram","state":"Tamil Nadu","state_code":"25","district":"Theni","district_code":"624","address1":"Aundipatti","address2":"","latitude":"10.0415","longitude":"77.5244","accuracy":"3"},{"address3":"Palacombai","state":"Tamil Nadu","state_code":"25","district":"Theni","district_code":"624","address1":"Andipatti","address2":"","latitude":"10.0415","longitude":"77.5244","accuracy":"3"},{"address3":"Aundipatti","state":"Tamil Nadu","state_code":"25","district":"Theni","district_code":"624","address1":"Andipatti","address2":"","latitude":"10.0415","longitude":"77.5244","accuracy":"3"},{"address3":"Rosanampatti","state":"Tamil Nadu","state_code":"25","district":"Theni","district_code":"624","address1":"Andipatti","address2":"","latitude":"10.0415","longitude":"77.5244","accuracy":"3"},{"address3":"Theppampatti","state":"Tamil Nadu","state_code":"25","district":"Theni","district_code":"624","address1":"Andipatti","address2":"","latitude":"10.0415","longitude":"77.5244","accuracy":"3"},{"address3":"Kothapatti","state":"Tamil Nadu","state_code":"25","district":"Theni","district_code":"624","address1":"Andipatti","address2":"","latitude":"10.0415","longitude":"77.5244","accuracy":"3"},{"address3":"Mottanuthu","state":"Tamil Nadu","state_code":"25","district":"Theni","district_code":"624","address1":"Andipatti","address2":"","latitude":"10.0415","longitude":"77.5244","accuracy":"3"},{"address3":"Rajadhani","state":"Tamil Nadu","state_code":"25","district":"Theni","district_code":"624","address1":"Andipatti","address2":"","latitude":"10.0415","longitude":"77.5244","accuracy":"3"}],"625513":[{"address3":"Bodinayakanur H.O","state":"Tamil Nadu","state_code":"25","district":"Theni","district_code":"624","address1":"Bodinayakanur","address2":"","latitude":"9.9603","longitude":"77.7791","accuracy":"1"}],"625514":[{"address3":"Chettikulam","state":"Tamil Nadu","state_code":"25","district":"Madurai","district_code":"623","address1":"Usilampatti","address2":"","latitude":"9.995","longitude":"78.1462","accuracy":"4"},{"address3":"Karumathur","state":"Tamil Nadu","state_code":"25","district":"Madurai","district_code":"623","address1":"Usilampatti","address2":"","latitude":"10.1696","longitude":"78.5422","accuracy":"3"},{"address3":"Chellampatti","state":"Tamil Nadu","state_code":"25","district":"Madurai","district_code":"623","address1":"Usilampatti","address2":"","latitude":"9.921","longitude":"78.0063","accuracy":"4"},{"address3":"Mudalaikulam","state":"Tamil Nadu","state_code":"25","district":"Madurai","district_code":"623","address1":"Madurai North","address2":"","latitude":"10.1696","longitude":"78.5422","accuracy":"3"},{"address3":"Kodikulam","state":"Tamil Nadu","state_code":"25","district":"Madurai","district_code":"623","address1":"Madurai North","address2":"","latitude":"9.921","longitude":"78.0063","accuracy":"4"},{"address3":"Jothimanickam","state":"Tamil Nadu","state_code":"25","district":"Madurai","district_code":"623","address1":"Madurai North","address2":"","latitude":"10.1696","longitude":"78.5422","accuracy":"3"},{"address3":"Kovilangulam","state":"Tamil Nadu","state_code":"25","district":"Madurai","district_code":"623","address1":"Vadipatti","address2":"","latitude":"10.1696","longitude":"78.5422","accuracy":"3"},{"address3":"A.Kokkulam","state":"Tamil Nadu","state_code":"25","district":"Madurai","district_code":"623","address1":"Thirumangalam","address2":"","latitude":"10.1696","longitude":"78.5422","accuracy":"3"},{"address3":"Nadumudalaikulam","state":"Tamil Nadu","state_code":"25","district":"Madurai","district_code":"623","address1":"Usilampatti","address2":"","latitude":"10.1696","longitude":"78.5422","accuracy":"3"},{"address3":"Kinnimangalam","state":"Tamil Nadu","state_code":"25","district":"Madurai","district_code":"623","address1":"Vadipatti","address2":"","latitude":"10.1696","longitude":"78.5422","accuracy":"3"},{"address3":"Checkanurani","state":"Tamil Nadu","state_code":"25","district":"Madurai","district_code":"623","address1":"Madurai North","address2":"","latitude":"10.1696","longitude":"78.5422","accuracy":"3"}],"625515":[{"address3":"Seelayampatti","state":"Tamil Nadu","state_code":"25","district":"Theni","district_code":"624","address1":"Theni","address2":"","latitude":"9.8572","longitude":"77.3779","accuracy":"3"},{"address3":"Kujjanur","state":"Tamil Nadu","state_code":"25","district":"Theni","district_code":"624","address1":"Uthamapalayam","address2":"","latitude":"9.8743","longitude":"77.3747","accuracy":"4"},{"address3":"Markeyankottai","state":"Tamil Nadu","state_code":"25","district":"Theni","district_code":"624","address1":"Uthamapalayam","address2":"","latitude":"9.8572","longitude":"77.3779","accuracy":"3"},{"address3":"Chinnamanur","state":"Tamil Nadu","state_code":"25","district":"Theni","district_code":"624","address1":"Uthamapalayam","address2":"","latitude":"9.84","longitude":"77.3811","accuracy":"4"},{"address3":"Appipatti","state":"Tamil Nadu","state_code":"25","district":"Theni","district_code":"624","address1":"Uthamapalayam","address2":"","latitude":"9.8572","longitude":"77.3779","accuracy":"3"},{"address3":"Chinnaovalapuram","state":"Tamil Nadu","state_code":"25","district":"Theni","district_code":"624","address1":"Uthamapalayam","address2":"","latitude":"9.8572","longitude":"77.3779","accuracy":"3"},{"address3":"Erasakkanayakanur","state":"Tamil Nadu","state_code":"25","district":"Theni","district_code":"624","address1":"Uthamapalayam","address2":"","latitude":"9.8572","longitude":"77.3779","accuracy":"3"},{"address3":"Kanniservaipatti","state":"Tamil Nadu","state_code":"25","district":"Theni","district_code":"624","address1":"Uthamapalayam","address2":"","latitude":"9.8572","longitude":"77.3779","accuracy":"3"},{"address3":"Koolayanur","state":"Tamil Nadu","state_code":"25","district":"Theni","district_code":"624","address1":"Uthamapalayam","address2":"","latitude":"9.8572","longitude":"77.3779","accuracy":"3"},{"address3":"Megamalai","state":"Tamil Nadu","state_code":"25","district":"Theni","district_code":"624","address1":"Aundipatti","address2":"","latitude":"9.8572","longitude":"77.3779","accuracy":"3"},{"address3":"Muthulapuram","state":"Tamil Nadu","state_code":"25","district":"Theni","district_code":"624","address1":"Uthamapalayam","address2":"","latitude":"9.8572","longitude":"77.3779","accuracy":"3"}],"625516":[{"address3":"Kullappagoundanpatti","state":"Tamil Nadu","state_code":"25","district":"Theni","district_code":"624","address1":"Uthamapalayam","address2":"","latitude":"9.7365","longitude":"77.2847","accuracy":"3"},{"address3":"Cumbum (Theni)","state":"Tamil Nadu","state_code":"25","district":"Theni","district_code":"624","address1":"Uthamapalayam","address2":"","latitude":"9.7365","longitude":"77.2847","accuracy":"4"},{"address3":"Gandhinagar (Cumbum)","state":"Tamil Nadu","state_code":"25","district":"Theni","district_code":"624","address1":"Uthamapalayam","address2":"","latitude":"9.7365","longitude":"77.2847","accuracy":"3"},{"address3":"Karunagamuthanpatti","state":"Tamil Nadu","state_code":"25","district":"Theni","district_code":"624","address1":"Uthamapalayam","address2":"","latitude":"9.7365","longitude":"77.2847","accuracy":"3"},{"address3":"Surulipatti","state":"Tamil Nadu","state_code":"25","district":"Theni","district_code":"624","address1":"Uthamapalayam","address2":"","latitude":"9.7365","longitude":"77.2847","accuracy":"3"}],"625517":[{"address3":"G.Usilampatti","state":"Tamil Nadu","state_code":"25","district":"Theni","district_code":"624","address1":"Andipatti","address2":"","latitude":"9.963","longitude":"77.5704","accuracy":"3"},{"address3":"Gandamanayakanur","state":"Tamil Nadu","state_code":"25","district":"Theni","district_code":"624","address1":"Aundipatti","address2":"","latitude":"9.963","longitude":"77.5704","accuracy":"3"},{"address3":"Okkaraipatti","state":"Tamil Nadu","state_code":"25","district":"Theni","district_code":"624","address1":"Andipatti","address2":"","latitude":"9.963","longitude":"77.5704","accuracy":"4"},{"address3":"Athankaraipatti","state":"Tamil Nadu","state_code":"25","district":"Theni","district_code":"624","address1":"Andipatti","address2":"","latitude":"9.963","longitude":"77.5704","accuracy":"3"},{"address3":"Govindagaram","state":"Tamil Nadu","state_code":"25","district":"Theni","district_code":"624","address1":"Andipatti","address2":"","latitude":"9.963","longitude":"77.5704","accuracy":"3"},{"address3":"Marikundu","state":"Tamil Nadu","state_code":"25","district":"Theni","district_code":"624","address1":"Andipatti","address2":"","latitude":"9.963","longitude":"77.5704","accuracy":"3"},{"address3":"Thekkampatti","state":"Tamil Nadu","state_code":"25","district":"Theni","district_code":"624","address1":"Andipatti","address2":"","latitude":"9.963","longitude":"77.5704","accuracy":"3"}],"625518":[{"address3":"Gudalur","state":"Tamil Nadu","state_code":"25","district":"Theni","district_code":"624","address1":"Uthamapalayam","address2":"","latitude":"9.6783","longitude":"77.2495","accuracy":"4"},{"address3":"Angoorpal","state":"Tamil Nadu","state_code":"25","district":"Theni","district_code":"624","address1":"Uthamapalayam","address2":"","latitude":"9.6783","longitude":"77.2495","accuracy":"3"},{"address3":"Keelagudalur","state":"Tamil Nadu","state_code":"25","district":"Theni","district_code":"624","address1":"Uthamapalayam","address2":"","latitude":"9.6783","longitude":"77.2495","accuracy":"3"}],"625519":[{"address3":"Venniyar Estate","state":"Tamil Nadu","state_code":"25","district":"Theni","district_code":"624","address1":"Bodinayakanur","address2":"","latitude":"9.9603","longitude":"77.7791","accuracy":"1"},{"address3":"Manalar","state":"Tamil Nadu","state_code":"25","district":"Theni","district_code":"624","address1":"Uthamapalayam","address2":"","latitude":"9.9603","longitude":"77.7791","accuracy":"1"},{"address3":"Highwavys","state":"Tamil Nadu","state_code":"25","district":"Theni","district_code":"624","address1":"Uthamapalayam","address2":"","latitude":"9.9603","longitude":"77.7791","accuracy":"1"}],"625520":[{"address3":"Kamatchipuram","state":"Tamil Nadu","state_code":"25","district":"Theni","district_code":"624","address1":"Uthamapalayam","address2":"","latitude":"9.8914","longitude":"77.4585","accuracy":"3"},{"address3":"Dharmapuri","state":"Tamil Nadu","state_code":"25","district":"Theni","district_code":"624","address1":"Periyakulam","address2":"","latitude":"9.8967","longitude":"77.4426","accuracy":"4"},{"address3":"Kuppinayakanpatti","state":"Tamil Nadu","state_code":"25","district":"Theni","district_code":"624","address1":"Periyakulam","address2":"","latitude":"9.8914","longitude":"77.4585","accuracy":"3"},{"address3":"Jangalpatti","state":"Tamil Nadu","state_code":"25","district":"Theni","district_code":"624","address1":"Uthamapalayam","address2":"","latitude":"9.8861","longitude":"77.4743","accuracy":"4"},{"address3":"Poomalaikundu","state":"Tamil Nadu","state_code":"25","district":"Theni","district_code":"624","address1":"Periyakulam","address2":"","latitude":"9.8914","longitude":"77.4585","accuracy":"3"}],"625521":[{"address3":"Narayanathevanpatti","state":"Tamil Nadu","state_code":"25","district":"Theni","district_code":"624","address1":"Uthamapalayam","address2":"","latitude":"9.8867","longitude":"77.3673","accuracy":"1"},{"address3":"Kamayakoundanpatti","state":"Tamil Nadu","state_code":"25","district":"Theni","district_code":"624","address1":"Uthamapalayam","address2":"","latitude":"9.8867","longitude":"77.3673","accuracy":"1"}],"625522":[{"address3":"Kombai","state":"Tamil Nadu","state_code":"25","district":"Theni","district_code":"624","address1":"Uthamapalayam","address2":"","latitude":"9.8475","longitude":"77.296","accuracy":"4"}],"625523":[{"address3":"Saruthupatti","state":"Tamil Nadu","state_code":"25","district":"Theni","district_code":"624","address1":"Uthamapalayam","address2":"","latitude":"9.8112","longitude":"77.4123","accuracy":"3"},{"address3":"Alagapuri","state":"Tamil Nadu","state_code":"25","district":"Theni","district_code":"624","address1":"Periyakulam","address2":"","latitude":"9.8112","longitude":"77.4123","accuracy":"4"},{"address3":"Lakshmipuram (Theni)","state":"Tamil Nadu","state_code":"25","district":"Theni","district_code":"624","address1":"Uthamapalayam","address2":"","latitude":"9.8112","longitude":"77.4123","accuracy":"3"}],"625524":[{"address3":"Melasindalachery","state":"Tamil Nadu","state_code":"25","district":"Theni","district_code":"624","address1":"Uthamapalayam","address2":"","latitude":"9.8658","longitude":"77.2952","accuracy":"3"},{"address3":"Pannaipuram","state":"Tamil Nadu","state_code":"25","district":"Theni","district_code":"624","address1":"Uthamapalayam","address2":"","latitude":"9.8658","longitude":"77.2836","accuracy":"4"},{"address3":"Pulikuthi","state":"Tamil Nadu","state_code":"25","district":"Theni","district_code":"624","address1":"Uthamapalayam","address2":"","latitude":"9.8658","longitude":"77.2952","accuracy":"3"},{"address3":"Pallavarayanpatti","state":"Tamil Nadu","state_code":"25","district":"Theni","district_code":"624","address1":"Uthamapalayam","address2":"","latitude":"9.8658","longitude":"77.3069","accuracy":"4"}],"625525":[{"address3":"Suruliyar Lower Camp","state":"Tamil Nadu","state_code":"25","district":"Theni","district_code":"624","address1":"Uthamapalayam","address2":"","latitude":"9.8867","longitude":"77.3673","accuracy":"1"},{"address3":"Periyar Project","state":"Tamil Nadu","state_code":"25","district":"Theni","district_code":"624","address1":"Uthamapalayam","address2":"","latitude":"9.8867","longitude":"77.3673","accuracy":"1"}],"625526":[{"address3":"Anamalayanpatti","state":"Tamil Nadu","state_code":"25","district":"Theni","district_code":"624","address1":"Uthamapalayam","address2":"","latitude":"9.7885","longitude":"77.3443","accuracy":"3"},{"address3":"Gokilapuram","state":"Tamil Nadu","state_code":"25","district":"Theni","district_code":"624","address1":"Uthamapalayam","address2":"","latitude":"9.7885","longitude":"77.3443","accuracy":"4"},{"address3":"Royappanpatti","state":"Tamil Nadu","state_code":"25","district":"Theni","district_code":"624","address1":"Uthamapalayam","address2":"","latitude":"9.7885","longitude":"77.3443","accuracy":"3"}],"625527":[{"address3":"Allikundam","state":"Tamil Nadu","state_code":"25","district":"Madurai","district_code":"623","address1":"Peraiyur","address2":"","latitude":"9.8867","longitude":"77.3673","accuracy":"1"},{"address3":"Athikaripatti","state":"Tamil Nadu","state_code":"25","district":"Madurai","district_code":"623","address1":"Peraiyur","address2":"","latitude":"9.8867","longitude":"77.3673","accuracy":"1"},{"address3":"S.Kottaipatti","state":"Tamil Nadu","state_code":"25","district":"Madurai","district_code":"623","address1":"Usilampatti","address2":"","latitude":"9.8867","longitude":"77.3673","accuracy":"1"},{"address3":"Sedapatti","state":"Tamil Nadu","state_code":"25","district":"Madurai","district_code":"623","address1":"Peraiyur","address2":"","latitude":"9.8867","longitude":"77.3673","accuracy":"1"},{"address3":"Erumarpatti","state":"Tamil Nadu","state_code":"25","district":"Madurai","district_code":"623","address1":"Peraiyur","address2":"","latitude":"9.8867","longitude":"77.3673","accuracy":"1"},{"address3":"Perungamanallur","state":"Tamil Nadu","state_code":"25","district":"Madurai","district_code":"623","address1":"Peraiyur","address2":"","latitude":"9.8867","longitude":"77.3673","accuracy":"1"},{"address3":"Poosalapuram","state":"Tamil Nadu","state_code":"25","district":"Madurai","district_code":"623","address1":"Peraiyur","address2":"","latitude":"9.8867","longitude":"77.3673","accuracy":"1"},{"address3":"Manuthu","state":"Tamil Nadu","state_code":"25","district":"Madurai","district_code":"623","address1":"Peraiyur","address2":"","latitude":"9.8867","longitude":"77.3673","accuracy":"1"},{"address3":"Kuppalnatham","state":"Tamil Nadu","state_code":"25","district":"Madurai","district_code":"623","address1":"Peraiyur","address2":"","latitude":"9.8867","longitude":"77.3673","accuracy":"1"},{"address3":"Sembarani","state":"Tamil Nadu","state_code":"25","district":"Madurai","district_code":"623","address1":"Peraiyur","address2":"","latitude":"9.8867","longitude":"77.3673","accuracy":"1"},{"address3":"Chinnakattalai","state":"Tamil Nadu","state_code":"25","district":"Theni","district_code":"624","address1":"Peraiyur","address2":"","latitude":"9.8867","longitude":"77.3673","accuracy":"1"}],"625528":[{"address3":"Nagalapuram","state":"Tamil Nadu","state_code":"25","district":"Theni","district_code":"624","address1":"Bodinayakanur","address2":"","latitude":"9.9448","longitude":"77.4852","accuracy":"4"},{"address3":"Sillamarathupatti","state":"Tamil Nadu","state_code":"25","district":"Theni","district_code":"624","address1":"Uthamapalayam","address2":"","latitude":"9.948","longitude":"77.3699","accuracy":"3"},{"address3":"Pottipuram","state":"Tamil Nadu","state_code":"25","district":"Theni","district_code":"624","address1":"Bodinayakanur","address2":"","latitude":"9.9401","longitude":"77.3213","accuracy":"4"},{"address3":"B.Ammapatti","state":"Tamil Nadu","state_code":"25","district":"Theni","district_code":"624","address1":"Uthamapalayam","address2":"","latitude":"9.948","longitude":"77.3699","accuracy":"3"},{"address3":"Rasingapuram","state":"Tamil Nadu","state_code":"25","district":"Theni","district_code":"624","address1":"Bodinayakanur","address2":"","latitude":"9.9448","longitude":"77.3362","accuracy":"4"},{"address3":"Silamalai","state":"Tamil Nadu","state_code":"25","district":"Theni","district_code":"624","address1":"Bodinayakanur","address2":"","latitude":"9.9621","longitude":"77.3371","accuracy":"4"}],"625529":[{"address3":"Veppanuthu","state":"Tamil Nadu","state_code":"25","district":"Madurai","district_code":"623","address1":"Usilampatti","address2":"","latitude":"9.8867","longitude":"77.3673","accuracy":"1"},{"address3":"Sindhupatti","state":"Tamil Nadu","state_code":"25","district":"Madurai","district_code":"623","address1":"Usilampatti","address2":"","latitude":"9.8867","longitude":"77.3673","accuracy":"1"},{"address3":"T.Uchapatti","state":"Tamil Nadu","state_code":"25","district":"Madurai","district_code":"623","address1":"Usilampatti","address2":"","latitude":"9.8867","longitude":"77.3673","accuracy":"1"},{"address3":"Kalappanpatti","state":"Tamil Nadu","state_code":"25","district":"Madurai","district_code":"623","address1":"Usilampatti","address2":"","latitude":"9.8867","longitude":"77.3673","accuracy":"1"},{"address3":"Poruppumettupatti","state":"Tamil Nadu","state_code":"25","district":"Madurai","district_code":"623","address1":"Usilampatti","address2":"","latitude":"9.8867","longitude":"77.3673","accuracy":"1"},{"address3":"Tidiyan","state":"Tamil Nadu","state_code":"25","district":"Madurai","district_code":"623","address1":"Usilampatti","address2":"","latitude":"9.8867","longitude":"77.3673","accuracy":"1"},{"address3":"Kattathevanpatti","state":"Tamil Nadu","state_code":"25","district":"Madurai","district_code":"623","address1":"Usilampatti","address2":"","latitude":"9.8867","longitude":"77.3673","accuracy":"1"},{"address3":"Thummagundu","state":"Tamil Nadu","state_code":"25","district":"Madurai","district_code":"623","address1":"Usilampatti","address2":"","latitude":"9.8867","longitude":"77.3673","accuracy":"1"}],"625530":[{"address3":"Thamminayakanpatti","state":"Tamil Nadu","state_code":"25","district":"Theni","district_code":"624","address1":"Uthamapalayam","address2":"","latitude":"9.914","longitude":"77.3018","accuracy":"3"},{"address3":"Sindalacherry","state":"Tamil Nadu","state_code":"25","district":"Theni","district_code":"624","address1":"Uthamapalayam","address2":"","latitude":"9.914","longitude":"77.3018","accuracy":"3"},{"address3":"Sankarapuram","state":"Tamil Nadu","state_code":"25","district":"Theni","district_code":"624","address1":"Uthamapalayam","address2":"","latitude":"9.8902","longitude":"77.4394","accuracy":"3"},{"address3":"T.Meenatchipuram","state":"Tamil Nadu","state_code":"25","district":"Theni","district_code":"624","address1":"Uthamapalayam","address2":"","latitude":"9.914","longitude":"77.3018","accuracy":"3"},{"address3":"Krishnampatti","state":"Tamil Nadu","state_code":"25","district":"Theni","district_code":"624","address1":"Uthamapalayam","address2":"","latitude":"9.9314","longitude":"77.3227","accuracy":"4"},{"address3":"Lakshminayakanpatti","state":"Tamil Nadu","state_code":"25","district":"Theni","district_code":"624","address1":"Uthamapalayam","address2":"","latitude":"9.914","longitude":"77.3018","accuracy":"3"},{"address3":"Thevaram","state":"Tamil Nadu","state_code":"25","district":"Theni","district_code":"624","address1":"Uthamapalayam","address2":"","latitude":"9.8967","longitude":"77.2809","accuracy":"4"}],"625531":[{"address3":"T.Nagar (Theni)","state":"Tamil Nadu","state_code":"25","district":"Theni","district_code":"624","address1":"Theni","address2":"","latitude":"10.0159","longitude":"77.4824","accuracy":"3"},{"address3":"Bangalamedu","state":"Tamil Nadu","state_code":"25","district":"Theni","district_code":"624","address1":"Theni","address2":"","latitude":"10.0159","longitude":"77.4824","accuracy":"3"},{"address3":"Kunnur","state":"Tamil Nadu","state_code":"25","district":"Theni","district_code":"624","address1":"Theni","address2":"","latitude":"10.0063","longitude":"77.5185","accuracy":"4"},{"address3":"Buthipuram","state":"Tamil Nadu","state_code":"25","district":"Theni","district_code":"624","address1":"Theni","address2":"","latitude":"10.0159","longitude":"77.4824","accuracy":"3"},{"address3":"Annanji","state":"Tamil Nadu","state_code":"25","district":"Theni","district_code":"624","address1":"Theni","address2":"","latitude":"10.0424","longitude":"77.5047","accuracy":"4"},{"address3":"Palanichettipatti","state":"Tamil Nadu","state_code":"25","district":"Theni","district_code":"624","address1":"Theni","address2":"","latitude":"10.0159","longitude":"77.4824","accuracy":"3"},{"address3":"Theni","state":"Tamil Nadu","state_code":"25","district":"Theni","district_code":"624","address1":"Theni","address2":"","latitude":"10.0111","longitude":"77.4777","accuracy":"4"},{"address3":"Ammatchiapuram","state":"Tamil Nadu","state_code":"25","district":"Theni","district_code":"624","address1":"Theni","address2":"","latitude":"10.0159","longitude":"77.4824","accuracy":"3"},{"address3":"Allinagaram","state":"Tamil Nadu","state_code":"25","district":"Theni","district_code":"624","address1":"Theni","address2":"","latitude":"10.0274","longitude":"77.4782","accuracy":"4"},{"address3":"Kodangipatti","state":"Tamil Nadu","state_code":"25","district":"Theni","district_code":"624","address1":"Theni","address2":"","latitude":"9.992","longitude":"77.4332","accuracy":"4"}],"625532":[{"address3":"Ariyapatti","state":"Tamil Nadu","state_code":"25","district":"Madurai","district_code":"623","address1":"Usilampatti","address2":"","latitude":"10.3958","longitude":"78.357","accuracy":"3"},{"address3":"Usilampatti","state":"Tamil Nadu","state_code":"25","district":"Madurai","district_code":"623","address1":"Usilampatti","address2":"","latitude":"10.1356","longitude":"78.3726","accuracy":"4"},{"address3":"Vadugapatti","state":"Tamil Nadu","state_code":"25","district":"Madurai","district_code":"623","address1":"Usilampatti","address2":"","latitude":"9.921","longitude":"78.0063","accuracy":"4"},{"address3":"Boothipuram","state":"Tamil Nadu","state_code":"25","district":"Madurai","district_code":"623","address1":"Usilampatti","address2":"","latitude":"10.3958","longitude":"78.357","accuracy":"3"},{"address3":"Nattamangalam","state":"Tamil Nadu","state_code":"25","district":"Madurai","district_code":"623","address1":"Usilampatti","address2":"","latitude":"9.9399","longitude":"78.2375","accuracy":"4"},{"address3":"Pothampati","state":"Tamil Nadu","state_code":"25","district":"Madurai","district_code":"623","address1":"Usilampatti","address2":"","latitude":"10.3958","longitude":"78.357","accuracy":"3"},{"address3":"Usilampatti Pettai","state":"Tamil Nadu","state_code":"25","district":"Madurai","district_code":"623","address1":"Usilampatti","address2":"","latitude":"10.3958","longitude":"78.357","accuracy":"3"},{"address3":"Valandur","state":"Tamil Nadu","state_code":"25","district":"Madurai","district_code":"623","address1":"Usilampatti","address2":"","latitude":"9.921","longitude":"78.0063","accuracy":"4"},{"address3":"Nakkalapatti","state":"Tamil Nadu","state_code":"25","district":"Madurai","district_code":"623","address1":"Usilampatti","address2":"","latitude":"9.921","longitude":"78.0063","accuracy":"3"},{"address3":"Meikilarpatti","state":"Tamil Nadu","state_code":"25","district":"Madurai","district_code":"623","address1":"Usilampatti","address2":"","latitude":"10.3958","longitude":"78.357","accuracy":"3"},{"address3":"Doddappanayakanur","state":"Tamil Nadu","state_code":"25","district":"Madurai","district_code":"623","address1":"Usilampatti","address2":"","latitude":"10.3958","longitude":"78.357","accuracy":"3"},{"address3":"Vagurani","state":"Tamil Nadu","state_code":"25","district":"Madurai","district_code":"623","address1":"Usilampatti","address2":"","latitude":"10.3958","longitude":"78.357","accuracy":"3"}],"625533":[{"address3":"U.Ammapatti","state":"Tamil Nadu","state_code":"25","district":"Theni","district_code":"624","address1":"Uthamapalayam","address2":"","latitude":"9.807","longitude":"77.3272","accuracy":"3"},{"address3":"Uthamapalayam","state":"Tamil Nadu","state_code":"25","district":"Theni","district_code":"624","address1":"Uthamapalayam","address2":"","latitude":"9.807","longitude":"77.3272","accuracy":"4"},{"address3":"Uthamapalayam Bazar","state":"Tamil Nadu","state_code":"25","district":"Theni","district_code":"624","address1":"Uthamapalayam","address2":"","latitude":"9.807","longitude":"77.3272","accuracy":"3"},{"address3":"Uthamapalayam West","state":"Tamil Nadu","state_code":"25","district":"Theni","district_code":"624","address1":"Uthamapalayam","address2":"","latitude":"9.807","longitude":"77.3272","accuracy":"3"},{"address3":"Hanumanthanpatti","state":"Tamil Nadu","state_code":"25","district":"Theni","district_code":"624","address1":"Uthamapalayam","address2":"","latitude":"9.807","longitude":"77.3272","accuracy":"3"}],"625534":[{"address3":"Gopalapuram","state":"Tamil Nadu","state_code":"25","district":"Theni","district_code":"624","address1":"Bodinayakanur","address2":"","latitude":"9.8902","longitude":"77.4394","accuracy":"4"},{"address3":"Venkatachalapuram","state":"Tamil Nadu","state_code":"25","district":"Theni","district_code":"624","address1":"Theni","address2":"","latitude":"9.9183","longitude":"77.473","accuracy":"4"},{"address3":"Veerapandi (Theni)","state":"Tamil Nadu","state_code":"25","district":"Theni","district_code":"624","address1":"Bodinayakanur","address2":"","latitude":"9.9262","longitude":"77.4976","accuracy":"3"},{"address3":"Upparpatti","state":"Tamil Nadu","state_code":"25","district":"Theni","district_code":"624","address1":"Theni","address2":"","latitude":"9.954","longitude":"77.4194","accuracy":"4"},{"address3":"Kottur","state":"Tamil Nadu","state_code":"25","district":"Theni","district_code":"624","address1":"Theni","address2":"","latitude":"9.9038","longitude":"77.4071","accuracy":"4"},{"address3":"Tadichery","state":"Tamil Nadu","state_code":"25","district":"Theni","district_code":"624","address1":"Theni","address2":"","latitude":"9.9262","longitude":"77.4976","accuracy":"3"},{"address3":"Koduvilarpatti","state":"Tamil Nadu","state_code":"25","district":"Theni","district_code":"624","address1":"Theni","address2":"","latitude":"9.9695","longitude":"77.4915","accuracy":"4"},{"address3":"Uppukottai","state":"Tamil Nadu","state_code":"25","district":"Theni","district_code":"624","address1":"Theni","address2":"","latitude":"9.9262","longitude":"77.4976","accuracy":"3"},{"address3":"Srirengapuram","state":"Tamil Nadu","state_code":"25","district":"Theni","district_code":"624","address1":"Bodinayakanur","address2":"","latitude":"9.9262","longitude":"77.4976","accuracy":"3"}],"625535":[{"address3":"T.Ramanathapuram","state":"Tamil Nadu","state_code":"25","district":"Madurai","district_code":"623","address1":"Usilampatti","address2":"","latitude":"9.8337","longitude":"77.6787","accuracy":"3"},{"address3":"Sulapuram","state":"Tamil Nadu","state_code":"25","district":"Madurai","district_code":"623","address1":"Peraiyur","address2":"","latitude":"9.8378","longitude":"77.686","accuracy":"4"},{"address3":"Uthapuram","state":"Tamil Nadu","state_code":"25","district":"Madurai","district_code":"623","address1":"Peraiyur","address2":"","latitude":"9.8337","longitude":"77.6787","accuracy":"3"},{"address3":"Mallapuram","state":"Tamil Nadu","state_code":"25","district":"Madurai","district_code":"623","address1":"Peraiyur","address2":"","latitude":"9.8296","longitude":"77.6713","accuracy":"4"},{"address3":"Yelumalai","state":"Tamil Nadu","state_code":"25","district":"Madurai","district_code":"623","address1":"Peraiyur","address2":"","latitude":"9.8337","longitude":"77.6787","accuracy":"3"},{"address3":"Seelnayakanpatti","state":"Tamil Nadu","state_code":"25","district":"Madurai","district_code":"623","address1":"Peraiyur","address2":"","latitude":"9.8337","longitude":"77.6787","accuracy":"3"},{"address3":"Thadayampatti","state":"Tamil Nadu","state_code":"25","district":"Madurai","district_code":"623","address1":"Peraiyur","address2":"","latitude":"9.8337","longitude":"77.6787","accuracy":"3"},{"address3":"Jothilnayakanur","state":"Tamil Nadu","state_code":"25","district":"Madurai","district_code":"623","address1":"Peraiyur","address2":"","latitude":"9.8337","longitude":"77.6787","accuracy":"3"},{"address3":"M.Kallupatti","state":"Tamil Nadu","state_code":"25","district":"Madurai","district_code":"623","address1":"Usilampatti","address2":"","latitude":"9.8337","longitude":"77.6787","accuracy":"3"},{"address3":"E.Kottapatty","state":"Tamil Nadu","state_code":"25","district":"Madurai","district_code":"623","address1":"Peraiyur","address2":"","latitude":"9.8337","longitude":"77.6787","accuracy":"3"},{"address3":"Tirumanickam","state":"Tamil Nadu","state_code":"25","district":"Madurai","district_code":"623","address1":"Peraiyur","address2":"","latitude":"9.8337","longitude":"77.6787","accuracy":"3"}],"625536":[{"address3":"T.V.Renganathapuram","state":"Tamil Nadu","state_code":"25","district":"Theni","district_code":"624","address1":"Andipatti","address2":"","latitude":"10.0069","longitude":"77.6451","accuracy":"3"},{"address3":"Pullimankombai","state":"Tamil Nadu","state_code":"25","district":"Theni","district_code":"624","address1":"Andipatti","address2":"","latitude":"10.0069","longitude":"77.6451","accuracy":"3"},{"address3":"Rajagopalanpatti","state":"Tamil Nadu","state_code":"25","district":"Theni","district_code":"624","address1":"Andipatti","address2":"","latitude":"10.0069","longitude":"77.6451","accuracy":"4"},{"address3":"Thimmarasanayakanur","state":"Tamil Nadu","state_code":"25","district":"Theni","district_code":"624","address1":"Andipatti","address2":"","latitude":"10.0069","longitude":"77.6451","accuracy":"3"},{"address3":"Bodidasanpatti","state":"Tamil Nadu","state_code":"25","district":"Theni","district_code":"624","address1":"Andipatti","address2":"","latitude":"10.0069","longitude":"77.6451","accuracy":"3"},{"address3":"Ethakovil","state":"Tamil Nadu","state_code":"25","district":"Theni","district_code":"624","address1":"Andipatti","address2":"","latitude":"10.0069","longitude":"77.6451","accuracy":"3"},{"address3":"T.Subbulapuram","state":"Tamil Nadu","state_code":"25","district":"Theni","district_code":"624","address1":"Aundipatti","address2":"","latitude":"10.0069","longitude":"77.6451","accuracy":"3"},{"address3":"P.Dharmathupatti","state":"Tamil Nadu","state_code":"25","district":"Theni","district_code":"624","address1":"Andipatti","address2":"","latitude":"10.0069","longitude":"77.6451","accuracy":"3"}],"625537":[{"address3":"Ayyanarkulam","state":"Tamil Nadu","state_code":"25","district":"Madurai","district_code":"623","address1":"Usilampatti","address2":"","latitude":"9.921","longitude":"78.0063","accuracy":"4"},{"address3":"Pappapatti","state":"Tamil Nadu","state_code":"25","district":"Madurai","district_code":"623","address1":"Usilampatti","address2":"","latitude":"9.921","longitude":"78.0063","accuracy":"4"},{"address3":"Thimmanatham","state":"Tamil Nadu","state_code":"25","district":"Madurai","district_code":"623","address1":"Usilampatti","address2":"","latitude":"10.0574","longitude":"78.436","accuracy":"3"},{"address3":"Kalluthu","state":"Tamil Nadu","state_code":"25","district":"Madurai","district_code":"623","address1":"Usilampatti","address2":"","latitude":"10.0574","longitude":"78.436","accuracy":"3"},{"address3":"Eravarpatti","state":"Tamil Nadu","state_code":"25","district":"Madurai","district_code":"623","address1":"Usilampatti","address2":"","latitude":"10.0574","longitude":"78.436","accuracy":"3"},{"address3":"Uthappanayakanur","state":"Tamil Nadu","state_code":"25","district":"Madurai","district_code":"623","address1":"Usilampatti","address2":"","latitude":"10.0574","longitude":"78.436","accuracy":"3"},{"address3":"Kuravagudi","state":"Tamil Nadu","state_code":"25","district":"Madurai","district_code":"623","address1":"Usilampatti","address2":"","latitude":"10.0574","longitude":"78.436","accuracy":"3"},{"address3":"Vellamalaipatti","state":"Tamil Nadu","state_code":"25","district":"Madurai","district_code":"623","address1":"Usilampatti","address2":"","latitude":"10.0574","longitude":"78.436","accuracy":"3"}],"625540":[{"address3":"Seepalakottai","state":"Tamil Nadu","state_code":"25","district":"Theni","district_code":"624","address1":"Uthamapalayam","address2":"","latitude":"9.8286","longitude":"77.4352","accuracy":"3"},{"address3":"Odaipatti","state":"Tamil Nadu","state_code":"25","district":"Theni","district_code":"624","address1":"Uthamapalayam","address2":"","latitude":"9.8323","longitude":"77.4433","accuracy":"4"},{"address3":"Vellaiyammalpuram","state":"Tamil Nadu","state_code":"25","district":"Theni","district_code":"624","address1":"Uthamapalayam","address2":"","latitude":"9.8152","longitude":"77.43","accuracy":"4"},{"address3":"Sukkangalpatti","state":"Tamil Nadu","state_code":"25","district":"Theni","district_code":"624","address1":"Uthamapalayam","address2":"","latitude":"9.8382","longitude":"77.4322","accuracy":"4"}],"625556":[{"address3":"C.Pudupatti","state":"Tamil Nadu","state_code":"25","district":"Theni","district_code":"624","address1":"Uthamapalayam","address2":"","latitude":"9.9392","longitude":"77.7329","accuracy":"1"}],"625562":[{"address3":"Varadharajnagar","state":"Tamil Nadu","state_code":"25","district":"Theni","district_code":"624","address1":"Periyakulam","address2":"","latitude":"9.6187","longitude":"77.7572","accuracy":"3"},{"address3":"Gullapuram","state":"Tamil Nadu","state_code":"25","district":"Theni","district_code":"624","address1":"Periyakulam","address2":"","latitude":"10.0657","longitude":"77.6446","accuracy":"4"},{"address3":"Koilpatti","state":"Tamil Nadu","state_code":"25","district":"Theni","district_code":"624","address1":"Periyakulam","address2":"","latitude":"9.8902","longitude":"77.4394","accuracy":"4"},{"address3":"Vaigaidamsite","state":"Tamil Nadu","state_code":"25","district":"Theni","district_code":"624","address1":"Periyakulam","address2":"","latitude":"9.6187","longitude":"77.7572","accuracy":"3"},{"address3":"Vaigaiproject","state":"Tamil Nadu","state_code":"25","district":"Theni","district_code":"624","address1":"Periyakulam","address2":"","latitude":"9.6187","longitude":"77.7572","accuracy":"3"},{"address3":"Rengasamudram","state":"Tamil Nadu","state_code":"25","district":"Theni","district_code":"624","address1":"Periyakulam","address2":"","latitude":"9.6187","longitude":"77.7572","accuracy":"3"}],"625579":[{"address3":"Siraparai","state":"Tamil Nadu","state_code":"25","district":"Theni","district_code":"624","address1":"Andipatti","address2":"","latitude":"9.9392","longitude":"77.7329","accuracy":"1"},{"address3":"Thummagundu","state":"Tamil Nadu","state_code":"25","district":"Theni","district_code":"624","address1":"Andipatti","address2":"","latitude":"9.9392","longitude":"77.7329","accuracy":"1"},{"address3":"Varushanadu","state":"Tamil Nadu","state_code":"25","district":"Theni","district_code":"624","address1":"Andipatti","address2":"","latitude":"9.9392","longitude":"77.7329","accuracy":"1"},{"address3":"Kadamalaikundu","state":"Tamil Nadu","state_code":"25","district":"Theni","district_code":"624","address1":"Aundipatti","address2":"","latitude":"9.9392","longitude":"77.7329","accuracy":"1"},{"address3":"Poosanuthu","state":"Tamil Nadu","state_code":"25","district":"Theni","district_code":"624","address1":"Andipatti","address2":"","latitude":"9.9392","longitude":"77.7329","accuracy":"1"},{"address3":"Moolakadai","state":"Tamil Nadu","state_code":"25","district":"Theni","district_code":"624","address1":"Andipatti","address2":"","latitude":"9.8902","longitude":"77.4394","accuracy":"1"},{"address3":"Kombaitholu","state":"Tamil Nadu","state_code":"25","district":"Theni","district_code":"624","address1":"Andipatti","address2":"","latitude":"9.9392","longitude":"77.7329","accuracy":"1"},{"address3":"Kovilparai","state":"Tamil Nadu","state_code":"25","district":"Theni","district_code":"624","address1":"Andipatti","address2":"","latitude":"9.9392","longitude":"77.7329","accuracy":"1"},{"address3":"Kumizhantholu","state":"Tamil Nadu","state_code":"25","district":"Theni","district_code":"624","address1":"Andipatti","address2":"","latitude":"9.9392","longitude":"77.7329","accuracy":"1"},{"address3":"Mayiladumparai","state":"Tamil Nadu","state_code":"25","district":"Theni","district_code":"624","address1":"Andipatti","address2":"","latitude":"9.9392","longitude":"77.7329","accuracy":"1"},{"address3":"Thangammalpuram","state":"Tamil Nadu","state_code":"25","district":"Theni","district_code":"624","address1":"Andipatti","address2":"","latitude":"9.9392","longitude":"77.7329","accuracy":"1"}],"625582":[{"address3":"Kottagudi","state":"Tamil Nadu","state_code":"25","district":"Theni","district_code":"624","address1":"Bodinayakanur","address2":"","latitude":"10.0789","longitude":"77.2623","accuracy":"4"},{"address3":"Melachokkanathapuram","state":"Tamil Nadu","state_code":"25","district":"Theni","district_code":"624","address1":"Bodinayakanur","address2":"","latitude":"9.5569","longitude":"77.5544","accuracy":"3"},{"address3":"Kamarajapuram","state":"Tamil Nadu","state_code":"25","district":"Theni","district_code":"624","address1":"Bodinayakanur","address2":"","latitude":"9.9741","longitude":"77.4051","accuracy":"4"},{"address3":"Anaikaraipatti","state":"Tamil Nadu","state_code":"25","district":"Theni","district_code":"624","address1":"Bodinayakanur","address2":"","latitude":"9.5569","longitude":"77.5544","accuracy":"3"},{"address3":"Kurangani","state":"Tamil Nadu","state_code":"25","district":"Theni","district_code":"624","address1":"Bodinayakanur","address2":"","latitude":"9.8902","longitude":"77.4394","accuracy":"4"},{"address3":"Bodimettu","state":"Tamil Nadu","state_code":"25","district":"Theni","district_code":"624","address1":"Bodinayakanur","address2":"","latitude":"9.5569","longitude":"77.5544","accuracy":"3"},{"address3":"Bodinayakanur R.S.","state":"Tamil Nadu","state_code":"25","district":"Theni","district_code":"624","address1":"Bodinayakanur","address2":"","latitude":"9.5569","longitude":"77.5544","accuracy":"3"},{"address3":"Subburajnagar","state":"Tamil Nadu","state_code":"25","district":"Theni","district_code":"624","address1":"Bodinayakanur","address2":"","latitude":"9.5569","longitude":"77.5544","accuracy":"3"},{"address3":"Dombcherry","state":"Tamil Nadu","state_code":"25","district":"Theni","district_code":"624","address1":"Bodinayakanur","address2":"","latitude":"9.5569","longitude":"77.5544","accuracy":"3"},{"address3":"Central Station","state":"Tamil Nadu","state_code":"25","district":"Theni","district_code":"624","address1":"Bodinayakanur","address2":"","latitude":"9.5569","longitude":"77.5544","accuracy":"3"},{"address3":"B.Meenakshipuram","state":"Tamil Nadu","state_code":"25","district":"Theni","district_code":"624","address1":"Bodinayakanur","address2":"","latitude":"9.5569","longitude":"77.5544","accuracy":"3"}],"625601":[{"address3":"Vadagarai","state":"Tamil Nadu","state_code":"25","district":"Theni","district_code":"624","address1":"Periyakulam","address2":"","latitude":"9.8902","longitude":"77.4394","accuracy":"4"},{"address3":"Periyakulam Bazaar","state":"Tamil Nadu","state_code":"25","district":"Theni","district_code":"624","address1":"Periyakulam","address2":"","latitude":"9.776","longitude":"77.7376","accuracy":"3"},{"address3":"Periyakulam H.O","state":"Tamil Nadu","state_code":"25","district":"Theni","district_code":"624","address1":"Periyakulam","address2":"","latitude":"9.776","longitude":"77.7376","accuracy":"3"}],"625602":[{"address3":"Silvarpatti","state":"Tamil Nadu","state_code":"25","district":"Theni","district_code":"624","address1":"Periyakulam","address2":"","latitude":"9.8994","longitude":"77.2904","accuracy":"4"},{"address3":"Bomminayakanpatti","state":"Tamil Nadu","state_code":"25","district":"Theni","district_code":"624","address1":"Periyakulam","address2":"","latitude":"10.0231","longitude":"77.4671","accuracy":"3"},{"address3":"Erumalainayakanpatti","state":"Tamil Nadu","state_code":"25","district":"Theni","district_code":"624","address1":"Periyakulam","address2":"","latitude":"10.0231","longitude":"77.4671","accuracy":"3"},{"address3":"Devadanapatti","state":"Tamil Nadu","state_code":"25","district":"Theni","district_code":"624","address1":"Periyakulam","address2":"","latitude":"10.1467","longitude":"77.6439","accuracy":"4"},{"address3":"Manjalar Dam","state":"Tamil Nadu","state_code":"25","district":"Theni","district_code":"624","address1":"Periyakulam","address2":"","latitude":"10.0231","longitude":"77.4671","accuracy":"3"},{"address3":"Sathakoilpatti","state":"Tamil Nadu","state_code":"25","district":"Theni","district_code":"624","address1":"Periyakulam","address2":"","latitude":"10.0231","longitude":"77.4671","accuracy":"3"},{"address3":"A.Vadipatti","state":"Tamil Nadu","state_code":"25","district":"Theni","district_code":"624","address1":"Periyakulam","address2":"","latitude":"10.0231","longitude":"77.4671","accuracy":"3"}],"625603":[{"address3":"Vadugapatti","state":"Tamil Nadu","state_code":"25","district":"Theni","district_code":"624","address1":"Periyakulam","address2":"","latitude":"9.8902","longitude":"77.4394","accuracy":"4"},{"address3":"Melmangalam","state":"Tamil Nadu","state_code":"25","district":"Theni","district_code":"624","address1":"Periyakulam","address2":"","latitude":"10.1015","longitude":"77.5811","accuracy":"4"},{"address3":"Jeyamangalam","state":"Tamil Nadu","state_code":"25","district":"Theni","district_code":"624","address1":"Periyakulam","address2":"","latitude":"9.712","longitude":"77.5237","accuracy":"3"}],"625604":[{"address3":"Nallakaruppanpatti","state":"Tamil Nadu","state_code":"25","district":"Theni","district_code":"624","address1":"Periyakulam","address2":"","latitude":"10.1197","longitude":"77.6089","accuracy":"4"},{"address3":"Periyakulam East","state":"Tamil Nadu","state_code":"25","district":"Theni","district_code":"624","address1":"Periyakulam","address2":"","latitude":"10.1197","longitude":"77.6089","accuracy":"3"},{"address3":"Endapuli","state":"Tamil Nadu","state_code":"25","district":"Theni","district_code":"624","address1":"Periyakulam","address2":"","latitude":"10.1197","longitude":"77.6089","accuracy":"3"}],"625605":[{"address3":"Agamalai","state":"Tamil Nadu","state_code":"25","district":"Theni","district_code":"624","address1":"Periyakulam","address2":"","latitude":"10.1094","longitude":"77.4216","accuracy":"4"},{"address3":"Tamarakulam","state":"Tamil Nadu","state_code":"25","district":"Theni","district_code":"624","address1":"Periyakulam","address2":"","latitude":"9.8902","longitude":"77.4394","accuracy":"4"},{"address3":"Murugamalainagar","state":"Tamil Nadu","state_code":"25","district":"Theni","district_code":"624","address1":"Periyakulam","address2":"","latitude":"9.121","longitude":"77.4532","accuracy":"3"},