{"626001":[{"address3":"Virudhunagar Extension","state":"Tamil Nadu","state_code":"25","district":"Virudhunagar","district_code":"625","address1":"Virudhunagar","address2":"","latitude":"10.9844","longitude":"78.4673","accuracy":"1"},{"address3":"Virudhunagar Town","state":"Tamil Nadu","state_code":"25","district":"Virudhunagar","district_code":"625","address1":"Virudhunagar","address2":"","latitude":"10.9844","longitude":"78.4673","accuracy":"1"},{"address3":"Virudhunagar Bus Stand","state":"Tamil Nadu","state_code":"25","district":"Virudhunagar","district_code":"625","address1":"Virudhunagar","address2":"","latitude":"10.9844","longitude":"78.4673","accuracy":"1"},{"address3":"Virudhunagar H.O","state":"Tamil Nadu","state_code":"25","district":"Virudhunagar","district_code":"625","address1":"Virudhunagar","address2":"","latitude":"10.9844","longitude":"78.4673","accuracy":"1"},{"address3":"Kamaraj Nagar","state":"Tamil Nadu","state_code":"25","district":"Virudhunagar","district_code":"625","address1":"Virudhunagar","address2":"","latitude":"10.9844","longitude":"78.4673","accuracy":"1"},{"address3":"Kooraikundu","state":"Tamil Nadu","state_code":"25","district":"Virudhunagar","district_code":"625","address1":"Vriudhunagar","address2":"","latitude":"10.9844","longitude":"78.4673","accuracy":"1"},{"address3":"Virudhunagar Bazaar","state":"Tamil Nadu","state_code":"25","district":"Virudhunagar","district_code":"625","address1":"Virudhunagar","address2":"","latitude":"10.9844","longitude":"78.4673","accuracy":"1"},{"address3":"Virudhunagar North","state":"Tamil Nadu","state_code":"25","district":"Virudhunagar","district_code":"625","address1":"Virudhunagar","address2":"","latitude":"10.9844","longitude":"78.4673","accuracy":"1"}],"626002":[{"address3":"Virudhunagar Collectorate","state":"Tamil Nadu","state_code":"25","district":"Virudhunagar","district_code":"625","address1":"Virudhunagar","address2":"","latitude":"10.9844","longitude":"78.4673","accuracy":"1"},{"address3":"Vadamalaikurichi","state":"Tamil Nadu","state_code":"25","district":"Virudhunagar","district_code":"625","address1":"Virudhunagar","address2":"","latitude":"10.9844","longitude":"78.4673","accuracy":"1"},{"address3":"Kokkalanjeri","state":"Tamil Nadu","state_code":"25","district":"Virudhunagar","district_code":"625","address1":"Virudhunagar","address2":"","latitude":"10.9844","longitude":"78.4673","accuracy":"1"},{"address3":"Chatrareddiapatti","state":"Tamil Nadu","state_code":"25","district":"Virudhunagar","district_code":"625","address1":"Virudhunagar","address2":"","latitude":"10.9844","longitude":"78.4673","accuracy":"1"}],"626003":[{"address3":"Inamreddiapatti","state":"Tamil Nadu","state_code":"25","district":"Virudhunagar","district_code":"625","address1":"Virudhunagar","address2":"","latitude":"10.9844","longitude":"78.4673","accuracy":"1"},{"address3":"Virudhunagar Industrial Estate","state":"Tamil Nadu","state_code":"25","district":"Virudhunagar","district_code":"625","address1":"Virudhunagar","address2":"","latitude":"10.9844","longitude":"78.4673","accuracy":"1"},{"address3":"Meesalur","state":"Tamil Nadu","state_code":"25","district":"Virudhunagar","district_code":"625","address1":"Virudhunagar","address2":"","latitude":"10.9844","longitude":"78.4673","accuracy":"1"},{"address3":"Pattampudur","state":"Tamil Nadu","state_code":"25","district":"Virudhunagar","district_code":"625","address1":"Virudhunagar","address2":"","latitude":"10.9844","longitude":"78.4673","accuracy":"1"},{"address3":"Soolakkarai","state":"Tamil Nadu","state_code":"25","district":"Virudhunagar","district_code":"625","address1":"Virudhunagar","address2":"","latitude":"10.9844","longitude":"78.4673","accuracy":"1"}],"626004":[{"address3":"Sennelgudi","state":"Tamil Nadu","state_code":"25","district":"Virudhunagar","district_code":"625","address1":"Aruppukkottai","address2":"","latitude":"9.4825","longitude":"78.0053","accuracy":"3"},{"address3":"Malaipatti","state":"Tamil Nadu","state_code":"25","district":"Virudhunagar","district_code":"625","address1":"Aruppukkottai","address2":"","latitude":"9.4825","longitude":"78.0053","accuracy":"4"},{"address3":"Palavantham","state":"Tamil Nadu","state_code":"25","district":"Virudhunagar","district_code":"625","address1":"Aruppukottai","address2":"","latitude":"9.4825","longitude":"78.0053","accuracy":"3"},{"address3":"Kullursandai","state":"Tamil Nadu","state_code":"25","district":"Virudhunagar","district_code":"625","address1":"NA","address2":"","latitude":"9.4825","longitude":"78.0053","accuracy":"3"},{"address3":"Periavallikulam","state":"Tamil Nadu","state_code":"25","district":"Virudhunagar","district_code":"625","address1":"Aruppukkottai","address2":"","latitude":"9.4825","longitude":"78.0053","accuracy":"3"},{"address3":"Mettugundu","state":"Tamil Nadu","state_code":"25","district":"Virudhunagar","district_code":"625","address1":"Virudhunagar","address2":"","latitude":"9.4825","longitude":"78.0053","accuracy":"3"}],"626005":[{"address3":"Mullipatti","state":"Tamil Nadu","state_code":"25","district":"Virudhunagar","district_code":"625","address1":"Virudhunagar","address2":"","latitude":"9.4841","longitude":"77.9428","accuracy":"4"},{"address3":"Vellur","state":"Tamil Nadu","state_code":"25","district":"Virudhunagar","district_code":"625","address1":"Virudhunagar","address2":"","latitude":"9.4841","longitude":"77.9428","accuracy":"4"},{"address3":"Amathur","state":"Tamil Nadu","state_code":"25","district":"Virudhunagar","district_code":"625","address1":"Virudhunagar","address2":"","latitude":"11.7353","longitude":"78.6982","accuracy":"3"},{"address3":"Mepco.Engg.College","state":"Tamil Nadu","state_code":"25","district":"Virudhunagar","district_code":"625","address1":"Virudhunagar","address2":"","latitude":"11.7353","longitude":"78.6982","accuracy":"3"},{"address3":"Valliyur","state":"Tamil Nadu","state_code":"25","district":"Virudhunagar","district_code":"625","address1":"Virudhunagar","address2":"","latitude":"11.7353","longitude":"78.6982","accuracy":"3"}],"626101":[{"address3":"Aruppukottai West","state":"Tamil Nadu","state_code":"25","district":"Virudhunagar","district_code":"625","address1":"Aruppukkottai","address2":"","latitude":"9.5287","longitude":"78.1321","accuracy":"1"},{"address3":"Aruppukottai Court","state":"Tamil Nadu","state_code":"25","district":"Virudhunagar","district_code":"625","address1":"Aruppukottai","address2":"","latitude":"9.5287","longitude":"78.1321","accuracy":"1"},{"address3":"Aruppukottai Nehru Maidanam","state":"Tamil Nadu","state_code":"25","district":"Virudhunagar","district_code":"625","address1":"Aruppukkottai","address2":"","latitude":"9.5287","longitude":"78.1321","accuracy":"1"},{"address3":"Aruppukottai H.O","state":"Tamil Nadu","state_code":"25","district":"Virudhunagar","district_code":"625","address1":"Aruppukkottai","address2":"","latitude":"9.5287","longitude":"78.1321","accuracy":"1"},{"address3":"Aruppukottai East","state":"Tamil Nadu","state_code":"25","district":"Virudhunagar","district_code":"625","address1":"Aruppukkottai","address2":"","latitude":"9.5287","longitude":"78.1321","accuracy":"1"},{"address3":"Aruppukottai Bazzar","state":"Tamil Nadu","state_code":"25","district":"Virudhunagar","district_code":"625","address1":"Aruppukkottai","address2":"","latitude":"9.5287","longitude":"78.1321","accuracy":"1"}],"626102":[{"address3":"Nathampatti","state":"Tamil Nadu","state_code":"25","district":"Virudhunagar","district_code":"625","address1":"Srivilliputtur","address2":"","latitude":"9.4825","longitude":"78.0053","accuracy":"3"},{"address3":"Ramalingapuram","state":"Tamil Nadu","state_code":"25","district":"Virudhunagar","district_code":"625","address1":"Sattur","address2":"","latitude":"9.4825","longitude":"78.0053","accuracy":"4"},{"address3":"Chatrapatti (Virudhunagar)","state":"Tamil Nadu","state_code":"25","district":"Virudhunagar","district_code":"625","address1":"Sattur","address2":"","latitude":"9.4825","longitude":"78.0053","accuracy":"3"},{"address3":"Nallamanaickenpatti","state":"Tamil Nadu","state_code":"25","district":"Virudhunagar","district_code":"625","address1":"Rajapalayam","address2":"","latitude":"9.4825","longitude":"78.0053","accuracy":"3"},{"address3":"Samsigapuram","state":"Tamil Nadu","state_code":"25","district":"Virudhunagar","district_code":"625","address1":"Rajapalayam","address2":"","latitude":"9.4825","longitude":"78.0053","accuracy":"3"}],"626103":[{"address3":"Pudukottai","state":"Tamil Nadu","state_code":"25","district":"Virudhunagar","district_code":"625","address1":"Sivakasi","address2":"","latitude":"9.4841","longitude":"77.9428","accuracy":"4"},{"address3":"Pavali","state":"Tamil Nadu","state_code":"25","district":"Virudhunagar","district_code":"625","address1":"Virudhunagar","address2":"","latitude":"10.3813","longitude":"78.8214","accuracy":"3"},{"address3":"Sengundrapuram","state":"Tamil Nadu","state_code":"25","district":"Virudhunagar","district_code":"625","address1":"Virudhunagar","address2":"","latitude":"10.3813","longitude":"78.8214","accuracy":"3"},{"address3":"Erichanatham","state":"Tamil Nadu","state_code":"25","district":"Virudhunagar","district_code":"625","address1":"Sivakasi","address2":"","latitude":"10.3813","longitude":"78.8214","accuracy":"3"}],"626104":[{"address3":"Manthoppu","state":"Tamil Nadu","state_code":"25","district":"Virudhunagar","district_code":"625","address1":"Kariapatti","address2":"","latitude":"9.6307","longitude":"78.0971","accuracy":"3"},{"address3":"Vakkanangundu","state":"Tamil Nadu","state_code":"25","district":"Virudhunagar","district_code":"625","address1":"Kariapatti","address2":"","latitude":"9.6307","longitude":"78.0971","accuracy":"4"},{"address3":"Kalkurichi","state":"Tamil Nadu","state_code":"25","district":"Virudhunagar","district_code":"625","address1":"Kariapatti","address2":"","latitude":"9.6307","longitude":"78.0971","accuracy":"3"},{"address3":"Perunjalai Pudupatti","state":"Tamil Nadu","state_code":"25","district":"Virudhunagar","district_code":"625","address1":"Kariapatti","address2":"","latitude":"9.6307","longitude":"78.0971","accuracy":"3"}],"626105":[{"address3":"Sembatti","state":"Tamil Nadu","state_code":"25","district":"Virudhunagar","district_code":"625","address1":"Aruppukottai","address2":"","latitude":"9.5109","longitude":"78.1315","accuracy":"4"},{"address3":"Puliyuran","state":"Tamil Nadu","state_code":"25","district":"Virudhunagar","district_code":"625","address1":"Aruppukottai","address2":"","latitude":"9.5246","longitude":"78.1481","accuracy":"4"},{"address3":"Kalayar Karisalkulam","state":"Tamil Nadu","state_code":"25","district":"Virudhunagar","district_code":"625","address1":"Aruppukottai","address2":"","latitude":"9.5016","longitude":"78.1474","accuracy":"3"},{"address3":"Kallurani","state":"Tamil Nadu","state_code":"25","district":"Virudhunagar","district_code":"625","address1":"Aruppukottai","address2":"","latitude":"9.4694","longitude":"78.1625","accuracy":"4"},{"address3":"Ramasamy Nagar","state":"Tamil Nadu","state_code":"25","district":"Virudhunagar","district_code":"625","address1":"Aruppukkottai","address2":"","latitude":"9.5016","longitude":"78.1474","accuracy":"3"}],"626106":[{"address3":"Allalaperi","state":"Tamil Nadu","state_code":"25","district":"Virudhunagar","district_code":"625","address1":"Kariapatti","address2":"","latitude":"9.6498","longitude":"78.1797","accuracy":"4"},{"address3":"Vairavanangoor","state":"Tamil Nadu","state_code":"25","district":"Virudhunagar","district_code":"625","address1":"Kariapatti","address2":"","latitude":"9.6614","longitude":"78.1599","accuracy":"3"},{"address3":"Kariapatti","state":"Tamil Nadu","state_code":"25","district":"Virudhunagar","district_code":"625","address1":"Kariapatti","address2":"","latitude":"9.675","longitude":"78.0999","accuracy":"4"},{"address3":"Pampatti","state":"Tamil Nadu","state_code":"25","district":"Virudhunagar","district_code":"625","address1":"Kariapatti","address2":"","latitude":"9.6614","longitude":"78.1599","accuracy":"3"},{"address3":"Mudukkankulam","state":"Tamil Nadu","state_code":"25","district":"Virudhunagar","district_code":"625","address1":"NA","address2":"","latitude":"9.6593","longitude":"78.2001","accuracy":"4"},{"address3":"Musttakurichi","state":"Tamil Nadu","state_code":"25","district":"Virudhunagar","district_code":"625","address1":"Kariapatti","address2":"","latitude":"9.6614","longitude":"78.1599","accuracy":"3"},{"address3":"Chithunundradaippu","state":"Tamil Nadu","state_code":"25","district":"Virudhunagar","district_code":"625","address1":"Kariapatti","address2":"","latitude":"9.6614","longitude":"78.1599","accuracy":"3"},{"address3":"Chatrapuliyankulam","state":"Tamil Nadu","state_code":"25","district":"Virudhunagar","district_code":"625","address1":"Kariapatti","address2":"","latitude":"9.6614","longitude":"78.1599","accuracy":"3"}],"626107":[{"address3":"Kattangudi","state":"Tamil Nadu","state_code":"25","district":"Virudhunagar","district_code":"625","address1":"Aruppukottai","address2":"","latitude":"9.5287","longitude":"78.1321","accuracy":"1"},{"address3":"Kovilangulam","state":"Tamil Nadu","state_code":"25","district":"Virudhunagar","district_code":"625","address1":"Aruppukottai","address2":"","latitude":"9.5287","longitude":"78.1321","accuracy":"1"}],"626108":[{"address3":"Kumarasamy Raja Nagar","state":"Tamil Nadu","state_code":"25","district":"Virudhunagar","district_code":"625","address1":"Rajapalayam","address2":"","latitude":"8.3031","longitude":"77.4753","accuracy":"3"},{"address3":"Chockalingapuram","state":"Tamil Nadu","state_code":"25","district":"Virudhunagar","district_code":"625","address1":"Rajapalayam","address2":"","latitude":"9.4841","longitude":"77.9428","accuracy":"4"}],"626109":[{"address3":"Mallanginar","state":"Tamil Nadu","state_code":"25","district":"Virudhunagar","district_code":"625","address1":"Kariapatti","address2":"","latitude":"9.5287","longitude":"78.1321","accuracy":"1"},{"address3":"Villipathiri","state":"Tamil Nadu","state_code":"25","district":"Virudhunagar","district_code":"625","address1":"Aruppukottai","address2":"","latitude":"9.5287","longitude":"78.1321","accuracy":"1"},{"address3":"Alagianallur","state":"Tamil Nadu","state_code":"25","district":"Virudhunagar","district_code":"625","address1":"Kariapatti","address2":"","latitude":"9.5287","longitude":"78.1321","accuracy":"1"},{"address3":"Melathulukkankulam","state":"Tamil Nadu","state_code":"25","district":"Virudhunagar","district_code":"625","address1":"Kariapatti","address2":"","latitude":"9.5287","longitude":"78.1321","accuracy":"1"},{"address3":"Periaperali","state":"Tamil Nadu","state_code":"25","district":"Virudhunagar","district_code":"625","address1":"Virudhunagar","address2":"","latitude":"9.5287","longitude":"78.1321","accuracy":"1"}],"626110":[{"address3":"Melapattamkarisalkulam","state":"Tamil Nadu","state_code":"25","district":"Virudhunagar","district_code":"625","address1":"Rajapalayam","address2":"","latitude":"9.443","longitude":"77.8389","accuracy":"1"},{"address3":"Mohamed Sahibpuram","state":"Tamil Nadu","state_code":"25","district":"Virudhunagar","district_code":"625","address1":"Rajapalayam","address2":"","latitude":"9.443","longitude":"77.8389","accuracy":"1"}],"626111":[{"address3":"Meenakshipuram","state":"Tamil Nadu","state_code":"25","district":"Virudhunagar","district_code":"625","address1":"Rajapalayam","address2":"","latitude":"9.4116","longitude":"77.5586","accuracy":"3"},{"address3":"Puthur","state":"Tamil Nadu","state_code":"25","district":"Virudhunagar","district_code":"625","address1":"Rajapalayam","address2":"","latitude":"9.4775","longitude":"77.6896","accuracy":"4"},{"address3":"Pottalpatti","state":"Tamil Nadu","state_code":"25","district":"Virudhunagar","district_code":"625","address1":"Rajapalayam","address2":"","latitude":"9.3649","longitude":"77.4997","accuracy":"4"},{"address3":"Muhavur","state":"Tamil Nadu","state_code":"25","district":"Virudhunagar","district_code":"625","address1":"Rajapalayam","address2":"","latitude":"9.3925","longitude":"77.4866","accuracy":"4"}],"626112":[{"address3":"Palayampatti","state":"Tamil Nadu","state_code":"25","district":"Virudhunagar","district_code":"625","address1":"Aruppukottai","address2":"","latitude":"9.443","longitude":"77.8389","accuracy":"1"},{"address3":"Sukkilanatham","state":"Tamil Nadu","state_code":"25","district":"Virudhunagar","district_code":"625","address1":"Aruppukottai","address2":"","latitude":"9.443","longitude":"77.8389","accuracy":"1"},{"address3":"Amanakkunatham","state":"Tamil Nadu","state_code":"25","district":"Virudhunagar","district_code":"625","address1":"Aruppukottai","address2":"","latitude":"9.443","longitude":"77.8389","accuracy":"1"},{"address3":"Kurundamadam","state":"Tamil Nadu","state_code":"25","district":"Virudhunagar","district_code":"625","address1":"Aruppukottai","address2":"","latitude":"9.443","longitude":"77.8389","accuracy":"1"},{"address3":"T.Meenakshipuram","state":"Tamil Nadu","state_code":"25","district":"Virudhunagar","district_code":"625","address1":"Aruppukottai","address2":"","latitude":"9.443","longitude":"77.8389","accuracy":"1"},{"address3":"Vellayapuram","state":"Tamil Nadu","state_code":"25","district":"Virudhunagar","district_code":"625","address1":"Aruppukkottai","address2":"","latitude":"9.443","longitude":"77.8389","accuracy":"1"}],"626113":[{"address3":"Koppusithampatti","state":"Tamil Nadu","state_code":"25","district":"Virudhunagar","district_code":"625","address1":"Aruppukottai","address2":"","latitude":"9.443","longitude":"77.8389","accuracy":"1"},{"address3":"Pandalgudi","state":"Tamil Nadu","state_code":"25","district":"Virudhunagar","district_code":"625","address1":"Aruppukottai","address2":"","latitude":"9.443","longitude":"77.8389","accuracy":"1"}],"626114":[{"address3":"Sengulam","state":"Tamil Nadu","state_code":"25","district":"Virudhunagar","district_code":"625","address1":"Aruppukottai","address2":"","latitude":"9.3303","longitude":"78.2914","accuracy":"4"},{"address3":"Paralachi","state":"Tamil Nadu","state_code":"25","district":"Virudhunagar","district_code":"625","address1":"Aruppukottai","address2":"","latitude":"9.3303","longitude":"78.2914","accuracy":"3"},{"address3":"K.Chettikulam","state":"Tamil Nadu","state_code":"25","district":"Virudhunagar","district_code":"625","address1":"Aruppukottai","address2":"","latitude":"9.3303","longitude":"78.2914","accuracy":"3"},{"address3":"Kilgudi","state":"Tamil Nadu","state_code":"25","district":"Virudhunagar","district_code":"625","address1":"Aruppukottai","address2":"","latitude":"9.3303","longitude":"78.2914","accuracy":"3"},{"address3":"Poolangal","state":"Tamil Nadu","state_code":"25","district":"Virudhunagar","district_code":"625","address1":"Aruppukottai","address2":"","latitude":"9.3303","longitude":"78.2914","accuracy":"3"},{"address3":"Sudhamadam","state":"Tamil Nadu","state_code":"25","district":"Virudhunagar","district_code":"625","address1":"Aruppukottai","address2":"","latitude":"9.3303","longitude":"78.2914","accuracy":"3"},{"address3":"Thoppalakarai","state":"Tamil Nadu","state_code":"25","district":"Virudhunagar","district_code":"625","address1":"Aruppukottai","address2":"","latitude":"9.3303","longitude":"78.2914","accuracy":"3"},{"address3":"Vadakkunatham","state":"Tamil Nadu","state_code":"25","district":"Virudhunagar","district_code":"625","address1":"Aruppukottai","address2":"","latitude":"9.3303","longitude":"78.2914","accuracy":"3"}],"626115":[{"address3":"Kurandi","state":"Tamil Nadu","state_code":"25","district":"Virudhunagar","district_code":"625","address1":"Kariapatti","address2":"","latitude":"9.7403","longitude":"78.1007","accuracy":"3"},{"address3":"Aviyur","state":"Tamil Nadu","state_code":"25","district":"Virudhunagar","district_code":"625","address1":"Kariapatti","address2":"","latitude":"9.7403","longitude":"78.1007","accuracy":"4"},{"address3":"Sethu Institute of Technology","state":"Tamil Nadu","state_code":"25","district":"Virudhunagar","district_code":"625","address1":"Kariapatti","address2":"","latitude":"9.7403","longitude":"78.1007","accuracy":"3"},{"address3":"Kambigudi","state":"Tamil Nadu","state_code":"25","district":"Virudhunagar","district_code":"625","address1":"Kariapatti","address2":"","latitude":"9.7403","longitude":"78.1007","accuracy":"3"}],"626116":[{"address3":"W Pudupatti","state":"Tamil Nadu","state_code":"25","district":"Virudhunagar","district_code":"625","address1":"Srivilliputhur","address2":"","latitude":"9.443","longitude":"77.8389","accuracy":"1"},{"address3":"Seshapuram","state":"Tamil Nadu","state_code":"25","district":"Virudhunagar","district_code":"625","address1":"Srivilliputhur","address2":"","latitude":"9.443","longitude":"77.8389","accuracy":"1"}],"626117":[{"address3":"Rajapalayam Bus Stand","state":"Tamil Nadu","state_code":"25","district":"Virudhunagar","district_code":"625","address1":"Rajapalayam","address2":"","latitude":"9.443","longitude":"77.8389","accuracy":"1"},{"address3":"Rajapalayam H.O","state":"Tamil Nadu","state_code":"25","district":"Virudhunagar","district_code":"625","address1":"Rajapalayam","address2":"","latitude":"9.443","longitude":"77.8389","accuracy":"1"},{"address3":"Pudupalayam (Virudhunagar)","state":"Tamil Nadu","state_code":"25","district":"Virudhunagar","district_code":"625","address1":"Rajapalayam","address2":"","latitude":"9.443","longitude":"77.8389","accuracy":"1"},{"address3":"Rajapalayam Ambalapuli Bazzar","state":"Tamil Nadu","state_code":"25","district":"Virudhunagar","district_code":"625","address1":"Rajapalayam","address2":"","latitude":"9.443","longitude":"77.8389","accuracy":"1"},{"address3":"Rajapalayam Bazzar","state":"Tamil Nadu","state_code":"25","district":"Virudhunagar","district_code":"625","address1":"Rajapalayam","address2":"","latitude":"9.443","longitude":"77.8389","accuracy":"1"}],"626118":[{"address3":"Pungamarathupatti","state":"Tamil Nadu","state_code":"25","district":"Virudhunagar","district_code":"625","address1":"Aruppukkottai","address2":"","latitude":"9.4224","longitude":"78.219","accuracy":"3"},{"address3":"Mandapasalai","state":"Tamil Nadu","state_code":"25","district":"Virudhunagar","district_code":"625","address1":"Aruppukottai","address2":"","latitude":"9.4224","longitude":"78.219","accuracy":"4"},{"address3":"Vedanatham","state":"Tamil Nadu","state_code":"25","district":"Virudhunagar","district_code":"625","address1":"Aruppukottai","address2":"","latitude":"9.4224","longitude":"78.219","accuracy":"3"},{"address3":"M.Reddiapatti","state":"Tamil Nadu","state_code":"25","district":"Virudhunagar","district_code":"625","address1":"Aruppukkottai","address2":"","latitude":"9.4224","longitude":"78.219","accuracy":"3"},{"address3":"Maravarperungudi","state":"Tamil Nadu","state_code":"25","district":"Virudhunagar","district_code":"625","address1":"Aruppukottai","address2":"","latitude":"9.4224","longitude":"78.219","accuracy":"3"},{"address3":"R.Kallumadam","state":"Tamil Nadu","state_code":"25","district":"Virudhunagar","district_code":"625","address1":"Aruppukottai","address2":"","latitude":"9.4224","longitude":"78.219","accuracy":"3"},{"address3":"Thummusinnampatti","state":"Tamil Nadu","state_code":"25","district":"Virudhunagar","district_code":"625","address1":"Aruppukottai","address2":"","latitude":"9.4224","longitude":"78.219","accuracy":"3"}],"626119":[{"address3":"Sankaralingapuram","state":"Tamil Nadu","state_code":"25","district":"Virudhunagar","district_code":"625","address1":"Virudhunagar","address2":"","latitude":"9.3733","longitude":"77.5853","accuracy":"4"},{"address3":"Muthulapuram","state":"Tamil Nadu","state_code":"25","district":"Virudhunagar","district_code":"625","address1":"Virudhunagar","address2":"","latitude":"9.3733","longitude":"77.5853","accuracy":"3"},{"address3":"V.Muthulingapuram","state":"Tamil Nadu","state_code":"25","district":"Virudhunagar","district_code":"625","address1":"Virudhunagar","address2":"","latitude":"9.3733","longitude":"77.5853","accuracy":"3"}],"626121":[{"address3":"Devadanam","state":"Tamil Nadu","state_code":"25","district":"Virudhunagar","district_code":"625","address1":"Rajapalayam","address2":"","latitude":"9.3859","longitude":"77.4622","accuracy":"4"},{"address3":"Chockanathanpudur","state":"Tamil Nadu","state_code":"25","district":"Virudhunagar","district_code":"625","address1":"Rajapalayam","address2":"","latitude":"9.3958","longitude":"77.4703","accuracy":"3"},{"address3":"Seithur","state":"Tamil Nadu","state_code":"25","district":"Virudhunagar","district_code":"625","address1":"Rajapalayam","address2":"","latitude":"9.4056","longitude":"77.4784","accuracy":"4"}],"626122":[{"address3":"Settiyarpatti","state":"Tamil Nadu","state_code":"25","district":"Virudhunagar","district_code":"625","address1":"Rajapalayam","address2":"","latitude":"9.3935","longitude":"77.4935","accuracy":"4"}],"626123":[{"address3":"Sivakasi R S","state":"Tamil Nadu","state_code":"25","district":"Virudhunagar","district_code":"625","address1":"Sivakasi","address2":"","latitude":"9.5073","longitude":"77.9056","accuracy":"1"},{"address3":"Sivakasi H.O","state":"Tamil Nadu","state_code":"25","district":"Virudhunagar","district_code":"625","address1":"Sivakasi","address2":"","latitude":"9.5073","longitude":"77.9056","accuracy":"1"},{"address3":"Sivakasi Bazzar","state":"Tamil Nadu","state_code":"25","district":"Virudhunagar","district_code":"625","address1":"Sivakasi","address2":"","latitude":"9.5073","longitude":"77.9056","accuracy":"1"},{"address3":"Sivakasi Bus Stand","state":"Tamil Nadu","state_code":"25","district":"Virudhunagar","district_code":"625","address1":"Sivakasi","address2":"","latitude":"9.5073","longitude":"77.9056","accuracy":"1"}],"626124":[{"address3":"Anaiyur","state":"Tamil Nadu","state_code":"25","district":"Virudhunagar","district_code":"625","address1":"Sivakasi","address2":"","latitude":"9.4841","longitude":"77.9428","accuracy":"4"},{"address3":"Kakkivadanpatti","state":"Tamil Nadu","state_code":"25","district":"Virudhunagar","district_code":"625","address1":"Sivakasi","address2":"","latitude":"9.4034","longitude":"77.7254","accuracy":"4"},{"address3":"Sivakasi West","state":"Tamil Nadu","state_code":"25","district":"Virudhunagar","district_code":"625","address1":"Sivakasi","address2":"","latitude":"9.5734","longitude":"77.8326","accuracy":"3"},{"address3":"Boovanathapuram","state":"Tamil Nadu","state_code":"25","district":"Virudhunagar","district_code":"625","address1":"Sivakasi","address2":"","latitude":"9.5734","longitude":"77.8326","accuracy":"3"},{"address3":"Maraneri","state":"Tamil Nadu","state_code":"25","district":"Virudhunagar","district_code":"625","address1":"Sivakasi","address2":"","latitude":"9.4337","longitude":"77.7489","accuracy":"4"},{"address3":"Injar","state":"Tamil Nadu","state_code":"25","district":"Virudhunagar","district_code":"625","address1":"Sivakasi","address2":"","latitude":"9.4949","longitude":"77.7442","accuracy":"4"},{"address3":"Mamsapuram","state":"Tamil Nadu","state_code":"25","district":"Virudhunagar","district_code":"625","address1":"Srivilliputtur","address2":"","latitude":"9.5734","longitude":"77.8326","accuracy":"3"},{"address3":"Vilampatti","state":"Tamil Nadu","state_code":"25","district":"Virudhunagar","district_code":"625","address1":"Sivakasi","address2":"","latitude":"9.5734","longitude":"77.8326","accuracy":"3"}],"626125":[{"address3":"Srivilliputhur","state":"Tamil Nadu","state_code":"25","district":"Virudhunagar","district_code":"625","address1":"Srivilliputhur","address2":"","latitude":"9.5127","longitude":"77.6337","accuracy":"4"},{"address3":"Srivilliputhur North","state":"Tamil Nadu","state_code":"25","district":"Virudhunagar","district_code":"625","address1":"Srivilliputhur","address2":"","latitude":"9.5127","longitude":"77.6337","accuracy":"3"},{"address3":"Meenakshipuram","state":"Tamil Nadu","state_code":"25","district":"Virudhunagar","district_code":"625","address1":"Srivilliputhur","address2":"","latitude":"9.5127","longitude":"77.6337","accuracy":"3"},{"address3":"Vaithilingapuram","state":"Tamil Nadu","state_code":"25","district":"Virudhunagar","district_code":"625","address1":"Srivilliputhur","address2":"","latitude":"9.5127","longitude":"77.6337","accuracy":"3"},{"address3":"Pillayarnatham","state":"Tamil Nadu","state_code":"25","district":"Virudhunagar","district_code":"625","address1":"Srivilliputtur","address2":"","latitude":"9.5127","longitude":"77.6337","accuracy":"3"},{"address3":"Madavar Vilagam","state":"Tamil Nadu","state_code":"25","district":"Virudhunagar","district_code":"625","address1":"Srivilliputhur","address2":"","latitude":"9.5127","longitude":"77.6337","accuracy":"3"},{"address3":"Inamkarisalkulam","state":"Tamil Nadu","state_code":"25","district":"Virudhunagar","district_code":"625","address1":"Srivilliputhur","address2":"","latitude":"9.5127","longitude":"77.6337","accuracy":"3"}],"626126":[{"address3":"Kunnur South","state":"Tamil Nadu","state_code":"25","district":"Virudhunagar","district_code":"625","address1":"Srivilliputhur","address2":"","latitude":"9.5073","longitude":"77.9056","accuracy":"1"},{"address3":"Sundarapandiam","state":"Tamil Nadu","state_code":"25","district":"Virudhunagar","district_code":"625","address1":"Srivilliputhur","address2":"","latitude":"9.5073","longitude":"77.9056","accuracy":"1"},{"address3":"S.Ramachandrapuram","state":"Tamil Nadu","state_code":"25","district":"Virudhunagar","district_code":"625","address1":"Srivilliputhur","address2":"","latitude":"9.5073","longitude":"77.9056","accuracy":"1"}],"626127":[{"address3":"Alangulam","state":"Tamil Nadu","state_code":"25","district":"Virudhunagar","district_code":"625","address1":"Sivakasi","address2":"","latitude":"9.7143","longitude":"78.1556","accuracy":"4"},{"address3":"Melanmarainadu","state":"Tamil Nadu","state_code":"25","district":"Virudhunagar","district_code":"625","address1":"Sivakasi","address2":"","latitude":"9.708","longitude":"78.1501","accuracy":"3"},{"address3":"Valayapatti","state":"Tamil Nadu","state_code":"25","district":"Virudhunagar","district_code":"625","address1":"Sivakasi","address2":"","latitude":"9.4841","longitude":"77.9428","accuracy":"4"},{"address3":"Appayanaickenpatti","state":"Tamil Nadu","state_code":"25","district":"Virudhunagar","district_code":"625","address1":"Sivakasi","address2":"","latitude":"9.708","longitude":"78.1501","accuracy":"3"},{"address3":"Tamilnadu Cements Alangulam","state":"Tamil Nadu","state_code":"25","district":"Virudhunagar","district_code":"625","address1":"Sivakasi","address2":"","latitude":"9.708","longitude":"78.1501","accuracy":"3"},{"address3":"Lakshmipuram","state":"Tamil Nadu","state_code":"25","district":"Virudhunagar","district_code":"625","address1":"Sivakasi","address2":"","latitude":"9.3859","longitude":"78.049","accuracy":"4"}],"626128":[{"address3":"Thayilpatti","state":"Tamil Nadu","state_code":"25","district":"Virudhunagar","district_code":"625","address1":"Sivakasi","address2":"","latitude":"9.5073","longitude":"77.9056","accuracy":"1"},{"address3":"Salvarpatti","state":"Tamil Nadu","state_code":"25","district":"Virudhunagar","district_code":"625","address1":"Sivakasi","address2":"","latitude":"9.5073","longitude":"77.9056","accuracy":"1"},{"address3":"Subramaniapuram","state":"Tamil Nadu","state_code":"25","district":"Virudhunagar","district_code":"625","address1":"Sivakasi","address2":"","latitude":"9.5073","longitude":"77.9056","accuracy":"1"},{"address3":"Vetrilaiyurani","state":"Tamil Nadu","state_code":"25","district":"Virudhunagar","district_code":"625","address1":"Sivakasi","address2":"","latitude":"9.5073","longitude":"77.9056","accuracy":"1"}],"626129":[{"address3":"Anaikulam","state":"Tamil Nadu","state_code":"25","district":"Virudhunagar","district_code":"625","address1":"Tiruchuli","address2":"","latitude":"9.4841","longitude":"77.9428","accuracy":"4"},{"address3":"P Thottiankulam","state":"Tamil Nadu","state_code":"25","district":"Virudhunagar","district_code":"625","address1":"NA","address2":"","latitude":"9.4181","longitude":"78.0912","accuracy":"3"},{"address3":"Tiruchuli","state":"Tamil Nadu","state_code":"25","district":"Virudhunagar","district_code":"625","address1":"Tiruchuli","address2":"","latitude":"9.5353","longitude":"78.2005","accuracy":"4"},{"address3":"Aladipatti","state":"Tamil Nadu","state_code":"25","district":"Virudhunagar","district_code":"625","address1":"Aruppukkottai","address2":"","latitude":"9.4781","longitude":"78.2003","accuracy":"4"},{"address3":"Karendal","state":"Tamil Nadu","state_code":"25","district":"Virudhunagar","district_code":"625","address1":"Tiruchuli","address2":"","latitude":"9.4181","longitude":"78.0912","accuracy":"3"},{"address3":"Tamilpadi","state":"Tamil Nadu","state_code":"25","district":"Virudhunagar","district_code":"625","address1":"Tiruchuli","address2":"","latitude":"9.5076","longitude":"78.1952","accuracy":"4"},{"address3":"Sennilaikudi","state":"Tamil Nadu","state_code":"25","district":"Virudhunagar","district_code":"625","address1":"Tiruchuli","address2":"","latitude":"9.4181","longitude":"78.0912","accuracy":"3"},{"address3":"Panaiyur","state":"Tamil Nadu","state_code":"25","district":"Virudhunagar","district_code":"625","address1":"Tiruchuli","address2":"","latitude":"9.5044","longitude":"78.2365","accuracy":"4"},{"address3":"Kuchampatti","state":"Tamil Nadu","state_code":"25","district":"Virudhunagar","district_code":"625","address1":"Tiruchuli","address2":"","latitude":"9.4181","longitude":"78.0912","accuracy":"3"},{"address3":"Iluppaiyur","state":"Tamil Nadu","state_code":"25","district":"Virudhunagar","district_code":"625","address1":"Tiruchuli","address2":"","latitude":"9.4755","longitude":"78.2613","accuracy":"4"}],"626130":[{"address3":"Tiruthangal","state":"Tamil Nadu","state_code":"25","district":"Virudhunagar","district_code":"625","address1":"Sivakasi","address2":"","latitude":"9.4721","longitude":"77.8409","accuracy":"3"},{"address3":"Vadamalapuram","state":"Tamil Nadu","state_code":"25","district":"Virudhunagar","district_code":"625","address1":"Sivakasi","address2":"","latitude":"9.4721","longitude":"77.8409","accuracy":"3"},{"address3":"Alamarathupatti","state":"Tamil Nadu","state_code":"25","district":"Virudhunagar","district_code":"625","address1":"Sivakasi","address2":"","latitude":"9.4721","longitude":"77.8409","accuracy":"4"},{"address3":"Anaikuttam","state":"Tamil Nadu","state_code":"25","district":"Virudhunagar","district_code":"625","address1":"Virudhunagar","address2":"","latitude":"9.4721","longitude":"77.8409","accuracy":"3"},{"address3":"M.Pudupatti","state":"Tamil Nadu","state_code":"25","district":"Virudhunagar","district_code":"625","address1":"Sivakasi","address2":"","latitude":"9.4721","longitude":"77.8409","accuracy":"3"},{"address3":"Sengamalanachiapuram","state":"Tamil Nadu","state_code":"25","district":"Virudhunagar","district_code":"625","address1":"Sattur","address2":"","latitude":"9.4721","longitude":"77.8409","accuracy":"3"}],"626131":[{"address3":"Kundayiruppu","state":"Tamil Nadu","state_code":"25","district":"Virudhunagar","district_code":"625","address1":"Sivakasi","address2":"","latitude":"9.3552","longitude":"77.7468","accuracy":"3"},{"address3":"Vembakottai","state":"Tamil Nadu","state_code":"25","district":"Virudhunagar","district_code":"625","address1":"Sivakasi","address2":"","latitude":"9.3333","longitude":"77.7667","accuracy":"4"},{"address3":"Kangarseval","state":"Tamil Nadu","state_code":"25","district":"Virudhunagar","district_code":"625","address1":"Sivakasi","address2":"","latitude":"9.3552","longitude":"77.7468","accuracy":"3"},{"address3":"Vijayakarisalkulam","state":"Tamil Nadu","state_code":"25","district":"Virudhunagar","district_code":"625","address1":"Sivakasi","address2":"","latitude":"9.3552","longitude":"77.7468","accuracy":"3"},{"address3":"Edirkottai","state":"Tamil Nadu","state_code":"25","district":"Virudhunagar","district_code":"625","address1":"Sivakasi","address2":"","latitude":"9.3772","longitude":"77.727","accuracy":"4"},{"address3":"Kallamanaickenpatti","state":"Tamil Nadu","state_code":"25","district":"Virudhunagar","district_code":"625","address1":"Sivakasi","address2":"","latitude":"9.3552","longitude":"77.7468","accuracy":"3"}],"626132":[{"address3":"Watrap","state":"Tamil Nadu","state_code":"25","district":"Virudhunagar","district_code":"625","address1":"Srivilliputhur","address2":"","latitude":"9.6364","longitude":"77.6388","accuracy":"4"},{"address3":"Sethunarayanapuram","state":"Tamil Nadu","state_code":"25","district":"Virudhunagar","district_code":"625","address1":"Srivilliputhur","address2":"","latitude":"9.6364","longitude":"77.6388","accuracy":"3"}],"626133":[{"address3":"Pilavakkaldam","state":"Tamil Nadu","state_code":"25","district":"Virudhunagar","district_code":"625","address1":"Srivilliputhur","address2":"","latitude":"9.6378","longitude":"77.601","accuracy":"3"},{"address3":"Kansapuram","state":"Tamil Nadu","state_code":"25","district":"Virudhunagar","district_code":"625","address1":"Srivilliputtur","address2":"","latitude":"9.6302","longitude":"77.6018","accuracy":"4"},{"address3":"Kummapatti","state":"Tamil Nadu","state_code":"25","district":"Virudhunagar","district_code":"625","address1":"Srivilliputhur","address2":"","latitude":"9.6455","longitude":"77.6001","accuracy":"4"}],"626134":[{"address3":"Vadhuvarpatti","state":"Tamil Nadu","state_code":"25","district":"Virudhunagar","district_code":"625","address1":"Aruppukottai","address2":"","latitude":"9.4135","longitude":"78.0546","accuracy":"3"},{"address3":"Chettikurichi","state":"Tamil Nadu","state_code":"25","district":"Virudhunagar","district_code":"625","address1":"Aruppukottai","address2":"","latitude":"9.4135","longitude":"78.0546","accuracy":"3"},{"address3":"Chidambarapuram","state":"Tamil Nadu","state_code":"25","district":"Virudhunagar","district_code":"625","address1":"Aruppukkottai","address2":"","latitude":"9.4361","longitude":"78.0834","accuracy":"4"},{"address3":"Pappakudi","state":"Tamil Nadu","state_code":"25","district":"Virudhunagar","district_code":"625","address1":"Sattur","address2":"","latitude":"9.3909","longitude":"78.0258","accuracy":"4"}],"626135":[{"address3":"Nachiyarkoil","state":"Tamil Nadu","state_code":"25","district":"Virudhunagar","district_code":"625","address1":"Srivilliputtur","address2":"","latitude":"9.4835","longitude":"77.7979","accuracy":"1"},{"address3":"Athikulam","state":"Tamil Nadu","state_code":"25","district":"Virudhunagar","district_code":"625","address1":"Srivilliputhur","address2":"","latitude":"9.4835","longitude":"77.7979","accuracy":"1"},{"address3":"Srivilliputhur Court Complexe","state":"Tamil Nadu","state_code":"25","district":"Virudhunagar","district_code":"625","address1":"Srivilliputhur","address2":"","latitude":"9.4835","longitude":"77.7979","accuracy":"1"}],"626136":[{"address3":"Kilarajakularaman","state":"Tamil Nadu","state_code":"25","district":"Virudhunagar","district_code":"625","address1":"Rajapalayam","address2":"","latitude":"9.3484","longitude":"77.6284","accuracy":"3"},{"address3":"Gopalapuram","state":"Tamil Nadu","state_code":"25","district":"Virudhunagar","district_code":"625","address1":"Rajapalayam","address2":"","latitude":"9.3633","longitude":"77.6237","accuracy":"4"},{"address3":"Vadakarai","state":"Tamil Nadu","state_code":"25","district":"Virudhunagar","district_code":"625","address1":"Rajapalayam","address2":"","latitude":"9.3379","longitude":"77.6227","accuracy":"4"},{"address3":"Thombakulam","state":"Tamil Nadu","state_code":"25","district":"Virudhunagar","district_code":"625","address1":"Rajapalayam","address2":"","latitude":"9.3484","longitude":"77.6284","accuracy":"3"},{"address3":"Sivalingapuram","state":"Tamil Nadu","state_code":"25","district":"Virudhunagar","district_code":"625","address1":"Rajapalayam","address2":"","latitude":"9.344","longitude":"77.6388","accuracy":"4"},{"address3":"R.Reddiapatti","state":"Tamil Nadu","state_code":"25","district":"Virudhunagar","district_code":"625","address1":"Rajapalayam","address2":"","latitude":"9.3484","longitude":"77.6284","accuracy":"3"}],"626137":[{"address3":"Pillayarkulam","state":"Tamil Nadu","state_code":"25","district":"Virudhunagar","district_code":"625","address1":"Srivilliputhur","address2":"","latitude":"9.4835","longitude":"77.7979","accuracy":"1"},{"address3":"P.Ramachandrapuram","state":"Tamil Nadu","state_code":"25","district":"Virudhunagar","district_code":"625","address1":"Srivilliputhur","address2":"","latitude":"9.4835","longitude":"77.7979","accuracy":"1"},{"address3":"Nathikudi","state":"Tamil Nadu","state_code":"25","district":"Virudhunagar","district_code":"625","address1":"Srivilliputhur","address2":"","latitude":"9.4835","longitude":"77.7979","accuracy":"1"},{"address3":"Achanthavirthan","state":"Tamil Nadu","state_code":"25","district":"Virudhunagar","district_code":"625","address1":"Srivilliputtur","address2":"","latitude":"9.4835","longitude":"77.7979","accuracy":"1"}],"626138":[{"address3":"Villupanur","state":"Tamil Nadu","state_code":"25","district":"Virudhunagar","district_code":"625","address1":"Srivilliputtur","address2":"","latitude":"9.6779","longitude":"78.1501","accuracy":"3"},{"address3":"Nedungulam","state":"Tamil Nadu","state_code":"25","district":"Virudhunagar","district_code":"625","address1":"Sivakasi","address2":"","latitude":"9.6807","longitude":"78.1094","accuracy":"4"},{"address3":"Moovaraivendran","state":"Tamil Nadu","state_code":"25","district":"Virudhunagar","district_code":"625","address1":"Srivilliputtur","address2":"","latitude":"9.6779","longitude":"78.1501","accuracy":"3"},{"address3":"Mangalam","state":"Tamil Nadu","state_code":"25","district":"Virudhunagar","district_code":"625","address1":"Sivakasi","address2":"","latitude":"9.4841","longitude":"77.9428","accuracy":"4"},{"address3":"P.Sallipatti","state":"Tamil Nadu","state_code":"25","district":"Virudhunagar","district_code":"625","address1":"Srivilliputhur","address2":"","latitude":"9.6779","longitude":"78.1501","accuracy":"3"},{"address3":"Kunnur","state":"Tamil Nadu","state_code":"25","district":"Virudhunagar","district_code":"625","address1":"Srivilliputtur","address2":"","latitude":"9.5882","longitude":"77.7006","accuracy":"4"},{"address3":"Ayanathampatti","state":"Tamil Nadu","state_code":"25","district":"Virudhunagar","district_code":"625","address1":"Srivilliputhur","address2":"","latitude":"9.6779","longitude":"78.1501","accuracy":"3"}],"626139":[{"address3":"Cholapuram South","state":"Tamil Nadu","state_code":"25","district":"Virudhunagar","district_code":"625","address1":"Rajapalayam","address2":"","latitude":"9.3679","longitude":"77.5731","accuracy":"3"},{"address3":"Solapuram","state":"Tamil Nadu","state_code":"25","district":"Virudhunagar","district_code":"625","address1":"Rajapalayam","address2":"","latitude":"9.3757","longitude":"77.5598","accuracy":"4"},{"address3":"Kilavikulam","state":"Tamil Nadu","state_code":"25","district":"Virudhunagar","district_code":"625","address1":"Rajapalayam","address2":"","latitude":"9.3602","longitude":"77.5865","accuracy":"4"}],"626140":[{"address3":"Guhanparai","state":"Tamil Nadu","state_code":"25","district":"Virudhunagar","district_code":"625","address1":"Sattur","address2":"","latitude":"9.4694","longitude":"77.9114","accuracy":"3"},{"address3":"Varaganur","state":"Tamil Nadu","state_code":"25","district":"Virudhunagar","district_code":"625","address1":"Sivakasi","address2":"","latitude":"9.4841","longitude":"77.9428","accuracy":"4"},{"address3":"Sevalpatti","state":"Tamil Nadu","state_code":"25","district":"Virudhunagar","district_code":"625","address1":"Sattur","address2":"","latitude":"9.6643","longitude":"78.0978","accuracy":"4"}],"626141":[{"address3":"Appayanaickenpatti","state":"Tamil Nadu","state_code":"25","district":"Virudhunagar","district_code":"625","address1":"Sivakasi","address2":"","latitude":"9.4508","longitude":"77.6358","accuracy":"3"},{"address3":"Achankulam","state":"Tamil Nadu","state_code":"25","district":"Virudhunagar","district_code":"625","address1":"Sivakasi","address2":"","latitude":"9.4045","longitude":"77.5768","accuracy":"4"},{"address3":"Malli","state":"Tamil Nadu","state_code":"25","district":"Virudhunagar","district_code":"625","address1":"Srivilliputhur","address2":"","latitude":"9.4971","longitude":"77.6948","accuracy":"4"},{"address3":"Mallipudur","state":"Tamil Nadu","state_code":"25","district":"Virudhunagar","district_code":"625","address1":"Srivilliputhur","address2":"","latitude":"9.4508","longitude":"77.6358","accuracy":"3"},{"address3":"Saminatham","state":"Tamil Nadu","state_code":"25","district":"Virudhunagar","district_code":"625","address1":"Sivakasi","address2":"","latitude":"9.4508","longitude":"77.6358","accuracy":"3"},{"address3":"T.Managaseri","state":"Tamil Nadu","state_code":"25","district":"Virudhunagar","district_code":"625","address1":"Srivilliputtur","address2":"","latitude":"9.4508","longitude":"77.6358","accuracy":"3"}],"626142":[{"address3":"Krishnapuram","state":"Tamil Nadu","state_code":"25","district":"Virudhunagar","district_code":"625","address1":"Rajapalayam","address2":"","latitude":"9.4216","longitude":"77.5737","accuracy":"4"},{"address3":"Sundararajapuram","state":"Tamil Nadu","state_code":"25","district":"Virudhunagar","district_code":"625","address1":"Rajapalayam","address2":"","latitude":"9.4841","longitude":"77.9428","accuracy":"4"},{"address3":"Zaminkollangondan","state":"Tamil Nadu","state_code":"25","district":"Virudhunagar","district_code":"625","address1":"Rajapalayam","address2":"","latitude":"9.1518","longitude":"77.7436","accuracy":"3"},{"address3":"Ayankollangondan","state":"Tamil Nadu","state_code":"25","district":"Virudhunagar","district_code":"625","address1":"Rajapalayam","address2":"","latitude":"9.1518","longitude":"77.7436","accuracy":"3"},{"address3":"Terkuvenganllur","state":"Tamil Nadu","state_code":"25","district":"Virudhunagar","district_code":"625","address1":"Rajapalayam","address2":"","latitude":"9.1518","longitude":"77.7436","accuracy":"3"},{"address3":"Sundaranachiarpuram","state":"Tamil Nadu","state_code":"25","district":"Virudhunagar","district_code":"625","address1":"Rajapalayam","address2":"","latitude":"9.1518","longitude":"77.7436","accuracy":"3"}],"626149":[{"address3":"Kottaiyur","state":"Tamil Nadu","state_code":"25","district":"Virudhunagar","district_code":"625","address1":"Srivilliputtur","address2":"","latitude":"9.6498","longitude":"77.7001","accuracy":"4"},{"address3":"Thailapuram","state":"Tamil Nadu","state_code":"25","district":"Virudhunagar","district_code":"625","address1":"Srivilliputhur","address2":"","latitude":"9.6272","longitude":"77.7034","accuracy":"3"},{"address3":"Karisalkulam","state":"Tamil Nadu","state_code":"25","district":"Virudhunagar","district_code":"625","address1":"Srivilliputhur","address2":"","latitude":"9.5709","longitude":"77.7288","accuracy":"4"},{"address3":"Ilandaikulam","state":"Tamil Nadu","state_code":"25","district":"Virudhunagar","district_code":"625","address1":"Srivilliputtur","address2":"","latitude":"9.6272","longitude":"77.7034","accuracy":"3"},{"address3":"Kadaneri","state":"Tamil Nadu","state_code":"25","district":"Virudhunagar","district_code":"625","address1":"Srivilliputtur","address2":"","latitude":"9.6294","longitude":"77.7217","accuracy":"4"},{"address3":"Maharajapuram","state":"Tamil Nadu","state_code":"25","district":"Virudhunagar","district_code":"625","address1":"Srivilliputhur","address2":"","latitude":"9.6588","longitude":"77.6631","accuracy":"4"}],"626161":[{"address3":"Athipatti","state":"Tamil Nadu","state_code":"25","district":"Virudhunagar","district_code":"625","address1":"Aruppukottai","address2":"","latitude":"9.4806","longitude":"77.8738","accuracy":"1"}],"626188":[{"address3":"Dhalavaipuram","state":"Tamil Nadu","state_code":"25","district":"Virudhunagar","district_code":"625","address1":"Rajapalayam","address2":"","latitude":"9.2927","longitude":"77.7657","accuracy":"1"}],"626189":[{"address3":"Naranapuram","state":"Tamil Nadu","state_code":"25","district":"Virudhunagar","district_code":"625","address1":"Sivakasi","address2":"","latitude":"9.4841","longitude":"77.9428","accuracy":"4"},{"address3":"Sithurajapuram","state":"Tamil Nadu","state_code":"25","district":"Virudhunagar","district_code":"625","address1":"Sivakasi","address2":"","latitude":"9.4214","longitude":"77.7873","accuracy":"4"},{"address3":"Mudalipatti","state":"Tamil Nadu","state_code":"25","district":"Virudhunagar","district_code":"625","address1":"Sivakasi","address2":"","latitude":"9.4841","longitude":"77.9428","accuracy":"4"},{"address3":"Sinnakamanpatti","state":"Tamil Nadu","state_code":"25","district":"Virudhunagar","district_code":"625","address1":"Sivakasi","address2":"","latitude":"9.2927","longitude":"77.7657","accuracy":"3"},{"address3":"Sivakasi East","state":"Tamil Nadu","state_code":"25","district":"Virudhunagar","district_code":"625","address1":"Sivakasi","address2":"","latitude":"9.2927","longitude":"77.7657","accuracy":"3"},{"address3":"Viswanatham","state":"Tamil Nadu","state_code":"25","district":"Virudhunagar","district_code":"625","address1":"Sivakasi","address2":"","latitude":"9.2927","longitude":"77.7657","accuracy":"3"},{"address3":"Anuppankulam","state":"Tamil Nadu","state_code":"25","district":"Virudhunagar","district_code":"625","address1":"Sivakasi","address2":"","latitude":"9.2927","longitude":"77.7657","accuracy":"3"},{"address3":"Meenampatti","state":"Tamil Nadu","state_code":"25","district":"Virudhunagar","district_code":"625","address1":"Sivakasi","address2":"","latitude":"9.2927","longitude":"77.7657","accuracy":"3"}],"626201":[{"address3":"Elayirampannai","state":"Tamil Nadu","state_code":"25","district":"Virudhunagar","district_code":"625","address1":"Sattur","address2":"","latitude":"9.2703","longitude":"77.8249","accuracy":"4"},{"address3":"Karisalpatti","state":"Tamil Nadu","state_code":"25","district":"Virudhunagar","district_code":"625","address1":"Sattur","address2":"","latitude":"9.4841","longitude":"77.9428","accuracy":"4"},{"address3":"Panayadipatti","state":"Tamil Nadu","state_code":"25","district":"Virudhunagar","district_code":"625","address1":"Sivakasi","address2":"","latitude":"9.5263","longitude":"77.7823","accuracy":"3"},{"address3":"Sankarapandiapuram","state":"Tamil Nadu","state_code":"25","district":"Virudhunagar","district_code":"625","address1":"Sattur","address2":"","latitude":"9.5263","longitude":"77.7823","accuracy":"3"}],"626202":[{"address3":"Chockalingapuram","state":"Tamil Nadu","state_code":"25","district":"Virudhunagar","district_code":"625","address1":"Sattur","address2":"","latitude":"9.4841","longitude":"77.9428","accuracy":"4"},{"address3":"Nathathupatti","state":"Tamil Nadu","state_code":"25","district":"Virudhunagar","district_code":"625","address1":"Sattur","address2":"","latitude":"8.9709","longitude":"77.8382","accuracy":"3"},{"address3":"Nenmeni","state":"Tamil Nadu","state_code":"25","district":"Virudhunagar","district_code":"625","address1":"Sattur","address2":"","latitude":"9.3227","longitude":"78.0027","accuracy":"4"},{"address3":"Irukkangaudi","state":"Tamil Nadu","state_code":"25","district":"Virudhunagar","district_code":"625","address1":"Sattur","address2":"","latitude":"8.9709","longitude":"77.8382","accuracy":"3"},{"address3":"Kosugundu","state":"Tamil Nadu","state_code":"25","district":"Virudhunagar","district_code":"625","address1":"Sattur","address2":"","latitude":"8.9709","longitude":"77.8382","accuracy":"3"},{"address3":"Mavilpatti","state":"Tamil Nadu","state_code":"25","district":"Virudhunagar","district_code":"625","address1":"Sattur","address2":"","latitude":"8.9709","longitude":"77.8382","accuracy":"3"},{"address3":"Masarpatti","state":"Tamil Nadu","state_code":"25","district":"Tuticorin","district_code":"627","address1":"Ettayapuram","address2":"","latitude":"9.2868","longitude":"78.0365","accuracy":"4"}],"626203":[{"address3":"Mettamalai","state":"Tamil Nadu","state_code":"25","district":"Virudhunagar","district_code":"625","address1":"Sattur","address2":"","latitude":"9.5832","longitude":"78.0026","accuracy":"3"},{"address3":"Surangudi","state":"Tamil Nadu","state_code":"25","district":"Virudhunagar","district_code":"625","address1":"Sattur","address2":"","latitude":"9.4841","longitude":"77.9428","accuracy":"4"},{"address3":"Gollapatti","state":"Tamil Nadu","state_code":"25","district":"Virudhunagar","district_code":"625","address1":"Sattur","address2":"","latitude":"9.4841","longitude":"77.9428","accuracy":"4"},{"address3":"Sattur West","state":"Tamil Nadu","state_code":"25","district":"Virudhunagar","district_code":"625","address1":"Sattur","address2":"","latitude":"9.5832","longitude":"78.0026","accuracy":"3"},{"address3":"Venkatachalapuram","state":"Tamil Nadu","state_code":"25","district":"Virudhunagar","district_code":"625","address1":"Sattur","address2":"","latitude":"9.4099","longitude":"77.6319","accuracy":"4"},{"address3":"Padanthal","state":"Tamil Nadu","state_code":"25","district":"Virudhunagar","district_code":"625","address1":"Sattur","address2":"","latitude":"9.5832","longitude":"78.0026","accuracy":"3"},{"address3":"Naduvapatti","state":"Tamil Nadu","state_code":"25","district":"Virudhunagar","district_code":"625","address1":"Sattur","address2":"","latitude":"9.5832","longitude":"78.0026","accuracy":"3"},{"address3":"Sattur","state":"Tamil Nadu","state_code":"25","district":"Virudhunagar","district_code":"625","address1":"Sattur","address2":"","latitude":"9.3559","longitude":"77.9246","accuracy":"4"},{"address3":"Thungareddiapatti","state":"Tamil Nadu","state_code":"25","district":"Virudhunagar","district_code":"625","address1":"Sattur","address2":"","latitude":"9.5832","longitude":"78.0026","accuracy":"3"},{"address3":"A.Ramalingapuram","state":"Tamil Nadu","state_code":"25","district":"Virudhunagar","district_code":"625","address1":"Sattur","address2":"","latitude":"9.5832","longitude":"78.0026","accuracy":"3"},{"address3":"Othayal Mettupatti","state":"Tamil Nadu","state_code":"25","district":"Virudhunagar","district_code":"625","address1":"Sattur","address2":"","latitude":"9.5832","longitude":"78.0026","accuracy":"3"},{"address3":"Settudayanpatti","state":"Tamil Nadu","state_code":"25","district":"Virudhunagar","district_code":"625","address1":"Sattur","address2":"","latitude":"9.5832","longitude":"78.0026","accuracy":"3"}],"626204":[{"address3":"Pudupatti","state":"Tamil Nadu","state_code":"25","district":"Virudhunagar","district_code":"625","address1":"Virudhunagar","address2":"","latitude":"9.4841","longitude":"77.9428","accuracy":"3"},{"address3":"Ramasamy Raja Nagar","state":"Tamil Nadu","state_code":"25","district":"Virudhunagar","district_code":"625","address1":"Sattur","address2":"","latitude":"9.096","longitude":"77.6268","accuracy":"3"},{"address3":"Kotthiyur Gurusamykoil","state":"Tamil Nadu","state_code":"25","district":"Virudhunagar","district_code":"625","address1":"Virudhunagar","address2":"","latitude":"9.096","longitude":"77.6268","accuracy":"3"},{"address3":"Avudayapuram","state":"Tamil Nadu","state_code":"25","district":"Virudhunagar","district_code":"625","address1":"Virudhunagar","address2":"","latitude":"9.4841","longitude":"77.9428","accuracy":"4"},{"address3":"T.Sedapatti","state":"Tamil Nadu","state_code":"25","district":"Virudhunagar","district_code":"625","address1":"Virudhunagar","address2":"","latitude":"9.096","longitude":"77.6268","accuracy":"3"},{"address3":"Thulukkapatti R.S.","state":"Tamil Nadu","state_code":"25","district":"Virudhunagar","district_code":"625","address1":"Virudhunagar","address2":"","latitude":"9.096","longitude":"77.6268","accuracy":"3"},{"address3":"Thulukkapatti","state":"Tamil Nadu","state_code":"25","district":"Virudhunagar","district_code":"625","address1":"Virudhunagar","address2":"","latitude":"9.096","longitude":"77.6268","accuracy":"3"},{"address3":"Appayanaickenpatti","state":"Tamil Nadu","state_code":"25","district":"Virudhunagar","district_code":"625","address1":"Virudhunagar","address2":"","latitude":"9.096","longitude":"77.6268","accuracy":"3"}],"626205":[{"address3":"Odaipatti","state":"Tamil Nadu","state_code":"25","district":"Virudhunagar","district_code":"625","address1":"Sattur","address2":"","latitude":"9.4841","longitude":"77.9428","accuracy":"4"},{"address3":"N.Subbiahpuram","state":"Tamil Nadu","state_code":"25","district":"Virudhunagar","district_code":"625","address1":"Sattur","address2":"","latitude":"9.686","longitude":"78.1386","accuracy":"3"},{"address3":"Nalli","state":"Tamil Nadu","state_code":"25","district":"Virudhunagar","district_code":"625","address1":"Sattur","address2":"","latitude":"9.686","longitude":"78.1386","accuracy":"3"},{"address3":"Mulliseval","state":"Tamil Nadu","state_code":"25","district":"Virudhunagar","district_code":"625","address1":"Sattur","address2":"","latitude":"9.686","longitude":"78.1386","accuracy":"3"},{"address3":"Uppathur","state":"Tamil Nadu","state_code":"25","district":"Virudhunagar","district_code":"625","address1":"Sattur","address2":"","latitude":"9.686","longitude":"78.1386","accuracy":"3"},{"address3":"Karuppur","state":"Tamil Nadu","state_code":"25","district":"Tuticorin","district_code":"627","address1":"Ettayapuram","address2":"","latitude":"8.8908","longitude":"78.0044","accuracy":"4"}],"626607":[{"address3":"Siruvanur","state":"Tamil Nadu","state_code":"25","district":"Virudhunagar","district_code":"625","address1":"Kariapatti","address2":"","latitude":"9.6873","longitude":"78.2759","accuracy":"4"},{"address3":"Nalur","state":"Tamil Nadu","state_code":"25","district":"Virudhunagar","district_code":"625","address1":"Tiruchuli","address2":"","latitude":"9.6516","longitude":"78.2909","accuracy":"4"},{"address3":"Maraikulam","state":"Tamil Nadu","state_code":"25","district":"Virudhunagar","district_code":"625","address1":"Kariapatti","address2":"","latitude":"9.6588","longitude":"78.273","accuracy":"3"},{"address3":"Isali","state":"Tamil Nadu","state_code":"25","district":"Virudhunagar","district_code":"625","address1":"Tiruchuli","address2":"","latitude":"9.6164","longitude":"78.2654","accuracy":"4"},{"address3":"Ulagudi","state":"Tamil Nadu","state_code":"25","district":"Virudhunagar","district_code":"625","address1":"Tiruchuli","address2":"","latitude":"9.6588","longitude":"78.273","accuracy":"3"},{"address3":"Alagapuri","state":"Tamil Nadu","state_code":"25","district":"Virudhunagar","district_code":"625","address1":"Tiruchuli","address2":"","latitude":"9.68","longitude":"78.2597","accuracy":"4"},{"address3":"Narikudi","state":"Tamil Nadu","state_code":"25","district":"Virudhunagar","district_code":"625","address1":"Tiruchuli","address2":"","latitude":"9.6588","longitude":"78.273","accuracy":"3"}],"626612":[{"address3":"Irunjirai","state":"Tamil Nadu","state_code":"25","district":"Virudhunagar","district_code":"625","address1":"Tiruchuli","address2":"","latitude":"9.6347","longitude":"78.3369","accuracy":"4"},{"address3":"Viracholan","state":"Tamil Nadu","state_code":"25","district":"Virudhunagar","district_code":"625","address1":"Tiruchuli","address2":"","latitude":"9.5489","longitude":"78.3625","accuracy":"4"},{"address3":"Pervelangudi","state":"Tamil Nadu","state_code":"25","district":"Virudhunagar","district_code":"625","address1":"Tiruchuli","address2":"","latitude":"9.5918","longitude":"78.3497","accuracy":"3"},{"address3":"Dharmam","state":"Tamil Nadu","state_code":"25","district":"Virudhunagar","district_code":"625","address1":"Tiruchuli","address2":"","latitude":"9.5918","longitude":"78.3497","accuracy":"3"}],"credits":[{"name":"geonames","url":"https://www.geonames.org"}],"last_update":"2019-03-01T09:01:35.786Z"}