{"627001":[{"address3":"Sikkanarasingarayagramam","state":"Tamil Nadu","state_code":"25","district":"Tirunelveli","district_code":"628","address1":"Tirunelveli","address2":"","latitude":"8.5335","longitude":"77.8517","accuracy":"1"},{"address3":"Minatchipuram","state":"Tamil Nadu","state_code":"25","district":"Tirunelveli","district_code":"628","address1":"Tirunelveli","address2":"","latitude":"8.5335","longitude":"77.8517","accuracy":"1"},{"address3":"Tirunelveli Nagarmandram","state":"Tamil Nadu","state_code":"25","district":"Tirunelveli","district_code":"628","address1":"Tirunelveli","address2":"","latitude":"8.5335","longitude":"77.8517","accuracy":"1"},{"address3":"Kailasapuram (Tirunelveli)","state":"Tamil Nadu","state_code":"25","district":"Tirunelveli","district_code":"628","address1":"Tirunelveli","address2":"","latitude":"8.5335","longitude":"77.8517","accuracy":"1"},{"address3":"Tirunelveli R.S","state":"Tamil Nadu","state_code":"25","district":"Tirunelveli","district_code":"628","address1":"Tirunelveli","address2":"","latitude":"8.5335","longitude":"77.8517","accuracy":"1"},{"address3":"Viraraghavapuram","state":"Tamil Nadu","state_code":"25","district":"Tirunelveli","district_code":"628","address1":"Tirunelveli","address2":"","latitude":"8.5335","longitude":"77.8517","accuracy":"1"},{"address3":"Tirunelveli H.O","state":"Tamil Nadu","state_code":"25","district":"Tirunelveli","district_code":"628","address1":"Tirunelveli","address2":"","latitude":"8.5335","longitude":"77.8517","accuracy":"1"}],"627002":[{"address3":"Kulavanickerpuram","state":"Tamil Nadu","state_code":"25","district":"Tirunelveli","district_code":"628","address1":"Palayamkottai","address2":"","latitude":"8.5335","longitude":"77.8517","accuracy":"1"},{"address3":"Palayankottai H.O","state":"Tamil Nadu","state_code":"25","district":"Tirunelveli","district_code":"628","address1":"Palayankottai","address2":"","latitude":"8.5335","longitude":"77.8517","accuracy":"1"},{"address3":"Palayankottai Courts","state":"Tamil Nadu","state_code":"25","district":"Tirunelveli","district_code":"628","address1":"Palayamkottai","address2":"","latitude":"8.5335","longitude":"77.8517","accuracy":"1"},{"address3":"Santhinagar","state":"Tamil Nadu","state_code":"25","district":"Tirunelveli","district_code":"628","address1":"Palayamkottai","address2":"","latitude":"8.5335","longitude":"77.8517","accuracy":"1"},{"address3":"Samadanapuram","state":"Tamil Nadu","state_code":"25","district":"Tirunelveli","district_code":"628","address1":"Palayamkottai","address2":"","latitude":"8.5335","longitude":"77.8517","accuracy":"1"}],"627003":[{"address3":"Vannarpettai","state":"Tamil Nadu","state_code":"25","district":"Tirunelveli","district_code":"628","address1":"Palayamkottai","address2":"","latitude":"8.5335","longitude":"77.8517","accuracy":"1"}],"627004":[{"address3":"Tirunelveli Pettai","state":"Tamil Nadu","state_code":"25","district":"Tirunelveli","district_code":"628","address1":"Tirunelveli","address2":"","latitude":"8.5335","longitude":"77.8517","accuracy":"1"},{"address3":"Tirunelveli Pettai East","state":"Tamil Nadu","state_code":"25","district":"Tirunelveli","district_code":"628","address1":"Tirunelveli","address2":"","latitude":"8.5335","longitude":"77.8517","accuracy":"1"}],"627005":[{"address3":"Melapalayam (Tirunelveli)","state":"Tamil Nadu","state_code":"25","district":"Tirunelveli","district_code":"628","address1":"Palayamkottai","address2":"","latitude":"8.7008","longitude":"77.7066","accuracy":"4"},{"address3":"Melapalayam Bazaar(Tirunelveli","state":"Tamil Nadu","state_code":"25","district":"Tirunelveli","district_code":"628","address1":"Palayamkottai","address2":"","latitude":"8.7008","longitude":"77.7066","accuracy":"3"}],"627006":[{"address3":"Kunnathur","state":"Tamil Nadu","state_code":"25","district":"Tirunelveli","district_code":"628","address1":"Tirunelveli","address2":"","latitude":"8.5335","longitude":"77.8517","accuracy":"1"},{"address3":"Tirunelveli Terku","state":"Tamil Nadu","state_code":"25","district":"Tirunelveli","district_code":"628","address1":"Tirunelveli","address2":"","latitude":"8.5335","longitude":"77.8517","accuracy":"1"},{"address3":"Melathiru Vengadanathapuram","state":"Tamil Nadu","state_code":"25","district":"Tirunelveli","district_code":"628","address1":"Tirunelveli","address2":"","latitude":"8.5335","longitude":"77.8517","accuracy":"1"},{"address3":"Tirunelveli Town","state":"Tamil Nadu","state_code":"25","district":"Tirunelveli","district_code":"628","address1":"Tirunelveli","address2":"","latitude":"8.5335","longitude":"77.8517","accuracy":"1"},{"address3":"Tirunelveli East","state":"Tamil Nadu","state_code":"25","district":"Tirunelveli","district_code":"628","address1":"Tirunelveli","address2":"","latitude":"8.5335","longitude":"77.8517","accuracy":"1"},{"address3":"Palayapettai","state":"Tamil Nadu","state_code":"25","district":"Tirunelveli","district_code":"628","address1":"Tirunelveli","address2":"","latitude":"8.5335","longitude":"77.8517","accuracy":"1"},{"address3":"Tirunelveli Merku","state":"Tamil Nadu","state_code":"25","district":"Tirunelveli","district_code":"628","address1":"Tirunelveli","address2":"","latitude":"8.5335","longitude":"77.8517","accuracy":"1"},{"address3":"Pattapathu","state":"Tamil Nadu","state_code":"25","district":"Tirunelveli","district_code":"628","address1":"Tirunelveli","address2":"","latitude":"8.5335","longitude":"77.8517","accuracy":"1"},{"address3":"Tondar Bazar","state":"Tamil Nadu","state_code":"25","district":"Tirunelveli","district_code":"628","address1":"Tirunelveli","address2":"","latitude":"8.5335","longitude":"77.8517","accuracy":"1"}],"627007":[{"address3":"Reddiarpatti","state":"Tamil Nadu","state_code":"25","district":"Tirunelveli","district_code":"628","address1":"Palayankottai","address2":"","latitude":"8.3663","longitude":"77.9969","accuracy":"3"},{"address3":"Perumalpuram","state":"Tamil Nadu","state_code":"25","district":"Tirunelveli","district_code":"628","address1":"Palayamkottai","address2":"","latitude":"8.7987","longitude":"77.542","accuracy":"4"},{"address3":"Jawahar Nagar (Tirunelveli)","state":"Tamil Nadu","state_code":"25","district":"Tirunelveli","district_code":"628","address1":"Palayamkottai","address2":"","latitude":"8.3663","longitude":"77.9969","accuracy":"3"},{"address3":"Konganthanparai","state":"Tamil Nadu","state_code":"25","district":"Tirunelveli","district_code":"628","address1":"Palayankottai","address2":"","latitude":"8.3663","longitude":"77.9969","accuracy":"3"}],"627008":[{"address3":"Gandhinagar (Tirunelveli)","state":"Tamil Nadu","state_code":"25","district":"Tirunelveli","district_code":"628","address1":"Tirunelveli","address2":"","latitude":"8.5335","longitude":"77.8517","accuracy":"1"}],"627009":[{"address3":"Tirunelveli Collectorate","state":"Tamil Nadu","state_code":"25","district":"Tirunelveli","district_code":"628","address1":"Palayamkottai","address2":"","latitude":"8.5335","longitude":"77.8517","accuracy":"1"}],"627010":[{"address3":"Vaduganpatti","state":"Tamil Nadu","state_code":"25","district":"Tirunelveli","district_code":"628","address1":"Tirunelveli","address2":"","latitude":"8.7551","longitude":"77.6036","accuracy":"4"},{"address3":"Kiramangalam","state":"Tamil Nadu","state_code":"25","district":"Tirunelveli","district_code":"628","address1":"Tirunelveli","address2":"","latitude":"8.7987","longitude":"77.542","accuracy":"3"},{"address3":"Kodaganallur","state":"Tamil Nadu","state_code":"25","district":"Tirunelveli","district_code":"628","address1":"Tirunelveli","address2":"","latitude":"8.6969","longitude":"77.5887","accuracy":"4"},{"address3":"Industrial Colony Pettai","state":"Tamil Nadu","state_code":"25","district":"Tirunelveli","district_code":"628","address1":"Tirunelveli","address2":"","latitude":"8.726","longitude":"77.5962","accuracy":"3"},{"address3":"Kallur","state":"Tamil Nadu","state_code":"25","district":"Tirunelveli","district_code":"628","address1":"Tirunelveli","address2":"","latitude":"8.726","longitude":"77.5962","accuracy":"3"},{"address3":"Tiruppanikarisalkulam","state":"Tamil Nadu","state_code":"25","district":"Tirunelveli","district_code":"628","address1":"Tirunelveli","address2":"","latitude":"8.726","longitude":"77.5962","accuracy":"3"}],"627011":[{"address3":"Krishnapuram","state":"Tamil Nadu","state_code":"25","district":"Tirunelveli","district_code":"628","address1":"Palayankottai","address2":"","latitude":"8.6874","longitude":"77.8008","accuracy":"4"},{"address3":"Sivanthipatti","state":"Tamil Nadu","state_code":"25","district":"Tirunelveli","district_code":"628","address1":"Palayankottai","address2":"","latitude":"8.6874","longitude":"77.8008","accuracy":"3"},{"address3":"Maharajangar","state":"Tamil Nadu","state_code":"25","district":"Tirunelveli","district_code":"628","address1":"Palayamkottai","address2":"","latitude":"8.6874","longitude":"77.8008","accuracy":"3"},{"address3":"Palayankottai High Grounds","state":"Tamil Nadu","state_code":"25","district":"Tirunelveli","district_code":"628","address1":"Palayamkottai","address2":"","latitude":"8.6874","longitude":"77.8008","accuracy":"3"},{"address3":"K T C Nagar","state":"Tamil Nadu","state_code":"25","district":"Tirunelveli","district_code":"628","address1":"Palayankottai","address2":"","latitude":"8.6874","longitude":"77.8008","accuracy":"3"},{"address3":"V.M.Chatram","state":"Tamil Nadu","state_code":"25","district":"Tirunelveli","district_code":"628","address1":"Palayamkottai","address2":"","latitude":"8.6874","longitude":"77.8008","accuracy":"3"}],"627012":[{"address3":"Vellalankulam","state":"Tamil Nadu","state_code":"25","district":"Tirunelveli","district_code":"628","address1":"Tirunelveli","address2":"","latitude":"8.7681","longitude":"77.6267","accuracy":"4"},{"address3":"Manonmaniam Sundaranar Univers","state":"Tamil Nadu","state_code":"25","district":"Tirunelveli","district_code":"628","address1":"Tirunelveli","address2":"","latitude":"8.7681","longitude":"77.6267","accuracy":"3"},{"address3":"Seethaparpanallur","state":"Tamil Nadu","state_code":"25","district":"Tirunelveli","district_code":"628","address1":"Tirunelveli","address2":"","latitude":"8.7681","longitude":"77.6267","accuracy":"3"}],"627101":[{"address3":"Rajakkamangalam","state":"Tamil Nadu","state_code":"25","district":"Tirunelveli","district_code":"628","address1":"Nanguneri","address2":"","latitude":"8.7987","longitude":"77.542","accuracy":"4"},{"address3":"Nallankulam","state":"Tamil Nadu","state_code":"25","district":"Tirunelveli","district_code":"628","address1":"Nanguneri","address2":"","latitude":"8.4042","longitude":"77.6324","accuracy":"4"},{"address3":"Dalapathisamudram","state":"Tamil Nadu","state_code":"25","district":"Tirunelveli","district_code":"628","address1":"Nanguneri","address2":"","latitude":"8.2664","longitude":"77.4991","accuracy":"3"},{"address3":"Thulukkarpatti","state":"Tamil Nadu","state_code":"25","district":"Tirunelveli","district_code":"628","address1":"Radhapuram","address2":"","latitude":"8.2664","longitude":"77.4991","accuracy":"3"}],"627102":[{"address3":"Puliyurkurichi","state":"Tamil Nadu","state_code":"25","district":"Tirunelveli","district_code":"628","address1":"Nanguneri","address2":"","latitude":"8.4553","longitude":"77.5869","accuracy":"4"},{"address3":"Sengalakurichi","state":"Tamil Nadu","state_code":"25","district":"Tirunelveli","district_code":"628","address1":"Nanguneri","address2":"","latitude":"8.4553","longitude":"77.5869","accuracy":"3"},{"address3":"Dohnavur","state":"Tamil Nadu","state_code":"25","district":"Tirunelveli","district_code":"628","address1":"Nanguneri","address2":"","latitude":"8.4553","longitude":"77.5869","accuracy":"3"},{"address3":"Vadukatchimadil","state":"Tamil Nadu","state_code":"25","district":"Tirunelveli","district_code":"628","address1":"Nanguneri","address2":"","latitude":"8.4553","longitude":"77.5869","accuracy":"3"}],"627103":[{"address3":"Kodaiseri","state":"Tamil Nadu","state_code":"25","district":"Tirunelveli","district_code":"628","address1":"Nanguneri","address2":"","latitude":"8.4645","longitude":"77.6073","accuracy":"4"},{"address3":"Tiruvengadanathapuram","state":"Tamil Nadu","state_code":"25","district":"Tirunelveli","district_code":"628","address1":"Nanguneri","address2":"","latitude":"8.4542","longitude":"77.6059","accuracy":"3"},{"address3":"Eruvadi","state":"Tamil Nadu","state_code":"25","district":"Tirunelveli","district_code":"628","address1":"Nanguneri","address2":"","latitude":"8.4439","longitude":"77.6044","accuracy":"4"}],"627104":[{"address3":"Vijayapathi","state":"Tamil Nadu","state_code":"25","district":"Tirunelveli","district_code":"628","address1":"Radhapuram","address2":"","latitude":"8.1772","longitude":"77.7431","accuracy":"3"},{"address3":"Idindakarai","state":"Tamil Nadu","state_code":"25","district":"Tirunelveli","district_code":"628","address1":"Radhapuram","address2":"","latitude":"8.1772","longitude":"77.7431","accuracy":"4"},{"address3":"Kuthenkuli","state":"Tamil Nadu","state_code":"25","district":"Tirunelveli","district_code":"628","address1":"Radhapuram","address2":"","latitude":"8.1772","longitude":"77.7431","accuracy":"3"}],"627105":[{"address3":"Kavalkinaru","state":"Tamil Nadu","state_code":"25","district":"Tirunelveli","district_code":"628","address1":"Radhapuram","address2":"","latitude":"8.3854","longitude":"77.5778","accuracy":"4"}],"627106":[{"address3":"Perumanal","state":"Tamil Nadu","state_code":"25","district":"Tirunelveli","district_code":"628","address1":"Radhapuram","address2":"","latitude":"8.7987","longitude":"77.542","accuracy":"1"},{"address3":"Kudankulam","state":"Tamil Nadu","state_code":"25","district":"Tirunelveli","district_code":"628","address1":"Radhapuram","address2":"","latitude":"8.6568","longitude":"77.8918","accuracy":"1"},{"address3":"Erukkanthurai","state":"Tamil Nadu","state_code":"25","district":"Tirunelveli","district_code":"628","address1":"Nanguneri","address2":"","latitude":"8.6568","longitude":"77.8918","accuracy":"1"}],"627107":[{"address3":"Naduchalaiputhur","state":"Tamil Nadu","state_code":"25","district":"Tirunelveli","district_code":"628","address1":"Nanguneri","address2":"","latitude":"8.4309","longitude":"77.6714","accuracy":"3"},{"address3":"Mavadi","state":"Tamil Nadu","state_code":"25","district":"Tirunelveli","district_code":"628","address1":"Nanguneri","address2":"","latitude":"8.4309","longitude":"77.6714","accuracy":"4"},{"address3":"Salainainarpallivasal","state":"Tamil Nadu","state_code":"25","district":"Tirunelveli","district_code":"628","address1":"Nanguneri","address2":"","latitude":"8.4309","longitude":"77.6714","accuracy":"3"},{"address3":"Kovilammalpuram","state":"Tamil Nadu","state_code":"25","district":"Tirunelveli","district_code":"628","address1":"Nanguneri","address2":"","latitude":"8.4309","longitude":"77.6714","accuracy":"3"}],"627108":[{"address3":"Karankadu","state":"Tamil Nadu","state_code":"25","district":"Tirunelveli","district_code":"628","address1":"Nanguneri","address2":"","latitude":"8.7987","longitude":"77.542","accuracy":"4"},{"address3":"Nanguneri","state":"Tamil Nadu","state_code":"25","district":"Tirunelveli","district_code":"628","address1":"Nanguneri","address2":"","latitude":"8.4933","longitude":"77.6581","accuracy":"4"},{"address3":"Surangudi","state":"Tamil Nadu","state_code":"25","district":"Tirunelveli","district_code":"628","address1":"Nanguneri","address2":"","latitude":"8.7987","longitude":"77.542","accuracy":"4"},{"address3":"Singaneri","state":"Tamil Nadu","state_code":"25","district":"Tirunelveli","district_code":"628","address1":"Nanguneri","address2":"","latitude":"8.4923","longitude":"77.6913","accuracy":"4"},{"address3":"Battarpuram","state":"Tamil Nadu","state_code":"25","district":"Tirunelveli","district_code":"628","address1":"Nanguneri","address2":"","latitude":"8.7357","longitude":"77.9478","accuracy":"3"},{"address3":"Shenbagaramanallur","state":"Tamil Nadu","state_code":"25","district":"Tirunelveli","district_code":"628","address1":"Nanguneri","address2":"","latitude":"8.4927","longitude":"77.7228","accuracy":"4"},{"address3":"Unnankulam","state":"Tamil Nadu","state_code":"25","district":"Tirunelveli","district_code":"628","address1":"Nanguneri","address2":"","latitude":"8.7357","longitude":"77.9478","accuracy":"3"},{"address3":"Kadamboduvalvu","state":"Tamil Nadu","state_code":"25","district":"Tirunelveli","district_code":"628","address1":"Nanguneri","address2":"","latitude":"8.4918","longitude":"77.5954","accuracy":"4"},{"address3":"Nambinagar","state":"Tamil Nadu","state_code":"25","district":"Tirunelveli","district_code":"628","address1":"Nanguneri","address2":"","latitude":"8.7357","longitude":"77.9478","accuracy":"3"},{"address3":"Kannanallur","state":"Tamil Nadu","state_code":"25","district":"Tirunelveli","district_code":"628","address1":"Nanguneri","address2":"","latitude":"8.4233","longitude":"77.6881","accuracy":"4"},{"address3":"Emankulam","state":"Tamil Nadu","state_code":"25","district":"Tirunelveli","district_code":"628","address1":"Nanguneri","address2":"","latitude":"8.7357","longitude":"77.9478","accuracy":"3"}],"627109":[{"address3":"Vadakkuveppilankulam","state":"Tamil Nadu","state_code":"25","district":"Tirunelveli","district_code":"628","address1":"Radhapuram","address2":"","latitude":"10.4684","longitude":"79.846","accuracy":"3"},{"address3":"Panagudi","state":"Tamil Nadu","state_code":"25","district":"Tirunelveli","district_code":"628","address1":"Radhapuram","address2":"","latitude":"10.4684","longitude":"79.846","accuracy":"3"},{"address3":"Pushpavanam","state":"Tamil Nadu","state_code":"25","district":"Tirunelveli","district_code":"628","address1":"Radhapuram","address2":"","latitude":"8.7987","longitude":"77.542","accuracy":"4"},{"address3":"Sriregunathapuram","state":"Tamil Nadu","state_code":"25","district":"Tirunelveli","district_code":"628","address1":"Radhapuram","address2":"","latitude":"10.4684","longitude":"79.846","accuracy":"3"},{"address3":"Kalandapanai","state":"Tamil Nadu","state_code":"25","district":"Tirunelveli","district_code":"628","address1":"Radhapuram","address2":"","latitude":"10.4684","longitude":"79.846","accuracy":"3"}],"627110":[{"address3":"Pappankulam","state":"Tamil Nadu","state_code":"25","district":"Tirunelveli","district_code":"628","address1":"Nanguneri","address2":"","latitude":"8.4628","longitude":"77.7584","accuracy":"4"},{"address3":"Parappadi","state":"Tamil Nadu","state_code":"25","district":"Tirunelveli","district_code":"628","address1":"Radhapuram","address2":"","latitude":"8.4276","longitude":"77.731","accuracy":"4"},{"address3":"Elankulam","state":"Tamil Nadu","state_code":"25","district":"Tirunelveli","district_code":"628","address1":"Nanguneri","address2":"","latitude":"8.4221","longitude":"77.7378","accuracy":"4"},{"address3":"Panrimalai","state":"Tamil Nadu","state_code":"25","district":"Tirunelveli","district_code":"628","address1":"Nanguneri","address2":"","latitude":"8.3896","longitude":"77.7254","accuracy":"4"}],"627111":[{"address3":"Parameswarapuram","state":"Tamil Nadu","state_code":"25","district":"Tirunelveli","district_code":"628","address1":"Radhapuram","address2":"","latitude":"8.2443","longitude":"77.6797","accuracy":"3"},{"address3":"Kakkarai","state":"Tamil Nadu","state_code":"25","district":"Tirunelveli","district_code":"628","address1":"Radhapuram","address2":"","latitude":"8.7987","longitude":"77.542","accuracy":"3"},{"address3":"Thiruvembalapuram","state":"Tamil Nadu","state_code":"25","district":"Tirunelveli","district_code":"628","address1":"Radhapuram","address2":"","latitude":"8.2443","longitude":"77.6797","accuracy":"3"},{"address3":"Chidamabarapuram","state":"Tamil Nadu","state_code":"25","district":"Tirunelveli","district_code":"628","address1":"Radhapuram","address2":"","latitude":"8.2443","longitude":"77.6797","accuracy":"3"},{"address3":"Nakkaneri","state":"Tamil Nadu","state_code":"25","district":"Tirunelveli","district_code":"628","address1":"Radhapuram","address2":"","latitude":"8.2182","longitude":"77.6732","accuracy":"4"},{"address3":"Radhapuram","state":"Tamil Nadu","state_code":"25","district":"Tirunelveli","district_code":"628","address1":"Radhapuram","address2":"","latitude":"8.2704","longitude":"77.6861","accuracy":"4"},{"address3":"Uthayathur","state":"Tamil Nadu","state_code":"25","district":"Tirunelveli","district_code":"628","address1":"Radhapuram","address2":"","latitude":"8.2443","longitude":"77.6797","accuracy":"3"}],"627112":[{"address3":"Kasthurirengapuram","state":"Tamil Nadu","state_code":"25","district":"Tirunelveli","district_code":"628","address1":"Radhapuram","address2":"","latitude":"8.349","longitude":"77.6797","accuracy":"3"},{"address3":"Seelathikulam","state":"Tamil Nadu","state_code":"25","district":"Tirunelveli","district_code":"628","address1":"Radhapuram","address2":"","latitude":"8.349","longitude":"77.6797","accuracy":"3"},{"address3":"Duraikudiyiruppu","state":"Tamil Nadu","state_code":"25","district":"Tirunelveli","district_code":"628","address1":"Radhapuram","address2":"","latitude":"8.349","longitude":"77.6797","accuracy":"4"},{"address3":"Samugarengapuram","state":"Tamil Nadu","state_code":"25","district":"Tirunelveli","district_code":"628","address1":"Radhapuram","address2":"","latitude":"8.349","longitude":"77.6797","accuracy":"3"},{"address3":"Kottai Karungulam","state":"Tamil Nadu","state_code":"25","district":"Tirunelveli","district_code":"628","address1":"Radhapuram","address2":"","latitude":"8.349","longitude":"77.6797","accuracy":"3"}],"627113":[{"address3":"Moolaikadu","state":"Tamil Nadu","state_code":"25","district":"Tirunelveli","district_code":"628","address1":"Radhapuram","address2":"","latitude":"8.4037","longitude":"77.6871","accuracy":"1"},{"address3":"Terkukallikulam","state":"Tamil Nadu","state_code":"25","district":"Tirunelveli","district_code":"628","address1":"Radhapuram","address2":"","latitude":"8.4037","longitude":"77.6871","accuracy":"1"},{"address3":"A Thirumalapuram","state":"Tamil Nadu","state_code":"25","district":"Tirunelveli","district_code":"628","address1":"Radhapuram","address2":"","latitude":"8.4037","longitude":"77.6871","accuracy":"1"},{"address3":"Soundarapandiapuram","state":"Tamil Nadu","state_code":"25","district":"Tirunelveli","district_code":"628","address1":"Radhapuram","address2":"","latitude":"8.4037","longitude":"77.6871","accuracy":"1"}],"627114":[{"address3":"Palavoor","state":"Tamil Nadu","state_code":"25","district":"Tirunelveli","district_code":"628","address1":"Radhapuram","address2":"","latitude":"8.2068","longitude":"77.6014","accuracy":"3"},{"address3":"Sankanapuram","state":"Tamil Nadu","state_code":"25","district":"Tirunelveli","district_code":"628","address1":"Radhapuram","address2":"","latitude":"8.2068","longitude":"77.6014","accuracy":"3"},{"address3":"Jacobpuram","state":"Tamil Nadu","state_code":"25","district":"Tirunelveli","district_code":"628","address1":"Radhapuram","address2":"","latitude":"8.2068","longitude":"77.6014","accuracy":"4"},{"address3":"Terkukarungulam","state":"Tamil Nadu","state_code":"25","district":"Tirunelveli","district_code":"628","address1":"Radhapuram","address2":"","latitude":"8.2068","longitude":"77.6014","accuracy":"3"},{"address3":"Leninjipuram","state":"Tamil Nadu","state_code":"25","district":"Tirunelveli","district_code":"628","address1":"Radhapuram","address2":"","latitude":"8.2068","longitude":"77.6014","accuracy":"3"},{"address3":"Rajakrishnapuram","state":"Tamil Nadu","state_code":"25","district":"Tirunelveli","district_code":"628","address1":"Radhapuram","address2":"","latitude":"8.2068","longitude":"77.6014","accuracy":"3"}],"627115":[{"address3":"Tirukurungudi","state":"Tamil Nadu","state_code":"25","district":"Tirunelveli","district_code":"628","address1":"Ambasamudram","address2":"","latitude":"8.4365","longitude":"77.5657","accuracy":"4"},{"address3":"Nambithalaivanpattaiyam","state":"Tamil Nadu","state_code":"25","district":"Tirunelveli","district_code":"628","address1":"Nanguneri","address2":"","latitude":"8.4365","longitude":"77.5657","accuracy":"3"}],"627116":[{"address3":"Vadakangulam","state":"Tamil Nadu","state_code":"25","district":"Tirunelveli","district_code":"628","address1":"Radhapuram","address2":"","latitude":"8.2383","longitude":"77.6412","accuracy":"3"},{"address3":"Danakkarkulam","state":"Tamil Nadu","state_code":"25","district":"Tirunelveli","district_code":"628","address1":"Radhapuram","address2":"","latitude":"8.2455","longitude":"77.6486","accuracy":"4"},{"address3":"Sembikulam","state":"Tamil Nadu","state_code":"25","district":"Tirunelveli","district_code":"628","address1":"Radhapuram","address2":"","latitude":"8.2383","longitude":"77.6412","accuracy":"3"},{"address3":"Koliyankulam","state":"Tamil Nadu","state_code":"25","district":"Tirunelveli","district_code":"628","address1":"Radhapuram","address2":"","latitude":"8.2311","longitude":"77.6338","accuracy":"4"},{"address3":"Uralvaimozhi","state":"Tamil Nadu","state_code":"25","district":"Tirunelveli","district_code":"628","address1":"Radhapuram","address2":"","latitude":"8.2383","longitude":"77.6412","accuracy":"3"}],"627117":[{"address3":"Anaikulam","state":"Tamil Nadu","state_code":"25","district":"Tirunelveli","district_code":"628","address1":"Radhapuram","address2":"","latitude":"9.0079","longitude":"77.4532","accuracy":"4"},{"address3":"Vadalivilai","state":"Tamil Nadu","state_code":"25","district":"Tirunelveli","district_code":"628","address1":"Radhapuram","address2":"","latitude":"8.7987","longitude":"77.542","accuracy":"4"},{"address3":"Vallioor","state":"Tamil Nadu","state_code":"25","district":"Tirunelveli","district_code":"628","address1":"Radhapuram","address2":"","latitude":"8.3892","longitude":"77.6053","accuracy":"4"},{"address3":"Achampadu","state":"Tamil Nadu","state_code":"25","district":"Tirunelveli","district_code":"628","address1":"Radhapuram","address2":"","latitude":"8.381","longitude":"77.6502","accuracy":"4"},{"address3":"Vallioor Perundunilayam","state":"Tamil Nadu","state_code":"25","district":"Tirunelveli","district_code":"628","address1":"Radhapuram","address2":"","latitude":"8.5882","longitude":"77.6805","accuracy":"3"},{"address3":"Terku Vallioor","state":"Tamil Nadu","state_code":"25","district":"Tirunelveli","district_code":"628","address1":"Radhapuram","address2":"","latitude":"8.5882","longitude":"77.6805","accuracy":"3"},{"address3":"Valliammalpuram","state":"Tamil Nadu","state_code":"25","district":"Tirunelveli","district_code":"628","address1":"Radhapuram","address2":"","latitude":"8.5882","longitude":"77.6805","accuracy":"3"},{"address3":"Kizhavaneri","state":"Tamil Nadu","state_code":"25","district":"Tirunelveli","district_code":"628","address1":"Radhapuram","address2":"","latitude":"8.5882","longitude":"77.6805","accuracy":"3"}],"627118":[{"address3":"Venkatarayapuram","state":"Tamil Nadu","state_code":"25","district":"Tirunelveli","district_code":"628","address1":"Nanguneri","address2":"","latitude":"8.4467","longitude":"77.8308","accuracy":"4"},{"address3":"T.Vijayanarayanam","state":"Tamil Nadu","state_code":"25","district":"Tirunelveli","district_code":"628","address1":"Nanguneri","address2":"","latitude":"8.4467","longitude":"77.8308","accuracy":"3"},{"address3":"Sankankulam","state":"Tamil Nadu","state_code":"25","district":"Tirunelveli","district_code":"628","address1":"Nanguneri","address2":"","latitude":"8.4467","longitude":"77.8308","accuracy":"3"},{"address3":"Vijayanarayanam","state":"Tamil Nadu","state_code":"25","district":"Tirunelveli","district_code":"628","address1":"Radhapuram","address2":"","latitude":"8.4467","longitude":"77.8308","accuracy":"3"}],"627119":[{"address3":"Vijayanarayanam Naval Base","state":"Tamil Nadu","state_code":"25","district":"Tirunelveli","district_code":"628","address1":"Nanguneri","address2":"","latitude":"8.4037","longitude":"77.6871","accuracy":"1"}],"627120":[{"address3":"Settikulam","state":"Tamil Nadu","state_code":"25","district":"Tirunelveli","district_code":"628","address1":"Radhapuram","address2":"","latitude":"8.7987","longitude":"77.542","accuracy":"4"},{"address3":"Anuvijay Township","state":"Tamil Nadu","state_code":"25","district":"Tirunelveli","district_code":"628","address1":"Radhapuram","address2":"","latitude":"8.4843","longitude":"77.8968","accuracy":"3"}],"627127":[{"address3":"Kannankulam","state":"Tamil Nadu","state_code":"25","district":"Tirunelveli","district_code":"628","address1":"Radhapuram","address2":"","latitude":"8.1502","longitude":"77.5914","accuracy":"4"},{"address3":"Kuttapuli","state":"Tamil Nadu","state_code":"25","district":"Tirunelveli","district_code":"628","address1":"Radhapuram","address2":"","latitude":"8.1468","longitude":"77.599","accuracy":"4"}],"627133":[{"address3":"Perungudi","state":"Tamil Nadu","state_code":"25","district":"Tirunelveli","district_code":"628","address1":"Radhapuram","address2":"","latitude":"8.2792","longitude":"77.6031","accuracy":"4"},{"address3":"Mahendragiri","state":"Tamil Nadu","state_code":"25","district":"Tirunelveli","district_code":"628","address1":"Radhapuram","address2":"","latitude":"8.2792","longitude":"77.6031","accuracy":"3"},{"address3":"Avaraikulam","state":"Tamil Nadu","state_code":"25","district":"Tirunelveli","district_code":"628","address1":"Radhapuram","address2":"","latitude":"8.2792","longitude":"77.6031","accuracy":"3"}],"627151":[{"address3":"Kovaikulam","state":"Tamil Nadu","state_code":"25","district":"Tirunelveli","district_code":"628","address1":"Nanguneri","address2":"","latitude":"8.5998","longitude":"77.7348","accuracy":"4"},{"address3":"Maruthakulam","state":"Tamil Nadu","state_code":"25","district":"Tirunelveli","district_code":"628","address1":"Nanguneri","address2":"","latitude":"8.5998","longitude":"77.7348","accuracy":"3"},{"address3":"A. Sathankulam","state":"Tamil Nadu","state_code":"25","district":"Tirunelveli","district_code":"628","address1":"Nanguneri","address2":"","latitude":"8.5998","longitude":"77.7348","accuracy":"3"},{"address3":"Karuppukatti","state":"Tamil Nadu","state_code":"25","district":"Tirunelveli","district_code":"628","address1":"Nanguneri","address2":"","latitude":"8.5998","longitude":"77.7348","accuracy":"3"},{"address3":"Thottakudi","state":"Tamil Nadu","state_code":"25","district":"Tirunelveli","district_code":"628","address1":"Nanguneri","address2":"","latitude":"8.5998","longitude":"77.7348","accuracy":"3"},{"address3":"Ponnakudi","state":"Tamil Nadu","state_code":"25","district":"Tirunelveli","district_code":"628","address1":"Palayankottai","address2":"","latitude":"8.5998","longitude":"77.7348","accuracy":"3"}],"627152":[{"address3":"Mundradaippu","state":"Tamil Nadu","state_code":"25","district":"Tirunelveli","district_code":"628","address1":"Palayamkottai","address2":"","latitude":"8.5845","longitude":"77.6781","accuracy":"3"},{"address3":"Keela Kaduvetty","state":"Tamil Nadu","state_code":"25","district":"Tirunelveli","district_code":"628","address1":"Nanguneri","address2":"","latitude":"8.5845","longitude":"77.6781","accuracy":"3"},{"address3":"Sengulam","state":"Tamil Nadu","state_code":"25","district":"Tirunelveli","district_code":"628","address1":"Palayankottai","address2":"","latitude":"8.6161","longitude":"77.6718","accuracy":"4"},{"address3":"Melasadayamankulam","state":"Tamil Nadu","state_code":"25","district":"Tirunelveli","district_code":"628","address1":"Nanguneri","address2":"","latitude":"8.5845","longitude":"77.6781","accuracy":"3"},{"address3":"Karandaneri","state":"Tamil Nadu","state_code":"25","district":"Tirunelveli","district_code":"628","address1":"Nenguneri","address2":"","latitude":"8.5528","longitude":"77.6844","accuracy":"4"},{"address3":"Singikulam","state":"Tamil Nadu","state_code":"25","district":"Tirunelveli","district_code":"628","address1":"Nanguneri","address2":"","latitude":"8.5845","longitude":"77.6781","accuracy":"3"},{"address3":"Panankulam","state":"Tamil Nadu","state_code":"25","district":"Tirunelveli","district_code":"628","address1":"Nanguneri","address2":"","latitude":"8.5845","longitude":"77.6781","accuracy":"3"},{"address3":"Thidiyur","state":"Tamil Nadu","state_code":"25","district":"Tirunelveli","district_code":"628","address1":"Palayankottai","address2":"","latitude":"8.5845","longitude":"77.6781","accuracy":"3"}],"627201":[{"address3":"Kalakudi","state":"Tamil Nadu","state_code":"25","district":"Tirunelveli","district_code":"628","address1":"Tirunelveli","address2":"","latitude":"8.7987","longitude":"77.542","accuracy":"3"},{"address3":"Alagiapandiapuram","state":"Tamil Nadu","state_code":"25","district":"Tirunelveli","district_code":"628","address1":"Tirunelveli","address2":"","latitude":"8.8775","longitude":"77.6571","accuracy":"3"},{"address3":"Pillaiyarkulam","state":"Tamil Nadu","state_code":"25","district":"Tirunelveli","district_code":"628","address1":"Tirunelveli","address2":"","latitude":"8.8993","longitude":"77.6703","accuracy":"4"},{"address3":"Therkupatti","state":"Tamil Nadu","state_code":"25","district":"Tirunelveli","district_code":"628","address1":"Tirunelveli","address2":"","latitude":"8.8775","longitude":"77.6571","accuracy":"3"},{"address3":"Kattarankulam","state":"Tamil Nadu","state_code":"25","district":"Tirunelveli","district_code":"628","address1":"Tirunelveli","address2":"","latitude":"8.9086","longitude":"77.6823","accuracy":"4"},{"address3":"Madavakurichi","state":"Tamil Nadu","state_code":"25","district":"Tirunelveli","district_code":"628","address1":"Tirunelveli","address2":"","latitude":"8.8775","longitude":"77.6571","accuracy":"3"},{"address3":"Kanarpatti","state":"Tamil Nadu","state_code":"25","district":"Tirunelveli","district_code":"628","address1":"Tirunelveli","address2":"","latitude":"8.898","longitude":"77.6472","accuracy":"4"},{"address3":"Mavadi","state":"Tamil Nadu","state_code":"25","district":"Tirunelveli","district_code":"628","address1":"Tirunelveli","address2":"","latitude":"8.8398","longitude":"77.6687","accuracy":"4"},{"address3":"Manur","state":"Tamil Nadu","state_code":"25","district":"Tirunelveli","district_code":"628","address1":"Tirunelveli","address2":"","latitude":"8.8547","longitude":"77.655","accuracy":"4"},{"address3":"Ettankulam","state":"Tamil Nadu","state_code":"25","district":"Tirunelveli","district_code":"628","address1":"Tirunelveli","address2":"","latitude":"8.865","longitude":"77.6189","accuracy":"4"}],"627202":[{"address3":"Ukkirankottai","state":"Tamil Nadu","state_code":"25","district":"Tirunelveli","district_code":"628","address1":"Tirunelveli","address2":"","latitude":"8.9109","longitude":"77.5997","accuracy":"4"},{"address3":"Vagaikulam","state":"Tamil Nadu","state_code":"25","district":"Tirunelveli","district_code":"628","address1":"Tirunelveli","address2":"","latitude":"8.7258","longitude":"77.4396","accuracy":"4"},{"address3":"Kaduvetti","state":"Tamil Nadu","state_code":"25","district":"Tirunelveli","district_code":"628","address1":"Tirunelveli","address2":"","latitude":"8.9104","longitude":"77.5787","accuracy":"4"}],"627351":[{"address3":"Melakulam","state":"Tamil Nadu","state_code":"25","district":"Tirunelveli","district_code":"628","address1":"Palayamkottai","address2":"","latitude":"8.7586","longitude":"77.8126","accuracy":"3"},{"address3":"Marudur","state":"Tamil Nadu","state_code":"25","district":"Tirunelveli","district_code":"628","address1":"Palayankottai","address2":"","latitude":"8.7586","longitude":"77.8126","accuracy":"4"},{"address3":"Melapattam","state":"Tamil Nadu","state_code":"25","district":"Tirunelveli","district_code":"628","address1":"Palayankottai","address2":"","latitude":"8.7586","longitude":"77.8126","accuracy":"3"},{"address3":"Burkitmanagaram","state":"Tamil Nadu","state_code":"25","district":"Tirunelveli","district_code":"628","address1":"Palayamkottai","address2":"","latitude":"8.7586","longitude":"77.8126","accuracy":"3"},{"address3":"Keelapattam","state":"Tamil Nadu","state_code":"25","district":"Tirunelveli","district_code":"628","address1":"Palayankottai","address2":"","latitude":"8.7586","longitude":"77.8126","accuracy":"3"},{"address3":"Sivalaperi","state":"Tamil Nadu","state_code":"25","district":"Tirunelveli","district_code":"628","address1":"Palayankottai","address2":"","latitude":"8.7586","longitude":"77.8126","accuracy":"3"},{"address3":"Naduvakrichi","state":"Tamil Nadu","state_code":"25","district":"Tirunelveli","district_code":"628","address1":"Palayankottai","address2":"","latitude":"8.7586","longitude":"77.8126","accuracy":"3"},{"address3":"Melaputhaneri","state":"Tamil Nadu","state_code":"25","district":"Tirunelveli","district_code":"628","address1":"Palayankottai","address2":"","latitude":"8.7586","longitude":"77.8126","accuracy":"3"}],"627352":[{"address3":"Seliyanallur","state":"Tamil Nadu","state_code":"25","district":"Tirunelveli","district_code":"628","address1":"NA","address2":"","latitude":"8.9022","longitude":"77.7098","accuracy":"4"},{"address3":"Piranjeri","state":"Tamil Nadu","state_code":"25","district":"Tirunelveli","district_code":"628","address1":"NA","address2":"","latitude":"8.7704","longitude":"77.7054","accuracy":"3"},{"address3":"Gangaikondan","state":"Tamil Nadu","state_code":"25","district":"Tirunelveli","district_code":"628","address1":"Tirunelveli","address2":"","latitude":"8.8579","longitude":"77.7802","accuracy":"4"},{"address3":"Veppankulam","state":"Tamil Nadu","state_code":"25","district":"Tirunelveli","district_code":"628","address1":"NA","address2":"","latitude":"8.5511","longitude":"77.6263","accuracy":"4"},{"address3":"Rajaputhukudi","state":"Tamil Nadu","state_code":"25","district":"Tirunelveli","district_code":"628","address1":"NA","address2":"","latitude":"8.7704","longitude":"77.7054","accuracy":"3"},{"address3":"K Kailasapuram","state":"Tamil Nadu","state_code":"25","district":"Tirunelveli","district_code":"628","address1":"NA","address2":"","latitude":"8.7704","longitude":"77.7054","accuracy":"3"},{"address3":"Kodiyankulam","state":"Tamil Nadu","state_code":"25","district":"Tirunelveli","district_code":"628","address1":"NA","address2":"","latitude":"8.7704","longitude":"77.7054","accuracy":"3"}],"627353":[{"address3":"Kizhanatham","state":"Tamil Nadu","state_code":"25","district":"Tirunelveli","district_code":"628","address1":"Palayankottai","address2":"","latitude":"8.738","longitude":"77.746","accuracy":"3"},{"address3":"Manappadaiveedu","state":"Tamil Nadu","state_code":"25","district":"Tirunelveli","district_code":"628","address1":"Palayankottai","address2":"","latitude":"8.738","longitude":"77.746","accuracy":"3"},{"address3":"Timmarajapuram","state":"Tamil Nadu","state_code":"25","district":"Tirunelveli","district_code":"628","address1":"Palayamkottai","address2":"","latitude":"8.738","longitude":"77.746","accuracy":"4"}],"627354":[{"address3":"Paruthipadu","state":"Tamil Nadu","state_code":"25","district":"Tirunelveli","district_code":"628","address1":"Nanguneri","address2":"","latitude":"8.534","longitude":"77.7473","accuracy":"3"},{"address3":"Alwaneri","state":"Tamil Nadu","state_code":"25","district":"Tirunelveli","district_code":"628","address1":"Nanguneri","address2":"","latitude":"8.534","longitude":"77.7473","accuracy":"3"},{"address3":"Deivanayagaperi","state":"Tamil Nadu","state_code":"25","district":"Tirunelveli","district_code":"628","address1":"Nanguneri","address2":"","latitude":"8.534","longitude":"77.7473","accuracy":"3"},{"address3":"Ambalam","state":"Tamil Nadu","state_code":"25","district":"Tirunelveli","district_code":"628","address1":"Nanguneri","address2":"","latitude":"8.5227","longitude":"77.7267","accuracy":"4"},{"address3":"Mulaikaraipatti","state":"Tamil Nadu","state_code":"25","district":"Tirunelveli","district_code":"628","address1":"Nanguneri","address2":"","latitude":"8.5454","longitude":"77.7679","accuracy":"4"}],"627355":[{"address3":"Tirumalapuram","state":"Tamil Nadu","state_code":"25","district":"Tirunelveli","district_code":"628","address1":"Nanguneri","address2":"","latitude":"8.3468","longitude":"77.6533","accuracy":"4"},{"address3":"Ramakrishnapuram","state":"Tamil Nadu","state_code":"25","district":"Tirunelveli","district_code":"628","address1":"Nanguneri","address2":"","latitude":"8.4669","longitude":"77.7929","accuracy":"4"},{"address3":"Kundakulam","state":"Tamil Nadu","state_code":"25","district":"Tirunelveli","district_code":"628","address1":"Nanguneri","address2":"","latitude":"8.4965","longitude":"77.7619","accuracy":"4"},{"address3":"Chinthamani","state":"Tamil Nadu","state_code":"25","district":"Tirunelveli","district_code":"628","address1":"Nanguneri","address2":"","latitude":"8.4367","longitude":"77.736","accuracy":"3"},{"address3":"Munanjipatti","state":"Tamil Nadu","state_code":"25","district":"Tirunelveli","district_code":"628","address1":"Nanguneri","address2":"","latitude":"8.4367","longitude":"77.736","accuracy":"3"}],"627356":[{"address3":"Karungulam","state":"Tamil Nadu","state_code":"25","district":"Tirunelveli","district_code":"628","address1":"Palayamkottai","address2":"","latitude":"8.6919","longitude":"77.704","accuracy":"4"},{"address3":"Kila Omanallur","state":"Tamil Nadu","state_code":"25","district":"Tirunelveli","district_code":"628","address1":"Palayamkottai","address2":"","latitude":"8.6837","longitude":"77.6939","accuracy":"3"},{"address3":"Taruvai","state":"Tamil Nadu","state_code":"25","district":"Tirunelveli","district_code":"628","address1":"Palayankottai","address2":"","latitude":"8.6741","longitude":"77.6789","accuracy":"4"},{"address3":"Munnirpallam","state":"Tamil Nadu","state_code":"25","district":"Tirunelveli","district_code":"628","address1":"Palayankottai","address2":"","latitude":"8.6849","longitude":"77.6987","accuracy":"4"}],"627357":[{"address3":"Sankarnagar","state":"Tamil Nadu","state_code":"25","district":"Tirunelveli","district_code":"628","address1":"Tirunelveli","address2":"","latitude":"8.7809","longitude":"77.719","accuracy":"3"},{"address3":"Karaiyiruppu","state":"Tamil Nadu","state_code":"25","district":"Tirunelveli","district_code":"628","address1":"Tirunelveli","address2":"","latitude":"8.7638","longitude":"77.7178","accuracy":"4"},{"address3":"Pallaikottai","state":"Tamil Nadu","state_code":"25","district":"Tirunelveli","district_code":"628","address1":"Tirunelveli","address2":"","latitude":"8.7809","longitude":"77.719","accuracy":"3"},{"address3":"Naranammalpuram","state":"Tamil Nadu","state_code":"25","district":"Tirunelveli","district_code":"628","address1":"Tirunelveli","address2":"","latitude":"8.7599","longitude":"77.7399","accuracy":"4"},{"address3":"Nanajankulam","state":"Tamil Nadu","state_code":"25","district":"Tirunelveli","district_code":"628","address1":"Tirunelveli","address2":"","latitude":"8.7809","longitude":"77.719","accuracy":"3"},{"address3":"Tenkulam","state":"Tamil Nadu","state_code":"25","district":"Tirunelveli","district_code":"628","address1":"Tirunelveli","address2":"","latitude":"8.819","longitude":"77.6993","accuracy":"4"}],"627358":[{"address3":"Azhaganeri","state":"Tamil Nadu","state_code":"25","district":"Tirunelveli","district_code":"628","address1":"Tirunelveli","address2":"","latitude":"9.0617","longitude":"77.6974","accuracy":"3"},{"address3":"Ramayanpatti","state":"Tamil Nadu","state_code":"25","district":"Tirunelveli","district_code":"628","address1":"Tirunelvel;i","address2":"","latitude":"9.0617","longitude":"77.6974","accuracy":"4"},{"address3":"Senthimanagalam","state":"Tamil Nadu","state_code":"25","district":"Tirunelveli","district_code":"628","address1":"Tirunelveli","address2":"","latitude":"9.0617","longitude":"77.6974","accuracy":"3"},{"address3":"Tachanallur","state":"Tamil Nadu","state_code":"25","district":"Tirunelveli","district_code":"628","address1":"Tirunelveli","address2":"","latitude":"9.0617","longitude":"77.6974","accuracy":"3"},{"address3":"Sethurayanputhur","state":"Tamil Nadu","state_code":"25","district":"Tirunelveli","district_code":"628","address1":"Tirunelveli","address2":"","latitude":"9.0617","longitude":"77.6974","accuracy":"3"}],"627359":[{"address3":"Pappiahpuram","state":"Tamil Nadu","state_code":"25","district":"Tirunelveli","district_code":"628","address1":"Tirunelveli","address2":"","latitude":"8.8211","longitude":"77.7179","accuracy":"3"},{"address3":"Palamadai","state":"Tamil Nadu","state_code":"25","district":"Tirunelveli","district_code":"628","address1":"Tirunelveli","address2":"","latitude":"8.8539","longitude":"77.6828","accuracy":"4"},{"address3":"Rajavallipuram","state":"Tamil Nadu","state_code":"25","district":"Tirunelveli","district_code":"628","address1":"Tirunelveli","address2":"","latitude":"8.7883","longitude":"77.753","accuracy":"4"}],"627401":[{"address3":"Ambasamudram H.O","state":"Tamil Nadu","state_code":"25","district":"Tirunelveli","district_code":"628","address1":"Ambasamudram","address2":"","latitude":"8.8359","longitude":"77.5981","accuracy":"1"},{"address3":"Ambasamudram Angadi","state":"Tamil Nadu","state_code":"25","district":"Tirunelveli","district_code":"628","address1":"Ambasamudram","address2":"","latitude":"8.8359","longitude":"77.5981","accuracy":"1"},{"address3":"Ambasamudram East","state":"Tamil Nadu","state_code":"25","district":"Tirunelveli","district_code":"628","address1":"Ambasamudram","address2":"","latitude":"8.8359","longitude":"77.5981","accuracy":"1"}],"627412":[{"address3":"Kadana Anaithittam","state":"Tamil Nadu","state_code":"25","district":"Tirunelveli","district_code":"628","address1":"Ambasamudram","address2":"","latitude":"8.9974","longitude":"77.641","accuracy":"1"},{"address3":"Alwarkurichi","state":"Tamil Nadu","state_code":"25","district":"Tirunelveli","district_code":"628","address1":"Ambasamudram","address2":"","latitude":"8.9974","longitude":"77.641","accuracy":"1"},{"address3":"Merku Alwarkurichi","state":"Tamil Nadu","state_code":"25","district":"Tirunelveli","district_code":"628","address1":"Ambasamudram","address2":"","latitude":"8.9974","longitude":"77.641","accuracy":"1"},{"address3":"Sembankulam","state":"Tamil Nadu","state_code":"25","district":"Tirunelveli","district_code":"628","address1":"Ambasamudram","address2":"","latitude":"8.9974","longitude":"77.641","accuracy":"1"},{"address3":"Sivasailam","state":"Tamil Nadu","state_code":"25","district":"Tirunelveli","district_code":"628","address1":"NA","address2":"","latitude":"8.9974","longitude":"77.641","accuracy":"1"}],"627413":[{"address3":"Adaichani","state":"Tamil Nadu","state_code":"25","district":"Tirunelveli","district_code":"628","address1":"Ambasamudram","address2":"","latitude":"8.9974","longitude":"77.641","accuracy":"1"},{"address3":"Ambasamudram Pothugudi","state":"Tamil Nadu","state_code":"25","district":"Tirunelveli","district_code":"628","address1":"Ambasamudram","address2":"","latitude":"8.9974","longitude":"77.641","accuracy":"1"},{"address3":"Brahmadesam (Tirunelveli)","state":"Tamil Nadu","state_code":"25","district":"Tirunelveli","district_code":"628","address1":"Ambasamudram","address2":"","latitude":"8.9974","longitude":"77.641","accuracy":"1"},{"address3":"Mannarkoil","state":"Tamil Nadu","state_code":"25","district":"Tirunelveli","district_code":"628","address1":"NA","address2":"","latitude":"8.9974","longitude":"77.641","accuracy":"1"},{"address3":"Rengasamudram","state":"Tamil Nadu","state_code":"25","district":"Tirunelveli","district_code":"628","address1":"Ambasamudram","address2":"","latitude":"8.9974","longitude":"77.641","accuracy":"1"}],"627414":[{"address3":"Karisalpatti","state":"Tamil Nadu","state_code":"25","district":"Tirunelveli","district_code":"628","address1":"Ambasamudram","address2":"","latitude":"8.6085","longitude":"77.5861","accuracy":"4"},{"address3":"Cheranmahadevi R.S","state":"Tamil Nadu","state_code":"25","district":"Tirunelveli","district_code":"628","address1":"Ambasamudram","address2":"","latitude":"8.642","longitude":"77.5778","accuracy":"3"},{"address3":"Cheranmahadevi","state":"Tamil Nadu","state_code":"25","district":"Tirunelveli","district_code":"628","address1":"Ambasamudram","address2":"","latitude":"8.6755","longitude":"77.5696","accuracy":"4"},{"address3":"Thiruviruthanpulli","state":"Tamil Nadu","state_code":"25","district":"Tirunelveli","district_code":"628","address1":"Ambasamudram","address2":"","latitude":"8.642","longitude":"77.5778","accuracy":"3"}],"627415":[{"address3":"Koviloothu","state":"Tamil Nadu","state_code":"25","district":"Tirunelveli","district_code":"628","address1":"Ambasamudram","address2":"","latitude":"9.9393","longitude":"77.9962","accuracy":"3"},{"address3":"Servaikaranpatti","state":"Tamil Nadu","state_code":"25","district":"Tirunelveli","district_code":"628","address1":"Ambasamudram","address2":"","latitude":"8.7987","longitude":"77.542","accuracy":"4"},{"address3":"Pungampatti","state":"Tamil Nadu","state_code":"25","district":"Tirunelveli","district_code":"628","address1":"Ambasamudram","address2":"","latitude":"8.7987","longitude":"77.542","accuracy":"4"},{"address3":"Kadayam","state":"Tamil Nadu","state_code":"25","district":"Tirunelveli","district_code":"628","address1":"Ambasamudram","address2":"","latitude":"8.8204","longitude":"77.3729","accuracy":"4"},{"address3":"Mathapuram","state":"Tamil Nadu","state_code":"25","district":"Tirunelveli","district_code":"628","address1":"Ambasamudram","address2":"","latitude":"9.9393","longitude":"77.9962","accuracy":"3"},{"address3":"Poolankulam","state":"Tamil Nadu","state_code":"25","district":"Tirunelveli","district_code":"628","address1":"Ambasamudram","address2":"","latitude":"9.9393","longitude":"77.9962","accuracy":"3"},{"address3":"Vengadampatti","state":"Tamil Nadu","state_code":"25","district":"Tirunelveli","district_code":"628","address1":"Alangulam","address2":"","latitude":"9.9393","longitude":"77.9962","accuracy":"3"}],"627416":[{"address3":"Singampatti","state":"Tamil Nadu","state_code":"25","district":"Tirunelveli","district_code":"628","address1":"Ambasamudram","address2":"","latitude":"8.6656","longitude":"77.4444","accuracy":"4"},{"address3":"Vairavikulam","state":"Tamil Nadu","state_code":"25","district":"Tirunelveli","district_code":"628","address1":"Ambasamudram","address2":"","latitude":"8.6783","longitude":"77.44","accuracy":"4"},{"address3":"Therkupappankulam","state":"Tamil Nadu","state_code":"25","district":"Tirunelveli","district_code":"628","address1":"Ambasamudram","address2":"","latitude":"8.6979","longitude":"77.4991","accuracy":"3"},{"address3":"Pottal","state":"Tamil Nadu","state_code":"25","district":"Tirunelveli","district_code":"628","address1":"Ambasamudram","address2":"","latitude":"8.7519","longitude":"77.7438","accuracy":"4"},{"address3":"Kallidaikurichi","state":"Tamil Nadu","state_code":"25","district":"Tirunelveli","district_code":"628","address1":"Ambasamudram","address2":"","latitude":"8.6859","longitude":"77.4659","accuracy":"4"},{"address3":"Sattupathu","state":"Tamil Nadu","state_code":"25","district":"Tirunelveli","district_code":"628","address1":"Ambasamudram","address2":"","latitude":"8.6979","longitude":"77.4991","accuracy":"3"},{"address3":"Kodarankulam","state":"Tamil Nadu","state_code":"25","district":"Tirunelveli","district_code":"628","address1":"Ambasamudram","address2":"","latitude":"8.6966","longitude":"77.4275","accuracy":"4"},{"address3":"Urkad","state":"Tamil Nadu","state_code":"25","district":"Tirunelveli","district_code":"628","address1":"Ambasamudram","address2":"","latitude":"8.7089","longitude":"77.4728","accuracy":"4"},{"address3":"Kottaitheru","state":"Tamil Nadu","state_code":"25","district":"Tirunelveli","district_code":"628","address1":"Ambasamudram","address2":"","latitude":"8.6979","longitude":"77.4991","accuracy":"3"}],"627417":[{"address3":"Karaikurichi (Tirunelveli)","state":"Tamil Nadu","state_code":"25","district":"Tirunelveli","district_code":"628","address1":"Ambasamudram","address2":"","latitude":"8.6794","longitude":"77.5533","accuracy":"3"},{"address3":"Kuniyur","state":"Tamil Nadu","state_code":"25","district":"Tirunelveli","district_code":"628","address1":"Ambasamudram","address2":"","latitude":"8.6794","longitude":"77.5533","accuracy":"4"}],"627418":[{"address3":"Ayanthiruvaleeswaram","state":"Tamil Nadu","state_code":"25","district":"Tirunelveli","district_code":"628","address1":"Ambasamudram","address2":"","latitude":"8.9974","longitude":"77.641","accuracy":"1"},{"address3":"Kila Ambur","state":"Tamil Nadu","state_code":"25","district":"Tirunelveli","district_code":"628","address1":"Ambasamudram","address2":"","latitude":"8.9974","longitude":"77.641","accuracy":"1"},{"address3":"Karuthapillaiyur","state":"Tamil Nadu","state_code":"25","district":"Tirunelveli","district_code":"628","address1":"Ambasamudram","address2":"","latitude":"8.9974","longitude":"77.641","accuracy":"1"}],"627420":[{"address3":"Manjolai","state":"Tamil Nadu","state_code":"25","district":"Tirunelveli","district_code":"628","address1":"Ambasamudram","address2":"","latitude":"8.6747","longitude":"77.5439","accuracy":"1"}],"627421":[{"address3":"Aladiyur","state":"Tamil Nadu","state_code":"25","district":"Tirunelveli","district_code":"628","address1":"Ambasamudram","address2":"","latitude":"8.6805","longitude":"77.4285","accuracy":"4"},{"address3":"Manimuthar Project","state":"Tamil Nadu","state_code":"25","district":"Tirunelveli","district_code":"628","address1":"Ambasamudram","address2":"","latitude":"8.6805","longitude":"77.4285","accuracy":"3"}],"627422":[{"address3":"Papanasam Mills","state":"Tamil Nadu","state_code":"25","district":"Tirunelveli","district_code":"628","address1":"Ambasamudram","address2":"","latitude":"8.6747","longitude":"77.5439","accuracy":"1"}],"627423":[{"address3":"Theertharappapuram","state":"Tamil Nadu","state_code":"25","district":"Tirunelveli","district_code":"628","address1":"Ambasamudram","address2":"","latitude":"9.0263","longitude":"77.7097","accuracy":"3"},{"address3":"Pottalpudur","state":"Tamil Nadu","state_code":"25","district":"Tirunelveli","district_code":"628","address1":"Ambasamudram","address2":"","latitude":"9.2418","longitude":"77.6559","accuracy":"4"},{"address3":"Pappankulam","state":"Tamil Nadu","state_code":"25","district":"Tirunelveli","district_code":"628","address1":"Ambasamudram","address2":"","latitude":"8.8107","longitude":"77.7635","accuracy":"4"},{"address3":"Therku Madathur","state":"Tamil Nadu","state_code":"25","district":"Tirunelveli","district_code":"628","address1":"Ambasamudram","address2":"","latitude":"9.0263","longitude":"77.7097","accuracy":"3"},{"address3":"Anaintha Perumal Nadanur","state":"Tamil Nadu","state_code":"25","district":"Tirunelveli","district_code":"628","address1":"Alangulam","address2":"","latitude":"9.0263","longitude":"77.7097","accuracy":"3"},{"address3":"Thuppakudi","state":"Tamil Nadu","state_code":"25","district":"Tirunelveli","district_code":"628","address1":"Alangulam","address2":"","latitude":"9.0263","longitude":"77.7097","accuracy":"3"},{"address3":"Mudaliarpatti","state":"Tamil Nadu","state_code":"25","district":"Tirunelveli","district_code":"628","address1":"Ambasamudram","address2":"","latitude":"9.0263","longitude":"77.7097","accuracy":"3"}],"627424":[{"address3":"Govindaperi","state":"Tamil Nadu","state_code":"25","district":"Tirunelveli","district_code":"628","address1":"Ambasamudram","address2":"","latitude":"8.6747","longitude":"77.5439","accuracy":"1"},{"address3":"Manthiyoor","state":"Tamil Nadu","state_code":"25","district":"Tirunelveli","district_code":"628","address1":"Ambasamudram","address2":"","latitude":"8.6747","longitude":"77.5439","accuracy":"1"},{"address3":"Ravanasamudram","state":"Tamil Nadu","state_code":"25","district":"Tirunelveli","district_code":"628","address1":"Ambasamudram","address2":"","latitude":"8.6747","longitude":"77.5439","accuracy":"1"}],"627425":[{"address3":"Vickramasingapuram","state":"Tamil Nadu","state_code":"25","district":"Tirunelveli","district_code":"628","address1":"Ambasamudram","address2":"","latitude":"8.4766","longitude":"77.4896","accuracy":"3"},{"address3":"Tana","state":"Tamil Nadu","state_code":"25","district":"Tirunelveli","district_code":"628","address1":"Ambasamudram","address2":"","latitude":"8.4766","longitude":"77.4896","accuracy":"3"},{"address3":"Uchankulam","state":"Tamil Nadu","state_code":"25","district":"Tirunelveli","district_code":"628","address1":"Ambasamudram","address2":"","latitude":"8.7157","longitude":"77.4043","accuracy":"4"},{"address3":"Papanasam Project","state":"Tamil Nadu","state_code":"25","district":"Tirunelveli","district_code":"628","address1":"Ambasamudram","address2":"","latitude":"8.4766","longitude":"77.4896","accuracy":"3"},{"address3":"Ambalavanapuram","state":"Tamil Nadu","state_code":"25","district":"Tirunelveli","district_code":"628","address1":"Ambasamudram","address2":"","latitude":"8.2375","longitude":"77.5749","accuracy":"4"},{"address3":"Sivanthipuram","state":"Tamil Nadu","state_code":"25","district":"Tirunelveli","district_code":"628","address1":"Ambasamudram","address2":"","latitude":"8.4766","longitude":"77.4896","accuracy":"3"},{"address3":"Servalar Camp","state":"Tamil Nadu","state_code":"25","district":"Tirunelveli","district_code":"628","address1":"Ambasamudram","address2":"","latitude":"8.4766","longitude":"77.4896","accuracy":"3"},{"address3":"Papanasam Upper Dam","state":"Tamil Nadu","state_code":"25","district":"Tirunelveli","district_code":"628","address1":"Ambasamudram","address2":"","latitude":"8.4766","longitude":"77.4896","accuracy":"3"}],"627426":[{"address3":"Vellankuli","state":"Tamil Nadu","state_code":"25","district":"Tirunelveli","district_code":"628","address1":"Ambasamudram","address2":"","latitude":"8.6917","longitude":"77.4931","accuracy":"4"},{"address3":"Attalanallur","state":"Tamil Nadu","state_code":"25","district":"Tirunelveli","district_code":"628","address1":"Ambasamudram","address2":"","latitude":"8.7205","longitude":"77.492","accuracy":"4"},{"address3":"Thiruppudaimarudur","state":"Tamil Nadu","state_code":"25","district":"Tirunelveli","district_code":"628","address1":"Ambasamudram","address2":"","latitude":"8.6121","longitude":"77.5224","accuracy":"3"},{"address3":"Viravanallur","state":"Tamil Nadu","state_code":"25","district":"Tirunelveli","district_code":"628","address1":"Ambasamudram","address2":"","latitude":"8.6979","longitude":"77.5192","accuracy":"4"},{"address3":"Kilakulam","state":"Tamil Nadu","state_code":"25","district":"Tirunelveli","district_code":"628","address1":"Ambasamudram","address2":"","latitude":"8.2381","longitude":"77.5928","accuracy":"4"},{"address3":"Harikesavanallur","state":"Tamil Nadu","state_code":"25","district":"Tirunelveli","district_code":"628","address1":"Ambasamudram","address2":"","latitude":"8.7125","longitude":"77.5149","accuracy":"4"}],"627427":[{"address3":"Oothu","state":"Tamil Nadu","state_code":"25","district":"Tirunelveli","district_code":"628","address1":"Ambasamudram","address2":"","latitude":"8.6747","longitude":"77.5439","accuracy":"1"},{"address3":"Kothayarmel Thangal","state":"Tamil Nadu","state_code":"25","district":"Tirunelveli","district_code":"628","address1":"Ambasamudram","address2":"","latitude":"8.6747","longitude":"77.5439","accuracy":"1"},{"address3":"Nalumukku","state":"Tamil Nadu","state_code":"25","district":"Tirunelveli","district_code":"628","address1":"Ambasamudram","address2":"","latitude":"8.6747","longitude":"77.5439","accuracy":"1"}],"627428":[{"address3":"Agasthiyarpatti","state":"Tamil Nadu","state_code":"25","district":"Tirunelveli","district_code":"628","address1":"Ambasamudram","address2":"","latitude":"8.6747","longitude":"77.5439","accuracy":"1"}],"627451":[{"address3":"Gopalasamudram","state":"Tamil Nadu","state_code":"25","district":"Tirunelveli","district_code":"628","address1":"Ambasamudram","address2":"","latitude":"8.6747","longitude":"77.6379","accuracy":"4"}],"627452":[{"address3":"Melaseval","state":"Tamil Nadu","state_code":"25","district":"Tirunelveli","district_code":"628","address1":"Ambasamudram","address2":"","latitude":"8.6736","longitude":"77.6112","accuracy":"1"}],"627453":[{"address3":"Karisulthamangalam","state":"Tamil Nadu","state_code":"25","district":"Tirunelveli","district_code":"628","address1":"Ambasamudram","address2":"","latitude":"8.6726","longitude":"77.5845","accuracy":"3"},{"address3":"Pattamadai","state":"Tamil Nadu","state_code":"25","district":"Tirunelveli","district_code":"628","address1":"Ambasamudram","address2":"","latitude":"8.6726","longitude":"77.5845","accuracy":"4"}],"627501":[{"address3":"Kalakad","state":"Tamil Nadu","state_code":"25","district":"Tirunelveli","district_code":"628","address1":"Nanguneri","address2":"","latitude":"8.5138","longitude":"77.5494","accuracy":"4"},{"address3":"Keelakaruvelankulam","state":"Tamil Nadu","state_code":"25","district":"Tirunelveli","district_code":"628","address1":"Nanguneri","address2":"","latitude":"8.5142","longitude":"77.5601","accuracy":"3"},{"address3":"Pathai","state":"Tamil Nadu","state_code":"25","district":"Tirunelveli","district_code":"628","address1":"Nanguneri","address2":"","latitude":"8.5142","longitude":"77.5601","accuracy":"3"},{"address3":"Singampathu","state":"Tamil Nadu","state_code":"25","district":"Tirunelveli","district_code":"628","address1":"Nanguneri","address2":"","latitude":"8.5142","longitude":"77.5601","accuracy":"3"},{"address3":"Padalaiyarkulam","state":"Tamil Nadu","state_code":"25","district":"Tirunelveli","district_code":"628","address1":"Nanguneri","address2":"","latitude":"8.5147","longitude":"77.5707","accuracy":"4"},{"address3":"Chidamabarapuram","state":"Tamil Nadu","state_code":"25","district":"Tirunelveli","district_code":"628","address1":"Nanguneri","address2":"","latitude":"8.5142","longitude":"77.5601","accuracy":"3"},{"address3":"Kilakku Kalakad","state":"Tamil Nadu","state_code":"25","district":"Tirunelveli","district_code":"628","address1":"Nanguneri","address2":"","latitude":"8.5142","longitude":"77.5601","accuracy":"3"}],"627502":[{"address3":"Padmaneri","state":"Tamil Nadu","state_code":"25","district":"Tirunelveli","district_code":"628","address1":"Nanguneri","address2":"","latitude":"8.543","longitude":"77.5695","accuracy":"4"},{"address3":"Idaiyankulam","state":"Tamil Nadu","state_code":"25","district":"Tirunelveli","district_code":"628","address1":"Nanguneri","address2":"","latitude":"8.6047","longitude":"77.5999","accuracy":"4"},{"address3":"Kalladichidambarapuram","state":"Tamil Nadu","state_code":"25","district":"Tirunelveli","district_code":"628","address1":"Nanguneri","address2":"","latitude":"8.5654","longitude":"77.5882","accuracy":"3"},{"address3":"Devanallur","state":"Tamil Nadu","state_code":"25","district":"Tirunelveli","district_code":"628","address1":"Nanguneri","address2":"","latitude":"8.5486","longitude":"77.5951","accuracy":"4"},{"address3":"Kallikulam","state":"Tamil Nadu","state_code":"25","district":"Tirunelveli","district_code":"628","address1":"Nanguneri","address2":"","latitude":"8.5654","longitude":"77.5882","accuracy":"3"}],"627601":[{"address3":"Singamparai","state":"Tamil Nadu","state_code":"25","district":"Tirunelveli","district_code":"628","address1":"Ambasamudram","address2":"","latitude":"8.7506","longitude":"77.5323","accuracy":"4"},{"address3":"Mukkudal Vadakku","state":"Tamil Nadu","state_code":"25","district":"Tirunelveli","district_code":"628","address1":"Ambasamudram","address2":"","latitude":"8.7469","longitude":"77.5274","accuracy":"3"},{"address3":"Sadayappapuram","state":"Tamil Nadu","state_code":"25","district":"Tirunelveli","district_code":"628","address1":"Ambasamudram","address2":"","latitude":"8.7469","longitude":"77.5274","accuracy":"3"},{"address3":"Mukkudal","state":"Tamil Nadu","state_code":"25","district":"Tirunelveli","district_code":"628","address1":"Ambasamudram","address2":"","latitude":"8.7431","longitude":"77.5225","accuracy":"4"}],"627602":[{"address3":"Kabaliparai","state":"Tamil Nadu","state_code":"25","district":"Tirunelveli","district_code":"628","address1":"Ambasamudram","address2":"","latitude":"9.0973","longitude":"77.7802","accuracy":"3"},{"address3":"Idaikal","state":"Tamil Nadu","state_code":"25","district":"Tirunelveli","district_code":"628","address1":"Ambasamudram","address2":"","latitude":"9.0361","longitude":"77.3369","accuracy":"4"},{"address3":"Pappagudi","state":"Tamil Nadu","state_code":"25","district":"Tirunelveli","district_code":"628","address1":"Ambasamudram","address2":"","latitude":"8.7987","longitude":"77.542","accuracy":"4"},{"address3":"Odaimarichan","state":"Tamil Nadu","state_code":"25","district":"Tirunelveli","district_code":"628","address1":"Alangulam","address2":"","latitude":"9.0973","longitude":"77.7802","accuracy":"3"},{"address3":"Tulukkapatti","state":"Tamil Nadu","state_code":"25","district":"Tirunelveli","district_code":"628","address1":"Ambasamudram","address2":"","latitude":"8.428","longitude":"77.672","accuracy":"4"}],"627603":[{"address3":"Vadakku Ariyanayagipuram Petta","state":"Tamil Nadu","state_code":"25","district":"Tirunelveli","district_code":"628","address1":"Ambasamudram","address2":"","latitude":"8.9144","longitude":"77.6748","accuracy":"1"}],"627604":[{"address3":"Narasinganallur","state":"Tamil Nadu","state_code":"25","district":"Tirunelveli","district_code":"628","address1":"Tirunelveli","address2":"","latitude":"8.7004","longitude":"77.6535","accuracy":"4"},{"address3":"Suttamally","state":"Tamil Nadu","state_code":"25","district":"Tirunelveli","district_code":"628","address1":"Tirunelveli","address2":"","latitude":"8.7004","longitude":"77.6535","accuracy":"3"},{"address3":"Suttamally Vilakku","state":"Tamil Nadu","state_code":"25","district":"Tirunelveli","district_code":"628","address1":"Tirunelveli","address2":"","latitude":"8.7004","longitude":"77.6535","accuracy":"3"}],"627651":[{"address3":"Kuttam","state":"Tamil Nadu","state_code":"25","district":"Tirunelveli","district_code":"628","address1":"Radhapuram","address2":"","latitude":"8.3202","longitude":"77.9384","accuracy":"4"},{"address3":"Uvari","state":"Tamil Nadu","state_code":"25","district":"Tirunelveli","district_code":"628","address1":"Radhapuram","address2":"","latitude":"8.3202","longitude":"77.9384","accuracy":"3"},{"address3":"Anaigudi","state":"Tamil Nadu","state_code":"25","district":"Tirunelveli","district_code":"628","address1":"Radhapuram","address2":"","latitude":"8.3202","longitude":"77.9384","accuracy":"3"},{"address3":"Kooduthalai","state":"Tamil Nadu","state_code":"25","district":"Tirunelveli","district_code":"628","address1":"Radhapuram","address2":"","latitude":"8.3202","longitude":"77.9384","accuracy":"3"},{"address3":"Koottapanai","state":"Tamil Nadu","state_code":"25","district":"Tirunelveli","district_code":"628","address1":"Radhapuram","address2":"","latitude":"8.3202","longitude":"77.9384","accuracy":"3"},{"address3":"Kila Uvari","state":"Tamil Nadu","state_code":"25","district":"Tirunelveli","district_code":"628","address1":"Radhapuram","address2":"","latitude":"8.3202","longitude":"77.9384","accuracy":"3"},{"address3":"Idayangudi","state":"Tamil Nadu","state_code":"25","district":"Tirunelveli","district_code":"628","address1":"Radhapuram","address2":"","latitude":"8.3202","longitude":"77.9384","accuracy":"3"},{"address3":"Muthumathanmonmozhi","state":"Tamil Nadu","state_code":"25","district":"Tirunelveli","district_code":"628","address1":"Radhapuram","address2":"","latitude":"8.3202","longitude":"77.9384","accuracy":"3"}],"627652":[{"address3":"Ittamozhi","state":"Tamil Nadu","state_code":"25","district":"Tirunelveli","district_code":"628","address1":"Radhapuram","address2":"","latitude":"8.3945","longitude":"77.8487","accuracy":"4"},{"address3":"Vijaya Achampadu","state":"Tamil Nadu","state_code":"25","district":"Tirunelveli","district_code":"628","address1":"Radhapuram","address2":"","latitude":"8.406","longitude":"77.8277","accuracy":"4"},{"address3":"Suviseshapuram","state":"Tamil Nadu","state_code":"25","district":"Tirunelveli","district_code":"628","address1":"Radhapuram","address2":"","latitude":"8.3733","longitude":"77.8463","accuracy":"4"},{"address3":"Alagappapuram","state":"Tamil Nadu","state_code":"25","district":"Tirunelveli","district_code":"628","address1":"Nanguneri","address2":"","latitude":"8.4098","longitude":"77.8464","accuracy":"4"}],"627654":[{"address3":"Anaikarai","state":"Tamil Nadu","state_code":"25","district":"Tirunelveli","district_code":"628","address1":"Radhapuram","address2":"","latitude":"8.4471","longitude":"77.6237","accuracy":"4"},{"address3":"Pettaikulam","state":"Tamil Nadu","state_code":"25","district":"Tirunelveli","district_code":"628","address1":"Radhapuram","address2":"","latitude":"8.3131","longitude":"77.8298","accuracy":"4"},{"address3":"Urumankulam","state":"Tamil Nadu","state_code":"25","district":"Tirunelveli","district_code":"628","address1":"Radhapuram","address2":"","latitude":"8.2992","longitude":"77.8138","accuracy":"4"}],"627657":[{"address3":"Kalikumarapuram","state":"Tamil Nadu","state_code":"25","district":"Tirunelveli","district_code":"628","address1":"Radhapuram","address2":"","latitude":"8.2637","longitude":"77.8556","accuracy":"4"},{"address3":"Mannarpuram","state":"Tamil Nadu","state_code":"25","district":"Tirunelveli","district_code":"628","address1":"Radhapuram","address2":"","latitude":"8.4873","longitude":"77.7183","accuracy":"3"},{"address3":"Karaichithupudur","state":"Tamil Nadu","state_code":"25","district":"Tirunelveli","district_code":"628","address1":"Radhapuram","address2":"","latitude":"8.4873","longitude":"77.7183","accuracy":"3"},{"address3":"Navaladi","state":"Tamil Nadu","state_code":"25","district":"Tirunelveli","district_code":"628","address1":"Radhapuram","address2":"","latitude":"8.2578","longitude":"77.8287","accuracy":"4"},{"address3":"Samaria","state":"Tamil Nadu","state_code":"25","district":"Tirunelveli","district_code":"628","address1":"Radhapuram","address2":"","latitude":"8.4873","longitude":"77.7183","accuracy":"3"},{"address3":"Kumarapuram","state":"Tamil Nadu","state_code":"25","district":"Tirunelveli","district_code":"628","address1":"Radhapuram","address2":"","latitude":"8.344","longitude":"77.8366","accuracy":"4"},{"address3":"Mahadevankulam","state":"Tamil Nadu","state_code":"25","district":"Tirunelveli","district_code":"628","address1":"Radhapuram","address2":"","latitude":"8.4873","longitude":"77.7183","accuracy":"3"},{"address3":"Muthukrishnapuram","state":"Tamil Nadu","state_code":"25","district":"Tirunelveli","district_code":"628","address1":"Radhapuram","address2":"","latitude":"9.0835","longitude":"77.3521","accuracy":"4"},{"address3":"Kurugapuram","state":"Tamil Nadu","state_code":"25","district":"Tirunelveli","district_code":"628","address1":"Radhapuram","address2":"","latitude":"8.4873","longitude":"77.7183","accuracy":"3"},{"address3":"Tisayanvillai","state":"Tamil Nadu","state_code":"25","district":"Tirunelveli","district_code":"628","address1":"Radhapuram","address2":"","latitude":"8.4873","longitude":"77.7183","accuracy":"3"}],"627713":[{"address3":"Maipparai","state":"Tamil Nadu","state_code":"25","district":"Tirunelveli","district_code":"628","address1":"Sankarankovil","address2":"","latitude":"9.2397","longitude":"77.7268","accuracy":"4"},{"address3":"Sippiparai","state":"Tamil Nadu","state_code":"25","district":"Tirunelveli","district_code":"628","address1":"Virudhunagar","address2":"","latitude":"9.2397","longitude":"77.7268","accuracy":"3"},{"address3":"Kulakkattakurichi","state":"Tamil Nadu","state_code":"25","district":"Tirunelveli","district_code":"628","address1":"Sankarankovil","address2":"","latitude":"9.2397","longitude":"77.7268","accuracy":"3"},{"address3":"Ilyarasanendal","state":"Tamil Nadu","state_code":"25","district":"Tirunelveli","district_code":"628","address1":"Sankarankovil","address2":"","latitude":"9.2397","longitude":"77.7268","accuracy":"3"}],"627719":[{"address3":"Alagapuri","state":"Tamil Nadu","state_code":"25","district":"Tirunelveli","district_code":"628","address1":"Sankarankovil","address2":"","latitude":"9.2142","longitude":"77.6169","accuracy":"4"},{"address3":"Kalingapatti","state":"Tamil Nadu","state_code":"25","district":"Tirunelveli","district_code":"628","address1":"Sankarankovil","address2":"","latitude":"9.1079","longitude":"77.6088","accuracy":"3"},{"address3":"Vellakulam","state":"Tamil Nadu","state_code":"25","district":"Tirunelveli","district_code":"628","address1":"Sankarankovil","address2":"","latitude":"8.617","longitude":"77.5652","accuracy":"4"},{"address3":"Karisalkulam","state":"Tamil Nadu","state_code":"25","district":"Tirunelveli","district_code":"628","address1":"Sankarankovil","address2":"","latitude":"9.3419","longitude":"77.5782","accuracy":"4"},{"address3":"Chatrapatti","state":"Tamil Nadu","state_code":"25","district":"Tirunelveli","district_code":"628","address1":"Sankarankovil","address2":"","latitude":"9.1079","longitude":"77.6088","accuracy":"3"},{"address3":"Tiruvengadam","state":"Tamil Nadu","state_code":"25","district":"Tirunelveli","district_code":"628","address1":"Sankarankoil","address2":"","latitude":"9.2586","longitude":"77.6748","accuracy":"4"},{"address3":"Kurinjakulam","state":"Tamil Nadu","state_code":"25","district":"Tirunelveli","district_code":"628","address1":"Sankarankovil","address2":"","latitude":"9.1079","longitude":"77.6088","accuracy":"3"},{"address3":"Umaithalaivanpatti","state":"Tamil Nadu","state_code":"25","district":"Tirunelveli","district_code":"628","address1":"Sankarankovil","address2":"","latitude":"9.1079","longitude":"77.6088","accuracy":"3"}],"627751":[{"address3":"Kadayanallur","state":"Tamil Nadu","state_code":"25","district":"Tirunelveli","district_code":"628","address1":"Tenkasi","address2":"","latitude":"9.0728","longitude":"77.3415","accuracy":"4"},{"address3":"Chockammpatti","state":"Tamil Nadu","state_code":"25","district":"Tirunelveli","district_code":"628","address1":"Tenkasi","address2":"","latitude":"9.8422","longitude":"77.7684","accuracy":"3"},{"address3":"Kadayanallur Pettai","state":"Tamil Nadu","state_code":"25","district":"Tirunelveli","district_code":"628","address1":"Tenkasi","address2":"","latitude":"9.0764","longitude":"77.3409","accuracy":"4"},{"address3":"Boganallur","state":"Tamil Nadu","state_code":"25","district":"Tirunelveli","district_code":"628","address1":"Tenkasi","address2":"","latitude":"9.8422","longitude":"77.7684","accuracy":"3"},{"address3":"Sundaresapuram","state":"Tamil Nadu","state_code":"25","district":"Tirunelveli","district_code":"628","address1":"Tenkasi","address2":"","latitude":"8.7987","longitude":"77.542","accuracy":"4"},{"address3":"Kambapacheri","state":"Tamil Nadu","state_code":"25","district":"Tirunelveli","district_code":"628","address1":"Tenkasi","address2":"","latitude":"9.0747","longitude":"77.3766","accuracy":"4"},{"address3":"Kasidharmam","state":"Tamil Nadu","state_code":"25","district":"Tirunelveli","district_code":"628","address1":"Tenkasi","address2":"","latitude":"9.0586","longitude":"77.314","accuracy":"4"},{"address3":"Kadayanallur Bazar","state":"Tamil Nadu","state_code":"25","district":"Tirunelveli","district_code":"628","address1":"Tenkasi","address2":"","latitude":"9.8422","longitude":"77.7684","accuracy":"3"},{"address3":"Mangalapuram","state":"Tamil Nadu","state_code":"25","district":"Tirunelveli","district_code":"628","address1":"Tenkasi","address2":"","latitude":"8.7987","longitude":"77.542","accuracy":"4"},{"address3":"Kumanthapuram","state":"Tamil Nadu","state_code":"25","district":"Tirunelveli","district_code":"628","address1":"Tenkasi","address2":"","latitude":"9.1086","longitude":"77.3539","accuracy":"4"}],"627753":[{"address3":"Manalur","state":"Tamil Nadu","state_code":"25","district":"Tirunelveli","district_code":"628","address1":"Sankarankovil","address2":"","latitude":"9.2259","longitude":"77.5524","accuracy":"4"},{"address3":"Sennikulam","state":"Tamil Nadu","state_code":"25","district":"Tirunelveli","district_code":"628","address1":"Sankarankoil","address2":"","latitude":"9.3719","longitude":"77.5856","accuracy":"3"},{"address3":"Subbulapuram","state":"Tamil Nadu","state_code":"25","district":"Tirunelveli","district_code":"628","address1":"Sankarankovil","address2":"","latitude":"8.7987","longitude":"77.542","accuracy":"4"},{"address3":"Perumalpatti","state":"Tamil Nadu","state_code":"25","district":"Tirunelveli","district_code":"628","address1":"Sankarankovil","address2":"","latitude":"9.0563","longitude":"77.6287","accuracy":"4"},{"address3":"Srigomathipuram","state":"Tamil Nadu","state_code":"25","district":"Tirunelveli","district_code":"628","address1":"Sankarankovil","address2":"","latitude":"9.3719","longitude":"77.5856","accuracy":"3"},{"address3":"Karisathan","state":"Tamil Nadu","state_code":"25","district":"Tirunelveli","district_code":"628","address1":"Sankarankovil","address2":"","latitude":"9.3719","longitude":"77.5856","accuracy":"3"},{"address3":"Karivalamvandanallur","state":"Tamil Nadu","state_code":"25","district":"Tirunelveli","district_code":"628","address1":"Sankarankovil","address2":"","latitude":"9.2715","longitude":"77.5416","accuracy":"4"},{"address3":"Perumbattur","state":"Tamil Nadu","state_code":"25","district":"Tirunelveli","district_code":"628","address1":"Sankarankovil","address2":"","latitude":"9.3719","longitude":"77.5856","accuracy":"3"},{"address3":"Kulasekaraperi","state":"Tamil Nadu","state_code":"25","district":"Tirunelveli","district_code":"628","address1":"Sankarankovil","address2":"","latitude":"9.3719","longitude":"77.5856","accuracy":"3"},{"address3":"Senthattiapuram","state":"Tamil Nadu","state_code":"25","district":"Tirunelveli","district_code":"628","address1":"Sankarankovil","address2":"","latitude":"9.3719","longitude":"77.5856","accuracy":"3"},{"address3":"Kuvalaikanni","state":"Tamil Nadu","state_code":"25","district":"Tirunelveli","district_code":"628","address1":"Sankarankovil","address2":"","latitude":"9.3719","longitude":"77.5856","accuracy":"3"},{"address3":"Paruvakkudi","state":"Tamil Nadu","state_code":"25","district":"Tirunelveli","district_code":"628","address1":"Sankarankovil","address2":"","latitude":"9.2901","longitude":"77.5486","accuracy":"4"},{"address3":"Pandapuli","state":"Tamil Nadu","state_code":"25","district":"Tirunelveli","district_code":"628","address1":"Sankarankovil","address2":"","latitude":"9.3719","longitude":"77.5856","accuracy":"3"},{"address3":"Reddiapatti","state":"Tamil Nadu","state_code":"25","district":"Tirunelveli","district_code":"628","address1":"Sankarankovil","address2":"","latitude":"9.3719","longitude":"77.5856","accuracy":"3"}],"627754":[{"address3":"Vagaikulam","state":"Tamil Nadu","state_code":"25","district":"Tirunelveli","district_code":"628","address1":"Sankarankovil","address2":"","latitude":"8.7258","longitude":"77.4396","accuracy":"4"},{"address3":"Alagunatchiapuram","state":"Tamil Nadu","state_code":"25","district":"Tirunelveli","district_code":"628","address1":"Sankarankovil","address2":"","latitude":"8.9912","longitude":"77.494","accuracy":"3"},{"address3":"Sevalkulam","state":"Tamil Nadu","state_code":"25","district":"Tirunelveli","district_code":"628","address1":"Sankarankovil","address2":"","latitude":"9.2566","longitude":"77.5483","accuracy":"4"},{"address3":"Azhaganeri","state":"Tamil Nadu","state_code":"25","district":"Tirunelveli","district_code":"628","address1":"Sankarankoil","address2":"","latitude":"8.9912","longitude":"77.494","accuracy":"3"},{"address3":"Chiambarapuram","state":"Tamil Nadu","state_code":"25","district":"Tirunelveli","district_code":"628","address1":"Sankarankovil","address2":"","latitude":"8.9912","longitude":"77.494","accuracy":"3"},{"address3":"Kuruvikulam","state":"Tamil Nadu","state_code":"25","district":"Tirunelveli","district_code":"628","address1":"Sankarankoil","address2":"","latitude":"8.9912","longitude":"77.494","accuracy":"3"},{"address3":"Kalappakulam","state":"Tamil Nadu","state_code":"25","district":"Tirunelveli","district_code":"628","address1":"Sankarankovil","address2":"","latitude":"8.9912","longitude":"77.494","accuracy":"3"},{"address3":"Perungottur","state":"Tamil Nadu","state_code":"25","district":"Tirunelveli","district_code":"628","address1":"Sankarankovil","address2":"","latitude":"8.9912","longitude":"77.494","accuracy":"3"},{"address3":"Sathirakondan","state":"Tamil Nadu","state_code":"25","district":"Tirunelveli","district_code":"628","address1":"Sankarankovil","address2":"","latitude":"8.9912","longitude":"77.494","accuracy":"3"},{"address3":"K. Alankulam","state":"Tamil Nadu","state_code":"25","district":"Tirunelveli","district_code":"628","address1":"Sankarankoil","address2":"","latitude":"8.9912","longitude":"77.494","accuracy":"3"}],"627755":[{"address3":"Nagaram","state":"Tamil Nadu","state_code":"25","district":"Tirunelveli","district_code":"628","address1":"Sivigiri","address2":"","latitude":"8.7987","longitude":"77.542","accuracy":"4"},{"address3":"Malayadikurichi","state":"Tamil Nadu","state_code":"25","district":"Tirunelveli","district_code":"628","address1":"Sivigiri","address2":"","latitude":"9.3579","longitude":"78.1387","accuracy":"3"},{"address3":"Mullikulam","state":"Tamil Nadu","state_code":"25","district":"Tirunelveli","district_code":"628","address1":"Sivagiri","address2":"","latitude":"9.3579","longitude":"78.1387","accuracy":"3"},{"address3":"Ramasamipuram","state":"Tamil Nadu","state_code":"25","district":"Tirunelveli","district_code":"628","address1":"NA","address2":"","latitude":"9.3579","longitude":"78.1387","accuracy":"3"},{"address3":"Vadakkupudur","state":"Tamil Nadu","state_code":"25","district":"Tirunelveli","district_code":"628","address1":"Sankarankovil","address2":"","latitude":"9.3579","longitude":"78.1387","accuracy":"3"},{"address3":"Nochikulam","state":"Tamil Nadu","state_code":"25","district":"Tirunelveli","district_code":"628","address1":"Sankarankovil","address2":"","latitude":"9.1613","longitude":"77.4945","accuracy":"4"},{"address3":"Vadamalapuram","state":"Tamil Nadu","state_code":"25","district":"Tirunelveli","district_code":"628","address1":"Sankarankovil","address2":"","latitude":"9.3579","longitude":"78.1387","accuracy":"3"},{"address3":"Thalaivankottai","state":"Tamil Nadu","state_code":"25","district":"Tirunelveli","district_code":"628","address1":"Sivigiri","address2":"","latitude":"9.3579","longitude":"78.1387","accuracy":"3"},{"address3":"Veeriruppu","state":"Tamil Nadu","state_code":"25","district":"Tirunelveli","district_code":"628","address1":"Sankarankovil","address2":"","latitude":"9.3579","longitude":"78.1387","accuracy":"3"}],"627756":[{"address3":"Sankarankovil H.O","state":"Tamil Nadu","state_code":"25","district":"Tirunelveli","district_code":"628","address1":"Sankarankovil","address2":"","latitude":"9.4451","longitude":"77.6777","accuracy":"1"},{"address3":"Sankarankovil Bazaar","state":"Tamil Nadu","state_code":"25","district":"Tirunelveli","district_code":"628","address1":"NA","address2":"","latitude":"9.4451","longitude":"77.6777","accuracy":"1"}],"627757":[{"address3":"Sivagiri (Tirunelveli)","state":"Tamil Nadu","state_code":"25","district":"Tirunelveli","district_code":"628","address1":"Sivagiri","address2":"","latitude":"9.3446","longitude":"77.4291","accuracy":"4"},{"address3":"Tenmalai","state":"Tamil Nadu","state_code":"25","district":"Tirunelveli","district_code":"628","address1":"Sivigiri","address2":"","latitude":"9.3129","longitude":"77.4959","accuracy":"4"},{"address3":"Devipattinam","state":"Tamil Nadu","state_code":"25","district":"Tirunelveli","district_code":"628","address1":"Sivagiri","address2":"","latitude":"8.7987","longitude":"77.542","accuracy":"4"},{"address3":"Arugankulam","state":"Tamil Nadu","state_code":"25","district":"Tirunelveli","district_code":"628","address1":"Sivagiri","address2":"","latitude":"9.3292","longitude":"77.5229","accuracy":"4"},{"address3":"Vadugapatti","state":"Tamil Nadu","state_code":"25","district":"Tirunelveli","district_code":"628","address1":"Sivigiri","address2":"","latitude":"9.3224","longitude":"77.4662","accuracy":"4"},{"address3":"Inamkovilpatti","state":"Tamil Nadu","state_code":"25","district":"Tirunelveli","district_code":"628","address1":"Sivagiri","address2":"","latitude":"9.3466","longitude":"77.6725","accuracy":"3"},{"address3":"Viswanathaperi","state":"Tamil Nadu","state_code":"25","district":"Tirunelveli","district_code":"628","address1":"Sivagiri","address2":"","latitude":"9.3359","longitude":"77.45","accuracy":"4"},{"address3":"Rayagiri","state":"Tamil Nadu","state_code":"25","district":"Tirunelveli","district_code":"628","address1":"NA","address2":"","latitude":"9.3037","longitude":"77.4475","accuracy":"4"}],"627758":[{"address3":"Vellanaikottai","state":"Tamil Nadu","state_code":"25","district":"Tuticorin","district_code":"627","address1":"Kovilpatti","address2":"","latitude":"9.2307","longitude":"77.4469","accuracy":"3"},{"address3":"Ariyur","state":"Tamil Nadu","state_code":"25","district":"Tirunelveli","district_code":"628","address1":"Sivigiri","address2":"","latitude":"9.2129","longitude":"77.4673","accuracy":"4"},{"address3":"Sankanaperi","state":"Tamil Nadu","state_code":"25","district":"Tirunelveli","district_code":"628","address1":"Sivigiri","address2":"","latitude":"9.2307","longitude":"77.4469","accuracy":"3"},{"address3":"Nelkattumseval","state":"Tamil Nadu","state_code":"25","district":"Tirunelveli","district_code":"628","address1":"Sivigiri","address2":"","latitude":"9.2374","longitude":"77.4617","accuracy":"4"},{"address3":"Vasudevanallur","state":"Tamil Nadu","state_code":"25","district":"Tirunelveli","district_code":"628","address1":"Sivigiri","address2":"","latitude":"9.2417","longitude":"77.4118","accuracy":"4"}],"627759":[{"address3":"Krishnapuram (TVL)","state":"Tamil Nadu","state_code":"25","district":"Tirunelveli","district_code":"628","address1":"Tenkasi","address2":"","latitude":"9.4451","longitude":"77.6777","accuracy":"1"}],"627760":[{"address3":"Gudalur","state":"Tamil Nadu","state_code":"25","district":"Tirunelveli","district_code":"628","address1":"Sivagiri","address2":"","latitude":"9.2745","longitude":"77.4592","accuracy":"4"},{"address3":"Ramanathapuram(VSD)","state":"Tamil Nadu","state_code":"25","district":"Tirunelveli","district_code":"628","address1":"Sivagiri","address2":"","latitude":"9.2667","longitude":"77.4435","accuracy":"3"},{"address3":"Athuvazhi","state":"Tamil Nadu","state_code":"25","district":"Tirunelveli","district_code":"628","address1":"Sankarankovil","address2":"","latitude":"9.2667","longitude":"77.4435","accuracy":"3"},{"address3":"Naranapuram","state":"Tamil Nadu","state_code":"25","district":"Tirunelveli","district_code":"628","address1":"Sivagiri","address2":"","latitude":"9.2589","longitude":"77.4278","accuracy":"4"}],"627761":[{"address3":"Sangupuram","state":"Tamil Nadu","state_code":"25","district":"Tirunelveli","district_code":"628","address1":"Sankarankovil","address2":"","latitude":"9.2596","longitude":"77.4708","accuracy":"4"},{"address3":"Panaiyur","state":"Tamil Nadu","state_code":"25","district":"Tirunelveli","district_code":"628","address1":"Sankarankovil","address2":"","latitude":"9.2602","longitude":"77.4943","accuracy":"4"},{"address3":"Gomathimuthupuram","state":"Tamil Nadu","state_code":"25","district":"Tirunelveli","district_code":"628","address1":"Sankarankovil","address2":"","latitude":"9.5591","longitude":"77.4686","accuracy":"3"},{"address3":"Periyur","state":"Tamil Nadu","state_code":"25","district":"Tirunelveli","district_code":"628","address1":"Sankarankovil","address2":"","latitude":"8.7987","longitude":"77.542","accuracy":"4"}],"627764":[{"address3":"Rayagiri","state":"Tamil Nadu","state_code":"25","district":"Tirunelveli","district_code":"628","address1":"Sivagiri","address2":"","latitude":"9.3037","longitude":"77.4475","accuracy":"4"},{"address3":"Duraisamypuram","state":"Tamil Nadu","state_code":"25","district":"Tirunelveli","district_code":"628","address1":"Sivagiri","address2":"","latitude":"9.3037","longitude":"77.4475","accuracy":"3"}],"627802":[{"address3":"Kasimajorpuram","state":"Tamil Nadu","state_code":"25","district":"Tirunelveli","district_code":"628","address1":"Tenkasi","address2":"","latitude":"8.9303","longitude":"77.2695","accuracy":"3"},{"address3":"Courtallam","state":"Tamil Nadu","state_code":"25","district":"Tirunelveli","district_code":"628","address1":"Tenkasi","address2":"","latitude":"8.9303","longitude":"77.2695","accuracy":"4"}],"627803":[{"address3":"Kanakkupillaivalasai","state":"Tamil Nadu","state_code":"25","district":"Tirunelveli","district_code":"628","address1":"Tenkasi","address2":"","latitude":"8.9914","longitude":"77.2946","accuracy":"3"},{"address3":"Kuthukalvalasai","state":"Tamil Nadu","state_code":"25","district":"Tirunelveli","district_code":"628","address1":"Tenkasi","address2":"","latitude":"8.9914","longitude":"77.2946","accuracy":"4"},{"address3":"Achanpudur","state":"Tamil Nadu","state_code":"25","district":"Tirunelveli","district_code":"628","address1":"Shenkottai","address2":"","latitude":"8.9914","longitude":"77.2946","accuracy":"3"},{"address3":"Elathur (Tirunelveli)","state":"Tamil Nadu","state_code":"25","district":"Tirunelveli","district_code":"628","address1":"Sengottai","address2":"","latitude":"8.9914","longitude":"77.2946","accuracy":"3"}],"627804":[{"address3":"Nainaragaram","state":"Tamil Nadu","state_code":"25","district":"Tirunelveli","district_code":"628","address1":"Tenkasi","address2":"","latitude":"9.2784","longitude":"77.5741","accuracy":"1"},{"address3":"Idaikal(TKS)","state":"Tamil Nadu","state_code":"25","district":"Tirunelveli","district_code":"628","address1":"Tenkasi","address2":"","latitude":"9.2784","longitude":"77.5741","accuracy":"1"},{"address3":"Kodikurichi","state":"Tamil Nadu","state_code":"25","district":"Tirunelveli","district_code":"628","address1":"Tenkasi","address2":"","latitude":"9.2784","longitude":"77.5741","accuracy":"1"}],"627805":[{"address3":"Kottakulam","state":"Tamil Nadu","state_code":"25","district":"Tirunelveli","district_code":"628","address1":"Tenkasi","address2":"","latitude":"8.7987","longitude":"77.542","accuracy":"4"},{"address3":"Ilanji","state":"Tamil Nadu","state_code":"25","district":"Tirunelveli","district_code":"628","address1":"Tenkasi","address2":"","latitude":"9.9655","longitude":"78.2308","accuracy":"3"},{"address3":"Ayyapuram","state":"Tamil Nadu","state_code":"25","district":"Tirunelveli","district_code":"628","address1":"Tenkasi","address2":"","latitude":"9.9655","longitude":"78.2308","accuracy":"3"}],"627806":[{"address3":"Kilapavur","state":"Tamil Nadu","state_code":"25","district":"Tirunelveli","district_code":"628","address1":"Tenkasi","address2":"","latitude":"9.2784","longitude":"77.5741","accuracy":"1"},{"address3":"Melapavur","state":"Tamil Nadu","state_code":"25","district":"Tirunelveli","district_code":"628","address1":"Tenkasi","address2":"","latitude":"9.2784","longitude":"77.5741","accuracy":"1"},{"address3":"Rajapandi","state":"Tamil Nadu","state_code":"25","district":"Tirunelveli","district_code":"628","address1":"Tenkasi","address2":"","latitude":"9.2784","longitude":"77.5741","accuracy":"1"},{"address3":"Kulasekarapatti","state":"Tamil Nadu","state_code":"25","district":"Tirunelveli","district_code":"628","address1":"Tenkasi","address2":"","latitude":"9.2784","longitude":"77.5741","accuracy":"1"},{"address3":"Vellakal","state":"Tamil Nadu","state_code":"25","district":"Tirunelveli","district_code":"628","address1":"Virakeralampudur","address2":"","latitude":"9.2784","longitude":"77.5741","accuracy":"1"}],"627807":[{"address3":"Karisalkudiyiruppu","state":"Tamil Nadu","state_code":"25","district":"Tirunelveli","district_code":"628","address1":"Sengottai","address2":"","latitude":"9.0214","longitude":"77.2502","accuracy":"3"},{"address3":"Panpuli","state":"Tamil Nadu","state_code":"25","district":"Tirunelveli","district_code":"628","address1":"Sengottai","address2":"","latitude":"9.0214","longitude":"77.2502","accuracy":"4"}],"627808":[{"address3":"Mettur","state":"Tamil Nadu","state_code":"25","district":"Tirunelveli","district_code":"628","address1":"Ambasamudram","address2":"","latitude":"8.8652","longitude":"77.3666","accuracy":"4"},{"address3":"Avudaiyanur","state":"Tamil Nadu","state_code":"25","district":"Tirunelveli","district_code":"628","address1":"Tenkasi","address2":"","latitude":"8.8652","longitude":"77.3666","accuracy":"3"},{"address3":"Pavoorchatram","state":"Tamil Nadu","state_code":"25","district":"Tirunelveli","district_code":"628","address1":"Tenkasi","address2":"","latitude":"8.8652","longitude":"77.3666","accuracy":"3"},{"address3":"Adaikalapattinam","state":"Tamil Nadu","state_code":"25","district":"Tirunelveli","district_code":"628","address1":"Alangulam","address2":"","latitude":"8.8652","longitude":"77.3666","accuracy":"3"},{"address3":"Pethanadarpatti","state":"Tamil Nadu","state_code":"25","district":"Tirunelveli","district_code":"628","address1":"Alangulam","address2":"","latitude":"8.8652","longitude":"77.3666","accuracy":"3"},{"address3":"Tippanampatti","state":"Tamil Nadu","state_code":"25","district":"Tirunelveli","district_code":"628","address1":"Tenkasi","address2":"","latitude":"8.8652","longitude":"77.3666","accuracy":"3"},{"address3":"Melakrishnaperi","state":"Tamil Nadu","state_code":"25","district":"Tirunelveli","district_code":"628","address1":"Tenkasi","address2":"","latitude":"8.8652","longitude":"77.3666","accuracy":"3"},{"address3":"Sivanadanur","state":"Tamil Nadu","state_code":"25","district":"Tirunelveli","district_code":"628","address1":"Alangulam","address2":"","latitude":"8.8652","longitude":"77.3666","accuracy":"3"}],"627809":[{"address3":"Melur","state":"Tamil Nadu","state_code":"25","district":"Tirunelveli","district_code":"628","address1":"Shenkottai","address2":"","latitude":"8.5481","longitude":"77.591","accuracy":"4"},{"address3":"Sengottai","state":"Tamil Nadu","state_code":"25","district":"Tirunelveli","district_code":"628","address1":"Sengottai","address2":"","latitude":"8.9774","longitude":"77.2463","accuracy":"4"},{"address3":"Piranur","state":"Tamil Nadu","state_code":"25","district":"Tirunelveli","district_code":"628","address1":"Sengottai","address2":"","latitude":"9.4845","longitude":"77.727","accuracy":"3"},{"address3":"Sengottai RS","state":"Tamil Nadu","state_code":"25","district":"Tirunelveli","district_code":"628","address1":"NA","address2":"","latitude":"9.4845","longitude":"77.727","accuracy":"3"},{"address3":"Vallam","state":"Tamil Nadu","state_code":"25","district":"Tirunelveli","district_code":"628","address1":"Tenkasi","address2":"","latitude":"8.7987","longitude":"77.542","accuracy":"4"},{"address3":"Periyapillaivalasi","state":"Tamil Nadu","state_code":"25","district":"Tirunelveli","district_code":"628","address1":"Tenkasi","address2":"","latitude":"9.4845","longitude":"77.727","accuracy":"3"},{"address3":"Thenpothai","state":"Tamil Nadu","state_code":"25","district":"Tirunelveli","district_code":"628","address1":"Tenkasi","address2":"","latitude":"9.4845","longitude":"77.727","accuracy":"3"}],"627811":[{"address3":"Tenkasi RS","state":"Tamil Nadu","state_code":"25","district":"Tirunelveli","district_code":"628","address1":"Tenkasi","address2":"","latitude":"11.2589","longitude":"79.7156","accuracy":"1"},{"address3":"Tenkasi H.O","state":"Tamil Nadu","state_code":"25","district":"Tirunelveli","district_code":"628","address1":"Tenkasi","address2":"","latitude":"11.2589","longitude":"79.7156","accuracy":"1"}],"627812":[{"address3":"Vadakarai (Tirunelveli)","state":"Tamil Nadu","state_code":"25","district":"Tirunelveli","district_code":"628","address1":"Sengottai","address2":"","latitude":"11.2589","longitude":"79.7156","accuracy":"1"},{"address3":"Vavanagaram","state":"Tamil Nadu","state_code":"25","district":"Tirunelveli","district_code":"628","address1":"Sengottai","address2":"","latitude":"11.2589","longitude":"79.7156","accuracy":"1"},{"address3":"Vadakaraikilpidagai","state":"Tamil Nadu","state_code":"25","district":"Tirunelveli","district_code":"628","address1":"Shenkottai","address2":"","latitude":"11.2589","longitude":"79.7156","accuracy":"1"}],"627813":[{"address3":"Karkudi","state":"Tamil Nadu","state_code":"25","district":"Tirunelveli","district_code":"628","address1":"Sengottai","address2":"","latitude":"8.7987","longitude":"77.542","accuracy":"4"},{"address3":"Kattalaikudiyiruppu","state":"Tamil Nadu","state_code":"25","district":"Tirunelveli","district_code":"628","address1":"Sengottai","address2":"","latitude":"11.2589","longitude":"79.7156","accuracy":"3"},{"address3":"Puliyara","state":"Tamil Nadu","state_code":"25","district":"Tirunelveli","district_code":"628","address1":"Sengottai","address2":"","latitude":"11.2589","longitude":"79.7156","accuracy":"3"},{"address3":"Poolankudiyiruppu","state":"Tamil Nadu","state_code":"25","district":"Tirunelveli","district_code":"628","address1":"Sengottai","address2":"","latitude":"11.2589","longitude":"79.7156","accuracy":"3"}],"627814":[{"address3":"Pattakurichi","state":"Tamil Nadu","state_code":"25","district":"Tirunelveli","district_code":"628","address1":"Tenkasi","address2":"","latitude":"11.2589","longitude":"79.7156","accuracy":"1"},{"address3":"Ayiraperi","state":"Tamil Nadu","state_code":"25","district":"Tirunelveli","district_code":"628","address1":"Tenkasi","address2":"","latitude":"11.2589","longitude":"79.7156","accuracy":"1"},{"address3":"Gunaramanallur","state":"Tamil Nadu","state_code":"25","district":"Tirunelveli","district_code":"628","address1":"Tenkasi","address2":"","latitude":"11.2589","longitude":"79.7156","accuracy":"1"},{"address3":"Kadabokathi","state":"Tamil Nadu","state_code":"25","district":"Tirunelveli","district_code":"628","address1":"Tenkasi","address2":"","latitude":"11.2589","longitude":"79.7156","accuracy":"1"},{"address3":"Mathalamparai","state":"Tamil Nadu","state_code":"25","district":"Tirunelveli","district_code":"628","address1":"Tenkasi","address2":"","latitude":"11.2589","longitude":"79.7156","accuracy":"1"},{"address3":"Kizhapuliyur","state":"Tamil Nadu","state_code":"25","district":"Tirunelveli","district_code":"628","address1":"Alangulam","address2":"","latitude":"11.2589","longitude":"79.7156","accuracy":"1"}],"627818":[{"address3":"Melagaram","state":"Tamil Nadu","state_code":"25","district":"Tirunelveli","district_code":"628","address1":"Tenkasi","address2":"","latitude":"8.7987","longitude":"77.542","accuracy":"1"}],"627851":[{"address3":"Kalathimadam","state":"Tamil Nadu","state_code":"25","district":"Tirunelveli","district_code":"628","address1":"Alangulam","address2":"","latitude":"9.162","longitude":"77.7001","accuracy":"3"},{"address3":"Pudupatti","state":"Tamil Nadu","state_code":"25","district":"Tirunelveli","district_code":"628","address1":"Alangulam","address2":"","latitude":"8.7987","longitude":"77.542","accuracy":"3"},{"address3":"Marandai","state":"Tamil Nadu","state_code":"25","district":"Tirunelveli","district_code":"628","address1":"Alangulam","address2":"","latitude":"8.8217","longitude":"77.5681","accuracy":"4"},{"address3":"Kuthapanjan","state":"Tamil Nadu","state_code":"25","district":"Tirunelveli","district_code":"628","address1":"Alangulam","address2":"","latitude":"9.162","longitude":"77.7001","accuracy":"3"},