{"636001":[{"address3":"Salem Bazaar","state":"Tamil Nadu","state_code":"25","district":"Salem","district_code":"608","address1":"Salem","address2":"","latitude":"10.9497","longitude":"77.8272","accuracy":"3"},{"address3":"Thillainagar","state":"Tamil Nadu","state_code":"25","district":"Salem","district_code":"608","address1":"Salem","address2":"","latitude":"10.9497","longitude":"77.8272","accuracy":"3"},{"address3":"Devendrapuram","state":"Tamil Nadu","state_code":"25","district":"Salem","district_code":"608","address1":"Salem","address2":"","latitude":"11.6741","longitude":"78.2221","accuracy":"4"},{"address3":"Salem H.O","state":"Tamil Nadu","state_code":"25","district":"Salem","district_code":"608","address1":"Salem","address2":"","latitude":"10.9497","longitude":"77.8272","accuracy":"3"},{"address3":"Ponnammapet","state":"Tamil Nadu","state_code":"25","district":"Salem","district_code":"608","address1":"Salem","address2":"","latitude":"10.9497","longitude":"77.8272","accuracy":"3"},{"address3":"Salem Collectorate","state":"Tamil Nadu","state_code":"25","district":"Salem","district_code":"608","address1":"Salem","address2":"","latitude":"10.9497","longitude":"77.8272","accuracy":"3"},{"address3":"Salem Fort","state":"Tamil Nadu","state_code":"25","district":"Salem","district_code":"608","address1":"Salem","address2":"","latitude":"10.9497","longitude":"77.8272","accuracy":"3"},{"address3":"Salem East","state":"Tamil Nadu","state_code":"25","district":"Salem","district_code":"608","address1":"Salem","address2":"","latitude":"10.9497","longitude":"77.8272","accuracy":"3"},{"address3":"Salem Second Agraharam","state":"Tamil Nadu","state_code":"25","district":"Salem","district_code":"608","address1":"Salem","address2":"","latitude":"10.9497","longitude":"77.8272","accuracy":"3"},{"address3":"Mettu Street","state":"Tamil Nadu","state_code":"25","district":"Salem","district_code":"608","address1":"Salem","address2":"","latitude":"10.9497","longitude":"77.8272","accuracy":"3"}],"636002":[{"address3":"Annadanapatti","state":"Tamil Nadu","state_code":"25","district":"Salem","district_code":"608","address1":"Salem","address2":"","latitude":"11.3712","longitude":"78.0893","accuracy":"1"},{"address3":"Shevapet Bazaar","state":"Tamil Nadu","state_code":"25","district":"Salem","district_code":"608","address1":"Salem","address2":"","latitude":"11.3712","longitude":"78.0893","accuracy":"1"},{"address3":"Nethimedu","state":"Tamil Nadu","state_code":"25","district":"Salem","district_code":"608","address1":"Salem","address2":"","latitude":"11.3712","longitude":"78.0893","accuracy":"1"},{"address3":"Shevapet","state":"Tamil Nadu","state_code":"25","district":"Salem","district_code":"608","address1":"Salem","address2":"","latitude":"11.3712","longitude":"78.0893","accuracy":"1"}],"636003":[{"address3":"Puthumariamman Koil","state":"Tamil Nadu","state_code":"25","district":"Salem","district_code":"608","address1":"Salem","address2":"","latitude":"11.6583","longitude":"78.1834","accuracy":"3"},{"address3":"Ammapettai Salem","state":"Tamil Nadu","state_code":"25","district":"Salem","district_code":"608","address1":"Salem","address2":"","latitude":"11.6583","longitude":"78.1834","accuracy":"4"},{"address3":"Ammapet Bazaar","state":"Tamil Nadu","state_code":"25","district":"Salem","district_code":"608","address1":"Salem","address2":"","latitude":"11.6583","longitude":"78.1834","accuracy":"3"}],"636004":[{"address3":"Alagapuram","state":"Tamil Nadu","state_code":"25","district":"Salem","district_code":"608","address1":"Salem","address2":"","latitude":"11.6755","longitude":"78.1395","accuracy":"4"},{"address3":"Marakkadai","state":"Tamil Nadu","state_code":"25","district":"Salem","district_code":"608","address1":"Salem","address2":"","latitude":"11.6755","longitude":"78.1395","accuracy":"3"},{"address3":"Narasodhipatti","state":"Tamil Nadu","state_code":"25","district":"Salem","district_code":"608","address1":"Salem","address2":"","latitude":"11.6755","longitude":"78.1395","accuracy":"3"}],"636005":[{"address3":"Thangamapuripattinam","state":"Tamil Nadu","state_code":"25","district":"Salem","district_code":"608","address1":"Salem","address2":"","latitude":"11.3712","longitude":"78.0893","accuracy":"1"},{"address3":"Suramangalam H.O","state":"Tamil Nadu","state_code":"25","district":"Salem","district_code":"608","address1":"Salem","address2":"","latitude":"11.3712","longitude":"78.0893","accuracy":"1"},{"address3":"Meyyanur","state":"Tamil Nadu","state_code":"25","district":"Salem","district_code":"608","address1":"salem","address2":"","latitude":"11.3712","longitude":"78.0893","accuracy":"1"},{"address3":"Jawahar Mills","state":"Tamil Nadu","state_code":"25","district":"Salem","district_code":"608","address1":"Salem","address2":"","latitude":"11.3712","longitude":"78.0893","accuracy":"1"},{"address3":"Suramangalam Railway Colony","state":"Tamil Nadu","state_code":"25","district":"Salem","district_code":"608","address1":"Salem","address2":"","latitude":"11.3712","longitude":"78.0893","accuracy":"1"}],"636006":[{"address3":"Salem South","state":"Tamil Nadu","state_code":"25","district":"Salem","district_code":"608","address1":"Salem","address2":"","latitude":"11.5355","longitude":"78.1024","accuracy":"3"},{"address3":"Gugai","state":"Tamil Nadu","state_code":"25","district":"Salem","district_code":"608","address1":"Salem","address2":"","latitude":"11.6425","longitude":"78.1559","accuracy":"4"},{"address3":"Dadagapatti","state":"Tamil Nadu","state_code":"25","district":"Salem","district_code":"608","address1":"Salem","address2":"","latitude":"11.5355","longitude":"78.1024","accuracy":"3"},{"address3":"Karungalpatti","state":"Tamil Nadu","state_code":"25","district":"Salem","district_code":"608","address1":"Salem","address2":"","latitude":"11.6741","longitude":"78.2221","accuracy":"4"},{"address3":"Sanjeevarayanpettai","state":"Tamil Nadu","state_code":"25","district":"Salem","district_code":"608","address1":"Salem","address2":"","latitude":"11.5355","longitude":"78.1024","accuracy":"3"},{"address3":"Salem Pension Lines","state":"Tamil Nadu","state_code":"25","district":"Salem","district_code":"608","address1":"Salem","address2":"","latitude":"11.5355","longitude":"78.1024","accuracy":"3"}],"636007":[{"address3":"Peramanur","state":"Tamil Nadu","state_code":"25","district":"Salem","district_code":"608","address1":"Salem","address2":"","latitude":"11.6741","longitude":"78.2221","accuracy":"4"},{"address3":"Maravaneri","state":"Tamil Nadu","state_code":"25","district":"Salem","district_code":"608","address1":"Salem","address2":"","latitude":"11.4654","longitude":"78.1896","accuracy":"3"},{"address3":"Salem Extension","state":"Tamil Nadu","state_code":"25","district":"Salem","district_code":"608","address1":"Salem","address2":"","latitude":"11.6671","longitude":"78.1523","accuracy":"4"},{"address3":"Salem North","state":"Tamil Nadu","state_code":"25","district":"Salem","district_code":"608","address1":"Salem","address2":"","latitude":"11.4654","longitude":"78.1896","accuracy":"3"},{"address3":"Hasthampatti","state":"Tamil Nadu","state_code":"25","district":"Salem","district_code":"608","address1":"Salem","address2":"","latitude":"11.4654","longitude":"78.1896","accuracy":"3"},{"address3":"Salem Dt. Court Buildings","state":"Tamil Nadu","state_code":"25","district":"Salem","district_code":"608","address1":"Salem","address2":"","latitude":"11.4654","longitude":"78.1896","accuracy":"3"}],"636008":[{"address3":"Gorimedu","state":"Tamil Nadu","state_code":"25","district":"Salem","district_code":"608","address1":"Salem","address2":"","latitude":"11.3712","longitude":"78.0893","accuracy":"1"},{"address3":"Parapatti Mannarpalayam","state":"Tamil Nadu","state_code":"25","district":"Salem","district_code":"608","address1":"Salem","address2":"","latitude":"11.3712","longitude":"78.0893","accuracy":"1"},{"address3":"Kondappanaickenpatti","state":"Tamil Nadu","state_code":"25","district":"Salem","district_code":"608","address1":"Salem","address2":"","latitude":"11.3712","longitude":"78.0893","accuracy":"1"},{"address3":"Chinnatirupathy","state":"Tamil Nadu","state_code":"25","district":"Salem","district_code":"608","address1":"Salem","address2":"","latitude":"11.3712","longitude":"78.0893","accuracy":"1"},{"address3":"Ayyanthirumaligai","state":"Tamil Nadu","state_code":"25","district":"Salem","district_code":"608","address1":"Salem","address2":"","latitude":"11.3712","longitude":"78.0893","accuracy":"1"},{"address3":"Kannankurichi","state":"Tamil Nadu","state_code":"25","district":"Salem","district_code":"608","address1":"Salem","address2":"","latitude":"11.3712","longitude":"78.0893","accuracy":"1"}],"636009":[{"address3":"Leigh Bazaar","state":"Tamil Nadu","state_code":"25","district":"Salem","district_code":"608","address1":"Salem","address2":"","latitude":"10.6848","longitude":"77.9803","accuracy":"3"},{"address3":"Swaminathapuram","state":"Tamil Nadu","state_code":"25","district":"Salem","district_code":"608","address1":"Salem","address2":"","latitude":"11.6741","longitude":"78.2221","accuracy":"4"},{"address3":"Arisipalayam","state":"Tamil Nadu","state_code":"25","district":"Salem","district_code":"608","address1":"Salem","address2":"","latitude":"10.6848","longitude":"77.9803","accuracy":"3"}],"636010":[{"address3":"Puthur","state":"Tamil Nadu","state_code":"25","district":"Salem","district_code":"608","address1":"Salem","address2":"","latitude":"11.6741","longitude":"78.2221","accuracy":"4"},{"address3":"Nattamangalam","state":"Tamil Nadu","state_code":"25","district":"Salem","district_code":"608","address1":"Salem","address2":"","latitude":"11.7572","longitude":"77.7933","accuracy":"4"},{"address3":"Kondalampatti","state":"Tamil Nadu","state_code":"25","district":"Salem","district_code":"608","address1":"Salem","address2":"","latitude":"11.6345","longitude":"78.1237","accuracy":"4"},{"address3":"Maniyanur","state":"Tamil Nadu","state_code":"25","district":"Salem","district_code":"608","address1":"Salem","address2":"","latitude":"11.6336","longitude":"78.1387","accuracy":"4"},{"address3":"Sandaipettai","state":"Tamil Nadu","state_code":"25","district":"Salem","district_code":"608","address1":"Salem","address2":"","latitude":"11.6741","longitude":"78.2221","accuracy":"4"},{"address3":"Neikkarapatti","state":"Tamil Nadu","state_code":"25","district":"Salem","district_code":"608","address1":"Salem","address2":"","latitude":"11.8309","longitude":"78.3182","accuracy":"3"},{"address3":"Uthamasolapuram","state":"Tamil Nadu","state_code":"25","district":"Salem","district_code":"608","address1":"Salem","address2":"","latitude":"11.8309","longitude":"78.3182","accuracy":"3"},{"address3":"Thammanaickenpatti","state":"Tamil Nadu","state_code":"25","district":"Salem","district_code":"608","address1":"Salem","address2":"","latitude":"11.8309","longitude":"78.3182","accuracy":"3"},{"address3":"Poolavari Agraharam","state":"Tamil Nadu","state_code":"25","district":"Salem","district_code":"608","address1":"Salem","address2":"","latitude":"11.8309","longitude":"78.3182","accuracy":"3"}],"636011":[{"address3":"Govt. College Of Engg","state":"Tamil Nadu","state_code":"25","district":"Salem","district_code":"608","address1":"Salem","address2":"","latitude":"11.7527","longitude":"78.2899","accuracy":"1"},{"address3":"Mattukaranur","state":"Tamil Nadu","state_code":"25","district":"Salem","district_code":"608","address1":"Salem","address2":"","latitude":"11.7527","longitude":"78.2899","accuracy":"1"},{"address3":"Saminaickenpatti","state":"Tamil Nadu","state_code":"25","district":"Salem","district_code":"608","address1":"Omalur","address2":"","latitude":"11.7527","longitude":"78.2899","accuracy":"1"},{"address3":"Kottagoundampatti","state":"Tamil Nadu","state_code":"25","district":"Salem","district_code":"608","address1":"Omalur","address2":"","latitude":"11.7527","longitude":"78.2899","accuracy":"1"}],"636012":[{"address3":"Vellalapatti","state":"Tamil Nadu","state_code":"25","district":"Salem","district_code":"608","address1":"Omalur","address2":"","latitude":"11.6741","longitude":"78.2221","accuracy":"4"},{"address3":"Moongilpadi","state":"Tamil Nadu","state_code":"25","district":"Salem","district_code":"608","address1":"Omalur","address2":"","latitude":"11.9792","longitude":"78.2917","accuracy":"3"},{"address3":"Karuppur","state":"Tamil Nadu","state_code":"25","district":"Salem","district_code":"608","address1":"Salem","address2":"","latitude":"11.717","longitude":"78.0924","accuracy":"4"},{"address3":"Vattakadu","state":"Tamil Nadu","state_code":"25","district":"Salem","district_code":"608","address1":"Salem","address2":"","latitude":"11.9792","longitude":"78.2917","accuracy":"3"},{"address3":"Chettichavadi","state":"Tamil Nadu","state_code":"25","district":"Salem","district_code":"608","address1":"Omalur","address2":"","latitude":"11.9792","longitude":"78.2917","accuracy":"3"},{"address3":"Thathiengarpatti","state":"Tamil Nadu","state_code":"25","district":"Salem","district_code":"608","address1":"Omalur","address2":"","latitude":"11.9792","longitude":"78.2917","accuracy":"3"}],"636013":[{"address3":"Karukkalvadi","state":"Tamil Nadu","state_code":"25","district":"Salem","district_code":"608","address1":"Salem","address2":"","latitude":"11.6714","longitude":"78.0126","accuracy":"4"},{"address3":"Salem Steel Plant","state":"Tamil Nadu","state_code":"25","district":"Salem","district_code":"608","address1":"Salem","address2":"","latitude":"11.6714","longitude":"78.0126","accuracy":"3"}],"636014":[{"address3":"Tadampatti","state":"Tamil Nadu","state_code":"25","district":"Salem","district_code":"608","address1":"Salem","address2":"","latitude":"11.6741","longitude":"78.2221","accuracy":"4"},{"address3":"Kamaraj Nagar Colony","state":"Tamil Nadu","state_code":"25","district":"Salem","district_code":"608","address1":"Salem","address2":"","latitude":"10.9904","longitude":"78.4224","accuracy":"3"}],"636015":[{"address3":"Kitchipalayam","state":"Tamil Nadu","state_code":"25","district":"Salem","district_code":"608","address1":"Salem","address2":"","latitude":"11.7527","longitude":"78.2899","accuracy":"1"},{"address3":"Erumapalayam","state":"Tamil Nadu","state_code":"25","district":"Salem","district_code":"608","address1":"Salem","address2":"","latitude":"11.7527","longitude":"78.2899","accuracy":"1"},{"address3":"Narayananagar","state":"Tamil Nadu","state_code":"25","district":"Salem","district_code":"608","address1":"Salem","address2":"","latitude":"11.7527","longitude":"78.2899","accuracy":"1"},{"address3":"Sanniyasigundu","state":"Tamil Nadu","state_code":"25","district":"Salem","district_code":"608","address1":"Salem","address2":"","latitude":"11.7527","longitude":"78.2899","accuracy":"1"},{"address3":"Dadubaikuttai","state":"Tamil Nadu","state_code":"25","district":"Salem","district_code":"608","address1":"Salem","address2":"","latitude":"11.7527","longitude":"78.2899","accuracy":"1"}],"636016":[{"address3":"Fairlands","state":"Tamil Nadu","state_code":"25","district":"Salem","district_code":"608","address1":"Salem","address2":"","latitude":"11.7527","longitude":"78.2899","accuracy":"1"}],"636017":[{"address3":"Allikuttai","state":"Tamil Nadu","state_code":"25","district":"Salem","district_code":"608","address1":"Salem","address2":"","latitude":"11.7527","longitude":"78.2899","accuracy":"1"}],"636030":[{"address3":"Maramangalathupatti","state":"Tamil Nadu","state_code":"25","district":"Salem","district_code":"608","address1":"Salem","address2":"","latitude":"11.5732","longitude":"78.1955","accuracy":"1"},{"address3":"Sarkar Kollapatti","state":"Tamil Nadu","state_code":"25","district":"Salem","district_code":"608","address1":"Salem","address2":"","latitude":"11.5732","longitude":"78.1955","accuracy":"1"},{"address3":"Mohan Nagar (Salem)","state":"Tamil Nadu","state_code":"25","district":"Salem","district_code":"608","address1":"Salem","address2":"","latitude":"11.5732","longitude":"78.1955","accuracy":"1"}],"636101":[{"address3":"Aragalur","state":"Tamil Nadu","state_code":"25","district":"Salem","district_code":"608","address1":"Atur","address2":"","latitude":"11.5615","longitude":"78.79","accuracy":"4"},{"address3":"Sitheri","state":"Tamil Nadu","state_code":"25","district":"Salem","district_code":"608","address1":"Atur","address2":"","latitude":"11.6741","longitude":"78.2221","accuracy":"4"},{"address3":"Thiyaganur","state":"Tamil Nadu","state_code":"25","district":"Salem","district_code":"608","address1":"Atur","address2":"","latitude":"11.6768","longitude":"78.9095","accuracy":"3"},{"address3":"Periyeri","state":"Tamil Nadu","state_code":"25","district":"Salem","district_code":"608","address1":"Atur","address2":"","latitude":"11.5679","longitude":"78.7966","accuracy":"4"},{"address3":"Govindampalayam","state":"Tamil Nadu","state_code":"25","district":"Salem","district_code":"608","address1":"Atur","address2":"","latitude":"11.6768","longitude":"78.9095","accuracy":"3"},{"address3":"Veppampoondi","state":"Tamil Nadu","state_code":"25","district":"Salem","district_code":"608","address1":"Atur","address2":"","latitude":"11.6768","longitude":"78.9095","accuracy":"3"},{"address3":"Puliyankurichi","state":"Tamil Nadu","state_code":"25","district":"Salem","district_code":"608","address1":"Attur","address2":"","latitude":"11.6768","longitude":"78.9095","accuracy":"3"}],"636102":[{"address3":"Vinayagapuram","state":"Tamil Nadu","state_code":"25","district":"Salem","district_code":"608","address1":"Attur","address2":"","latitude":"11.6741","longitude":"78.2221","accuracy":"4"},{"address3":"Atur H.O","state":"Tamil Nadu","state_code":"25","district":"Salem","district_code":"608","address1":"Atur","address2":"","latitude":"12.0509","longitude":"79.7159","accuracy":"3"},{"address3":"Udayarpalayam (Salem)","state":"Tamil Nadu","state_code":"25","district":"Salem","district_code":"608","address1":"Attur","address2":"","latitude":"12.0509","longitude":"79.7159","accuracy":"3"},{"address3":"Aturbazaar","state":"Tamil Nadu","state_code":"25","district":"Salem","district_code":"608","address1":"Attur","address2":"","latitude":"12.0509","longitude":"79.7159","accuracy":"3"},{"address3":"Gandhinagar (Salem)","state":"Tamil Nadu","state_code":"25","district":"Salem","district_code":"608","address1":"Attur","address2":"","latitude":"12.0509","longitude":"79.7159","accuracy":"3"}],"636103":[{"address3":"Kullampatti","state":"Tamil Nadu","state_code":"25","district":"Salem","district_code":"608","address1":"Salem","address2":"","latitude":"11.6922","longitude":"78.26","accuracy":"4"},{"address3":"Mettupatti Tadanur","state":"Tamil Nadu","state_code":"25","district":"Salem","district_code":"608","address1":"Salem","address2":"","latitude":"11.6922","longitude":"78.26","accuracy":"3"},{"address3":"Ayodhiyapattinam East","state":"Tamil Nadu","state_code":"25","district":"Salem","district_code":"608","address1":"Salem","address2":"","latitude":"11.6922","longitude":"78.26","accuracy":"3"},{"address3":"Ayodhiyapattinam","state":"Tamil Nadu","state_code":"25","district":"Salem","district_code":"608","address1":"Salem","address2":"","latitude":"11.6922","longitude":"78.26","accuracy":"3"},{"address3":"Masinaickenpatti","state":"Tamil Nadu","state_code":"25","district":"Salem","district_code":"608","address1":"Salem","address2":"","latitude":"11.6922","longitude":"78.26","accuracy":"3"}],"636104":[{"address3":"Aladipatti","state":"Tamil Nadu","state_code":"25","district":"Salem","district_code":"608","address1":"Salem","address2":"","latitude":"11.7996","longitude":"78.3757","accuracy":"4"},{"address3":"Ramanathapuram","state":"Tamil Nadu","state_code":"25","district":"Salem","district_code":"608","address1":"Gangavalli","address2":"","latitude":"11.514","longitude":"78.5846","accuracy":"4"},{"address3":"Kurichi","state":"Tamil Nadu","state_code":"25","district":"Salem","district_code":"608","address1":"Valapady","address2":"","latitude":"11.6741","longitude":"78.2221","accuracy":"3"},{"address3":"Puluthikuttai","state":"Tamil Nadu","state_code":"25","district":"Salem","district_code":"608","address1":"Valapady","address2":"","latitude":"11.6737","longitude":"78.4582","accuracy":"3"},{"address3":"Belur (Salem)","state":"Tamil Nadu","state_code":"25","district":"Salem","district_code":"608","address1":"Atur","address2":"","latitude":"11.7075","longitude":"78.4144","accuracy":"4"},{"address3":"Sekkadipatti","state":"Tamil Nadu","state_code":"25","district":"Salem","district_code":"608","address1":"Atur","address2":"","latitude":"11.6737","longitude":"78.4582","accuracy":"3"},{"address3":"Aranoothumalai","state":"Tamil Nadu","state_code":"25","district":"Salem","district_code":"608","address1":"Valapady","address2":"","latitude":"11.6737","longitude":"78.4582","accuracy":"3"},{"address3":"Periyakuttimaduvu","state":"Tamil Nadu","state_code":"25","district":"Salem","district_code":"608","address1":"Atur","address2":"","latitude":"11.6737","longitude":"78.4582","accuracy":"3"},{"address3":"Konanchettiyur","state":"Tamil Nadu","state_code":"25","district":"Salem","district_code":"608","address1":"Gangavalli","address2":"","latitude":"11.6737","longitude":"78.4582","accuracy":"3"},{"address3":"C.P.Valasu","state":"Tamil Nadu","state_code":"25","district":"Salem","district_code":"608","address1":"Valapady","address2":"","latitude":"11.6737","longitude":"78.4582","accuracy":"3"},{"address3":"C.N.Palayam","state":"Tamil Nadu","state_code":"25","district":"Salem","district_code":"608","address1":"Valapady","address2":"","latitude":"11.6737","longitude":"78.4582","accuracy":"3"}],"636105":[{"address3":"Krishnapuram","state":"Tamil Nadu","state_code":"25","district":"Salem","district_code":"608","address1":"Gangavalli","address2":"","latitude":"11.4704","longitude":"78.617","accuracy":"4"},{"address3":"Kadambur","state":"Tamil Nadu","state_code":"25","district":"Salem","district_code":"608","address1":"Gangavalli","address2":"","latitude":"11.5018","longitude":"78.604","accuracy":"4"},{"address3":"Naduvalur","state":"Tamil Nadu","state_code":"25","district":"Salem","district_code":"608","address1":"Gangavalli","address2":"","latitude":"11.5221","longitude":"78.6643","accuracy":"4"},{"address3":"Edappadi","state":"Tamil Nadu","state_code":"25","district":"Salem","district_code":"608","address1":"Gangavalli","address2":"","latitude":"11.4359","longitude":"78.657","accuracy":"4"},{"address3":"Mayambadi","state":"Tamil Nadu","state_code":"25","district":"Salem","district_code":"608","address1":"Gangavalli","address2":"","latitude":"11.3704","longitude":"78.5717","accuracy":"4"},{"address3":"Naripadi","state":"Tamil Nadu","state_code":"25","district":"Salem","district_code":"608","address1":"Gangavalli","address2":"","latitude":"11.4708","longitude":"78.6313","accuracy":"3"},{"address3":"Gangavalli","state":"Tamil Nadu","state_code":"25","district":"Salem","district_code":"608","address1":"Gangavalli","address2":"","latitude":"11.4983","longitude":"78.6497","accuracy":"4"},{"address3":"Anaiyampatti","state":"Tamil Nadu","state_code":"25","district":"Salem","district_code":"608","address1":"Gangavalli","address2":"","latitude":"11.4967","longitude":"78.6551","accuracy":"4"},{"address3":"Odiyathur","state":"Tamil Nadu","state_code":"25","district":"Salem","district_code":"608","address1":"Gangavalli","address2":"","latitude":"11.4708","longitude":"78.6313","accuracy":"3"},{"address3":"Kudamalai","state":"Tamil Nadu","state_code":"25","district":"Salem","district_code":"608","address1":"Gangavalli","address2":"","latitude":"11.4708","longitude":"78.6313","accuracy":"3"}],"636106":[{"address3":"Ramalingapuram","state":"Tamil Nadu","state_code":"25","district":"Salem","district_code":"608","address1":"Vazhapadi","address2":"","latitude":"11.6741","longitude":"78.2221","accuracy":"4"},{"address3":"Periyagoundapuram","state":"Tamil Nadu","state_code":"25","district":"Salem","district_code":"608","address1":"Salem","address2":"","latitude":"11.5317","longitude":"78.4718","accuracy":"3"},{"address3":"Karumapuram","state":"Tamil Nadu","state_code":"25","district":"Salem","district_code":"608","address1":"Salem","address2":"","latitude":"11.6745","longitude":"78.2957","accuracy":"4"},{"address3":"S.N.Mangalam","state":"Tamil Nadu","state_code":"25","district":"Salem","district_code":"608","address1":"Salem","address2":"","latitude":"11.5317","longitude":"78.4718","accuracy":"3"},{"address3":"Karipatti","state":"Tamil Nadu","state_code":"25","district":"Salem","district_code":"608","address1":"Salem","address2":"","latitude":"11.6641","longitude":"78.2831","accuracy":"4"},{"address3":"A.N.Mangalam","state":"Tamil Nadu","state_code":"25","district":"Salem","district_code":"608","address1":"Salem","address2":"","latitude":"11.5317","longitude":"78.4718","accuracy":"3"},{"address3":"Minnampalli","state":"Tamil Nadu","state_code":"25","district":"Salem","district_code":"608","address1":"Salem","address2":"","latitude":"11.6758","longitude":"78.2676","accuracy":"4"}],"636107":[{"address3":"Gopalapuram","state":"Tamil Nadu","state_code":"25","district":"Salem","district_code":"608","address1":"Atur","address2":"","latitude":"11.573","longitude":"78.4609","accuracy":"4"},{"address3":"Malliakarai","state":"Tamil Nadu","state_code":"25","district":"Salem","district_code":"608","address1":"Atur","address2":"","latitude":"11.5683","longitude":"78.4947","accuracy":"4"},{"address3":"Arasanatham","state":"Tamil Nadu","state_code":"25","district":"Salem","district_code":"608","address1":"Atur","address2":"","latitude":"11.5801","longitude":"78.4724","accuracy":"3"},{"address3":"Kalarampatti","state":"Tamil Nadu","state_code":"25","district":"Salem","district_code":"608","address1":"Atur","address2":"","latitude":"11.5992","longitude":"78.4616","accuracy":"4"},{"address3":"Keeripatti","state":"Tamil Nadu","state_code":"25","district":"Salem","district_code":"608","address1":"Attur","address2":"","latitude":"11.5801","longitude":"78.4724","accuracy":"3"},{"address3":"Seeliampatti","state":"Tamil Nadu","state_code":"25","district":"Salem","district_code":"608","address1":"Atur","address2":"","latitude":"11.5801","longitude":"78.4724","accuracy":"3"},{"address3":"Melthombai","state":"Tamil Nadu","state_code":"25","district":"Salem","district_code":"608","address1":"Attur","address2":"","latitude":"11.5801","longitude":"78.4724","accuracy":"3"}],"636108":[{"address3":"Chokkanathapuram","state":"Tamil Nadu","state_code":"25","district":"Salem","district_code":"608","address1":"Atur","address2":"","latitude":"11.6741","longitude":"78.2221","accuracy":"4"},{"address3":"Appamasamudram","state":"Tamil Nadu","state_code":"25","district":"Salem","district_code":"608","address1":"Atur","address2":"","latitude":"11.4867","longitude":"78.6482","accuracy":"3"},{"address3":"Palaniyapuri","state":"Tamil Nadu","state_code":"25","district":"Salem","district_code":"608","address1":"Atur","address2":"","latitude":"11.6088","longitude":"78.5345","accuracy":"4"},{"address3":"Ramanaickenpalayam","state":"Tamil Nadu","state_code":"25","district":"Salem","district_code":"608","address1":"Atur","address2":"","latitude":"11.4867","longitude":"78.6482","accuracy":"3"},{"address3":"Narasingapuram (Salem)","state":"Tamil Nadu","state_code":"25","district":"Salem","district_code":"608","address1":"Attur","address2":"","latitude":"11.6038","longitude":"78.5778","accuracy":"4"},{"address3":"Thandavarayapuram","state":"Tamil Nadu","state_code":"25","district":"Salem","district_code":"608","address1":"Atur","address2":"","latitude":"11.4867","longitude":"78.6482","accuracy":"3"}],"636109":[{"address3":"Kalpaganur","state":"Tamil Nadu","state_code":"25","district":"Salem","district_code":"608","address1":"Atur","address2":"","latitude":"11.6326","longitude":"78.5398","accuracy":"4"},{"address3":"Pethanaickenpalayam","state":"Tamil Nadu","state_code":"25","district":"Salem","district_code":"608","address1":"Attur","address2":"","latitude":"11.647","longitude":"78.3116","accuracy":"3"},{"address3":"Dalavaipatti","state":"Tamil Nadu","state_code":"25","district":"Salem","district_code":"608","address1":"Atur","address2":"","latitude":"11.6614","longitude":"78.0834","accuracy":"4"},{"address3":"Olapadi","state":"Tamil Nadu","state_code":"25","district":"Salem","district_code":"608","address1":"Atur","address2":"","latitude":"11.647","longitude":"78.3116","accuracy":"3"}],"636110":[{"address3":"Sendarapatti","state":"Tamil Nadu","state_code":"25","district":"Salem","district_code":"608","address1":"Gangavalli","address2":"","latitude":"11.6741","longitude":"78.2221","accuracy":"4"},{"address3":"Kondayampalli","state":"Tamil Nadu","state_code":"25","district":"Salem","district_code":"608","address1":"Gangavalli","address2":"","latitude":"11.4579","longitude":"78.525","accuracy":"4"},{"address3":"Manmalai","state":"Tamil Nadu","state_code":"25","district":"Salem","district_code":"608","address1":"Gangavalli","address2":"","latitude":"11.3732","longitude":"78.5235","accuracy":"4"},{"address3":"Tagarapudur","state":"Tamil Nadu","state_code":"25","district":"Salem","district_code":"608","address1":"Gangavalli","address2":"","latitude":"11.7723","longitude":"78.7453","accuracy":"3"},{"address3":"Palakadu","state":"Tamil Nadu","state_code":"25","district":"Salem","district_code":"608","address1":"Gangavalli","address2":"","latitude":"11.6741","longitude":"78.2221","accuracy":"4"}],"636111":[{"address3":"Muthampatti","state":"Tamil Nadu","state_code":"25","district":"Salem","district_code":"608","address1":"Valapady","address2":"","latitude":"11.6741","longitude":"78.2221","accuracy":"4"},{"address3":"Seshanchavadi","state":"Tamil Nadu","state_code":"25","district":"Salem","district_code":"608","address1":"Vazhapadi","address2":"","latitude":"12.2653","longitude":"78.1658","accuracy":"3"},{"address3":"Chendrayampalayam","state":"Tamil Nadu","state_code":"25","district":"Salem","district_code":"608","address1":"Valapady","address2":"","latitude":"12.2653","longitude":"78.1658","accuracy":"3"},{"address3":"Mettupatti Karipatti","state":"Tamil Nadu","state_code":"25","district":"Salem","district_code":"608","address1":"Vazhapadi","address2":"","latitude":"12.2653","longitude":"78.1658","accuracy":"3"},{"address3":"Vellalagundam","state":"Tamil Nadu","state_code":"25","district":"Salem","district_code":"608","address1":"Valapady","address2":"","latitude":"12.2653","longitude":"78.1658","accuracy":"3"},{"address3":"M. Perumapalayam","state":"Tamil Nadu","state_code":"25","district":"Salem","district_code":"608","address1":"Valapady","address2":"","latitude":"12.2653","longitude":"78.1658","accuracy":"3"}],"636112":[{"address3":"Puthur","state":"Tamil Nadu","state_code":"25","district":"Salem","district_code":"608","address1":"Atur","address2":"","latitude":"11.6741","longitude":"78.2221","accuracy":"4"},{"address3":"Deviyakurichi","state":"Tamil Nadu","state_code":"25","district":"Salem","district_code":"608","address1":"Atur","address2":"","latitude":"11.6598","longitude":"78.6427","accuracy":"3"},{"address3":"Manivilundan Colony","state":"Tamil Nadu","state_code":"25","district":"Salem","district_code":"608","address1":"Attur","address2":"","latitude":"11.6598","longitude":"78.6427","accuracy":"3"},{"address3":"Pattuthurai","state":"Tamil Nadu","state_code":"25","district":"Salem","district_code":"608","address1":"Atur","address2":"","latitude":"11.6598","longitude":"78.6427","accuracy":"3"},{"address3":"Talaivasal","state":"Tamil Nadu","state_code":"25","district":"Salem","district_code":"608","address1":"Atur","address2":"","latitude":"11.584","longitude":"78.751","accuracy":"4"},{"address3":"Varagur","state":"Tamil Nadu","state_code":"25","district":"Salem","district_code":"608","address1":"Atur","address2":"","latitude":"11.6325","longitude":"78.7691","accuracy":"4"},{"address3":"Navakurichi","state":"Tamil Nadu","state_code":"25","district":"Salem","district_code":"608","address1":"Attur","address2":"","latitude":"11.6598","longitude":"78.6427","accuracy":"3"},{"address3":"Kamakkapalayam","state":"Tamil Nadu","state_code":"25","district":"Salem","district_code":"608","address1":"Atur","address2":"","latitude":"11.6598","longitude":"78.6427","accuracy":"3"},{"address3":"Unathur","state":"Tamil Nadu","state_code":"25","district":"Salem","district_code":"608","address1":"Atur","address2":"","latitude":"11.6598","longitude":"78.6427","accuracy":"3"},{"address3":"Siruvachur","state":"Tamil Nadu","state_code":"25","district":"Salem","district_code":"608","address1":"Atur","address2":"","latitude":"11.6741","longitude":"78.2221","accuracy":"4"},{"address3":"Sheepfarm","state":"Tamil Nadu","state_code":"25","district":"Salem","district_code":"608","address1":"Attur","address2":"","latitude":"11.6598","longitude":"78.6427","accuracy":"3"}],"636113":[{"address3":"Koneripatti","state":"Tamil Nadu","state_code":"25","district":"Salem","district_code":"608","address1":"Attur","address2":"","latitude":"11.6741","longitude":"78.2221","accuracy":"4"},{"address3":"Nagiampatti","state":"Tamil Nadu","state_code":"25","district":"Salem","district_code":"608","address1":"Gangavalli","address2":"","latitude":"11.3025","longitude":"78.4284","accuracy":"3"},{"address3":"Thammampatti","state":"Tamil Nadu","state_code":"25","district":"Salem","district_code":"608","address1":"Attur","address2":"","latitude":"11.3025","longitude":"78.4284","accuracy":"3"},{"address3":"Jangammasamudram","state":"Tamil Nadu","state_code":"25","district":"Salem","district_code":"608","address1":"Gangavalli","address2":"","latitude":"11.3025","longitude":"78.4284","accuracy":"3"},{"address3":"Udayarpalayam","state":"Tamil Nadu","state_code":"25","district":"Salem","district_code":"608","address1":"Attur","address2":"","latitude":"11.3025","longitude":"78.4284","accuracy":"3"},{"address3":"Vazhakombai","state":"Tamil Nadu","state_code":"25","district":"Salem","district_code":"608","address1":"Gangavalli","address2":"","latitude":"11.3025","longitude":"78.4284","accuracy":"3"},{"address3":"Perappancholai","state":"Tamil Nadu","state_code":"25","district":"Salem","district_code":"608","address1":"Attur","address2":"","latitude":"11.3025","longitude":"78.4284","accuracy":"3"},{"address3":"Periyakombai","state":"Tamil Nadu","state_code":"25","district":"Namakkal","district_code":"609","address1":"Rasipuram","address2":"","latitude":"11.4161","longitude":"78.4063","accuracy":"4"}],"636114":[{"address3":"Mannur","state":"Tamil Nadu","state_code":"25","district":"Salem","district_code":"608","address1":"Atur","address2":"","latitude":"11.725","longitude":"78.5302","accuracy":"4"},{"address3":"Idayapatti","state":"Tamil Nadu","state_code":"25","district":"Salem","district_code":"608","address1":"Atur","address2":"","latitude":"11.9178","longitude":"78.4994","accuracy":"3"},{"address3":"Thumbal","state":"Tamil Nadu","state_code":"25","district":"Salem","district_code":"608","address1":"Atur","address2":"","latitude":"11.9178","longitude":"78.4994","accuracy":"3"},{"address3":"Pappanaickenpatti","state":"Tamil Nadu","state_code":"25","district":"Salem","district_code":"608","address1":"Attur","address2":"","latitude":"11.9178","longitude":"78.4994","accuracy":"3"},{"address3":"Neyyamalai","state":"Tamil Nadu","state_code":"25","district":"Salem","district_code":"608","address1":"Atur","address2":"","latitude":"11.7872","longitude":"78.477","accuracy":"4"},{"address3":"Vellalapatti","state":"Tamil Nadu","state_code":"25","district":"Salem","district_code":"608","address1":"Attur","address2":"","latitude":"11.6741","longitude":"78.2221","accuracy":"4"}],"636115":[{"address3":"West Rajapalayam","state":"Tamil Nadu","state_code":"25","district":"Salem","district_code":"608","address1":"Atur","address2":"","latitude":"11.6396","longitude":"78.4105","accuracy":"3"},{"address3":"Valapady","state":"Tamil Nadu","state_code":"25","district":"Salem","district_code":"608","address1":"Valapady","address2":"","latitude":"11.6396","longitude":"78.4105","accuracy":"3"},{"address3":"Thamaiyanur","state":"Tamil Nadu","state_code":"25","district":"Salem","district_code":"608","address1":"Atur","address2":"","latitude":"11.6396","longitude":"78.4105","accuracy":"3"},{"address3":"Kottavadi","state":"Tamil Nadu","state_code":"25","district":"Salem","district_code":"608","address1":"Atur","address2":"","latitude":"11.6806","longitude":"78.4316","accuracy":"4"},{"address3":"Vaidhyagoundampudur","state":"Tamil Nadu","state_code":"25","district":"Salem","district_code":"608","address1":"Salem","address2":"","latitude":"11.6396","longitude":"78.4105","accuracy":"3"},{"address3":"Ponnarampatti","state":"Tamil Nadu","state_code":"25","district":"Salem","district_code":"608","address1":"Valapady","address2":"","latitude":"11.6131","longitude":"78.3932","accuracy":"4"},{"address3":"Thukkiampalayam","state":"Tamil Nadu","state_code":"25","district":"Salem","district_code":"608","address1":"Valapady","address2":"","latitude":"11.6396","longitude":"78.4105","accuracy":"3"},{"address3":"Singipuram","state":"Tamil Nadu","state_code":"25","district":"Salem","district_code":"608","address1":"Valapady","address2":"","latitude":"11.6252","longitude":"78.4067","accuracy":"4"},{"address3":"Periakrishnapuram","state":"Tamil Nadu","state_code":"25","district":"Salem","district_code":"608","address1":"Atur","address2":"","latitude":"11.6396","longitude":"78.4105","accuracy":"3"},{"address3":"Mannarpalayam Valapady","state":"Tamil Nadu","state_code":"25","district":"Salem","district_code":"608","address1":"Valapady","address2":"","latitude":"11.6396","longitude":"78.4105","accuracy":"3"},{"address3":"Athanurpatti","state":"Tamil Nadu","state_code":"25","district":"Salem","district_code":"608","address1":"Valapady","address2":"","latitude":"11.6396","longitude":"78.4105","accuracy":"3"},{"address3":"Vilaripalayam","state":"Tamil Nadu","state_code":"25","district":"Salem","district_code":"608","address1":"Valapady","address2":"","latitude":"11.6396","longitude":"78.4105","accuracy":"3"}],"636116":[{"address3":"Navalur","state":"Tamil Nadu","state_code":"25","district":"Salem","district_code":"608","address1":"Atur","address2":"","latitude":"11.5226","longitude":"78.7409","accuracy":"4"},{"address3":"Laddivadi","state":"Tamil Nadu","state_code":"25","district":"Salem","district_code":"608","address1":"Atur","address2":"","latitude":"11.4368","longitude":"78.7665","accuracy":"4"},{"address3":"Viraganur","state":"Tamil Nadu","state_code":"25","district":"Salem","district_code":"608","address1":"Salem","address2":"","latitude":"11.4761","longitude":"78.7355","accuracy":"4"},{"address3":"Iluppanatham","state":"Tamil Nadu","state_code":"25","district":"Salem","district_code":"608","address1":"Atur","address2":"","latitude":"11.4873","longitude":"78.7467","accuracy":"3"},{"address3":"Vellaiyur","state":"Tamil Nadu","state_code":"25","district":"Salem","district_code":"608","address1":"Atur","address2":"","latitude":"11.4807","longitude":"78.7762","accuracy":"4"},{"address3":"Thedavur","state":"Tamil Nadu","state_code":"25","district":"Salem","district_code":"608","address1":"Salem","address2":"","latitude":"11.4873","longitude":"78.7467","accuracy":"3"},{"address3":"Rajapalayam East","state":"Tamil Nadu","state_code":"25","district":"Salem","district_code":"608","address1":"Atur","address2":"","latitude":"11.4873","longitude":"78.7467","accuracy":"3"},{"address3":"Kavarpanai","state":"Tamil Nadu","state_code":"25","district":"Salem","district_code":"608","address1":"Atur","address2":"","latitude":"11.4873","longitude":"78.7467","accuracy":"3"},{"address3":"Punavasal","state":"Tamil Nadu","state_code":"25","district":"Salem","district_code":"608","address1":"Atur","address2":"","latitude":"11.5205","longitude":"78.7143","accuracy":"4"}],"636117":[{"address3":"Yethapur","state":"Tamil Nadu","state_code":"25","district":"Salem","district_code":"608","address1":"Attur","address2":"","latitude":"11.6978","longitude":"78.4648","accuracy":"3"},{"address3":"A.Komarapalayam","state":"Tamil Nadu","state_code":"25","district":"Salem","district_code":"608","address1":"Attur","address2":"","latitude":"11.6978","longitude":"78.4648","accuracy":"3"},{"address3":"Kalleripatti","state":"Tamil Nadu","state_code":"25","district":"Salem","district_code":"608","address1":"Atur","address2":"","latitude":"11.6777","longitude":"78.4531","accuracy":"4"},{"address3":"Thandanur","state":"Tamil Nadu","state_code":"25","district":"Salem","district_code":"608","address1":"Attur","address2":"","latitude":"11.6978","longitude":"78.4648","accuracy":"3"},{"address3":"Panaimadal","state":"Tamil Nadu","state_code":"25","district":"Salem","district_code":"608","address1":"Atur","address2":"","latitude":"11.7178","longitude":"78.4766","accuracy":"4"}],"636118":[{"address3":"Ulipuram","state":"Tamil Nadu","state_code":"25","district":"Salem","district_code":"608","address1":"Gangavalli","address2":"","latitude":"11.4698","longitude":"78.4591","accuracy":"4"},{"address3":"Naraikinar","state":"Tamil Nadu","state_code":"25","district":"Namakkal","district_code":"609","address1":"Rasipuram","address2":"","latitude":"11.4698","longitude":"78.4591","accuracy":"3"}],"636119":[{"address3":"Veeragoundanur","state":"Tamil Nadu","state_code":"25","district":"Salem","district_code":"608","address1":"Atur","address2":"","latitude":"11.119","longitude":"79.774","accuracy":"3"},{"address3":"Umayapuram","state":"Tamil Nadu","state_code":"25","district":"Salem","district_code":"608","address1":"Atur","address2":"","latitude":"11.6741","longitude":"78.2221","accuracy":"4"},{"address3":"Puthiragoundampalayam","state":"Tamil Nadu","state_code":"25","district":"Salem","district_code":"608","address1":"Atur","address2":"","latitude":"11.119","longitude":"79.774","accuracy":"3"},{"address3":"Ariyampalayam","state":"Tamil Nadu","state_code":"25","district":"Salem","district_code":"608","address1":"Atur","address2":"","latitude":"11.119","longitude":"79.774","accuracy":"3"}],"636121":[{"address3":"Manivilundan","state":"Tamil Nadu","state_code":"25","district":"Salem","district_code":"608","address1":"Atur","address2":"","latitude":"11.6004","longitude":"78.7169","accuracy":"4"},{"address3":"Sadasivapuram","state":"Tamil Nadu","state_code":"25","district":"Salem","district_code":"608","address1":"Atur","address2":"","latitude":"11.5607","longitude":"78.6779","accuracy":"4"},{"address3":"Valayamadevi","state":"Tamil Nadu","state_code":"25","district":"Salem","district_code":"608","address1":"Atur","address2":"","latitude":"11.5805","longitude":"78.6974","accuracy":"3"},{"address3":"Kattukottai","state":"Tamil Nadu","state_code":"25","district":"Salem","district_code":"608","address1":"Atur","address2":"","latitude":"11.5805","longitude":"78.6974","accuracy":"3"},{"address3":"Sarvoy","state":"Tamil Nadu","state_code":"25","district":"Salem","district_code":"608","address1":"Atur","address2":"","latitude":"11.5805","longitude":"78.6974","accuracy":"3"},{"address3":"Vadachennimalai","state":"Tamil Nadu","state_code":"25","district":"Salem","district_code":"608","address1":"Attur","address2":"","latitude":"11.5805","longitude":"78.6974","accuracy":"3"},{"address3":"Sathapadi","state":"Tamil Nadu","state_code":"25","district":"Salem","district_code":"608","address1":"Atur","address2":"","latitude":"11.5805","longitude":"78.6974","accuracy":"3"},{"address3":"Thenkumarai","state":"Tamil Nadu","state_code":"25","district":"Salem","district_code":"608","address1":"Atur","address2":"","latitude":"11.5805","longitude":"78.6974","accuracy":"3"}],"636122":[{"address3":"Sukkampatti","state":"Tamil Nadu","state_code":"25","district":"Salem","district_code":"608","address1":"Salem","address2":"","latitude":"11.6741","longitude":"78.2221","accuracy":"4"},{"address3":"Poovanur","state":"Tamil Nadu","state_code":"25","district":"Salem","district_code":"608","address1":"Salem","address2":"","latitude":"11.5462","longitude":"78.2023","accuracy":"3"},{"address3":"Valasaiyur","state":"Tamil Nadu","state_code":"25","district":"Salem","district_code":"608","address1":"Salem","address2":"","latitude":"11.7044","longitude":"78.2513","accuracy":"4"},{"address3":"Pallipatti","state":"Tamil Nadu","state_code":"25","district":"Salem","district_code":"608","address1":"Salem","address2":"","latitude":"11.6028","longitude":"77.9343","accuracy":"4"},{"address3":"Chinnanur","state":"Tamil Nadu","state_code":"25","district":"Salem","district_code":"608","address1":"Salem","address2":"","latitude":"11.6875","longitude":"78.2262","accuracy":"4"},{"address3":"Veeranam","state":"Tamil Nadu","state_code":"25","district":"Salem","district_code":"608","address1":"Salem","address2":"","latitude":"11.5462","longitude":"78.2023","accuracy":"3"},{"address3":"Kuppanur","state":"Tamil Nadu","state_code":"25","district":"Salem","district_code":"608","address1":"Salem","address2":"","latitude":"11.7429","longitude":"78.2847","accuracy":"4"},{"address3":"D.Perumapalayam","state":"Tamil Nadu","state_code":"25","district":"Salem","district_code":"608","address1":"Salem","address2":"","latitude":"11.5462","longitude":"78.2023","accuracy":"3"},{"address3":"Achankuttapatti","state":"Tamil Nadu","state_code":"25","district":"Salem","district_code":"608","address1":"Salem","address2":"","latitude":"11.5462","longitude":"78.2023","accuracy":"3"}],"636138":[{"address3":"Kunnur","state":"Tamil Nadu","state_code":"25","district":"Salem","district_code":"608","address1":"Atur","address2":"","latitude":"11.6741","longitude":"78.2221","accuracy":"4"},{"address3":"Kariyakoil","state":"Tamil Nadu","state_code":"25","district":"Salem","district_code":"608","address1":"Salem","address2":"","latitude":"10.5859","longitude":"79.6244","accuracy":"3"},{"address3":"Karumanthurai","state":"Tamil Nadu","state_code":"25","district":"Salem","district_code":"608","address1":"Salem","address2":"","latitude":"10.5859","longitude":"79.6244","accuracy":"3"},{"address3":"Koil Puthur","state":"Tamil Nadu","state_code":"25","district":"Salem","district_code":"608","address1":"Atur","address2":"","latitude":"10.5859","longitude":"79.6244","accuracy":"3"},{"address3":"Maniyaragundam","state":"Tamil Nadu","state_code":"25","district":"Salem","district_code":"608","address1":"Salem","address2":"","latitude":"10.5859","longitude":"79.6244","accuracy":"3"},{"address3":"Sittampatti","state":"Tamil Nadu","state_code":"25","district":"Salem","district_code":"608","address1":"Salem","address2":"","latitude":"10.5859","longitude":"79.6244","accuracy":"3"},{"address3":"Soolankurichi","state":"Tamil Nadu","state_code":"25","district":"Salem","district_code":"608","address1":"Atur","address2":"","latitude":"10.5859","longitude":"79.6244","accuracy":"3"},{"address3":"Pagadupattu","state":"Tamil Nadu","state_code":"25","district":"Salem","district_code":"608","address1":"Salem","address2":"","latitude":"10.5859","longitude":"79.6244","accuracy":"3"},{"address3":"Thekkampattu","state":"Tamil Nadu","state_code":"25","district":"Salem","district_code":"608","address1":"Salem","address2":"","latitude":"10.5859","longitude":"79.6244","accuracy":"3"}],"636139":[{"address3":"Kootathupatti","state":"Tamil Nadu","state_code":"25","district":"Salem","district_code":"608","address1":"Salem","address2":"","latitude":"11.7342","longitude":"78.328","accuracy":"3"},{"address3":"Anuppur","state":"Tamil Nadu","state_code":"25","district":"Salem","district_code":"608","address1":"Salem","address2":"","latitude":"11.7239","longitude":"78.3317","accuracy":"4"},{"address3":"Velampatti","state":"Tamil Nadu","state_code":"25","district":"Salem","district_code":"608","address1":"Salem","address2":"","latitude":"11.7445","longitude":"78.3244","accuracy":"4"},{"address3":"Kolathukombai","state":"Tamil Nadu","state_code":"25","district":"Salem","district_code":"608","address1":"Valapady","address2":"","latitude":"11.7342","longitude":"78.328","accuracy":"3"},{"address3":"Nirmullikuttai","state":"Tamil Nadu","state_code":"25","district":"Salem","district_code":"608","address1":"Valapady","address2":"","latitude":"11.7342","longitude":"78.328","accuracy":"3"}],"636140":[{"address3":"Odayapatti","state":"Tamil Nadu","state_code":"25","district":"Salem","district_code":"608","address1":"Salem","address2":"","latitude":"11.6741","longitude":"78.2221","accuracy":"4"},{"address3":"Kandashramam","state":"Tamil Nadu","state_code":"25","district":"Salem","district_code":"608","address1":"Salem","address2":"","latitude":"10.7864","longitude":"78.384","accuracy":"3"}],"636141":[{"address3":"Mulluvadi","state":"Tamil Nadu","state_code":"25","district":"Salem","district_code":"608","address1":"Attur","address2":"","latitude":"11.5988","longitude":"78.6092","accuracy":"4"},{"address3":"Kallanatham","state":"Tamil Nadu","state_code":"25","district":"Salem","district_code":"608","address1":"Atur","address2":"","latitude":"11.5646","longitude":"78.6128","accuracy":"3"},{"address3":"Pungavadi","state":"Tamil Nadu","state_code":"25","district":"Salem","district_code":"608","address1":"Atur","address2":"","latitude":"11.5303","longitude":"78.6164","accuracy":"4"},{"address3":"Manjini","state":"Tamil Nadu","state_code":"25","district":"Salem","district_code":"608","address1":"Atur","address2":"","latitude":"11.5646","longitude":"78.6128","accuracy":"3"},{"address3":"Ammampalayam","state":"Tamil Nadu","state_code":"25","district":"Salem","district_code":"608","address1":"Atur","address2":"","latitude":"11.5646","longitude":"78.6128","accuracy":"3"},{"address3":"Pudupet (Salem)","state":"Tamil Nadu","state_code":"25","district":"Salem","district_code":"608","address1":"Attur","address2":"","latitude":"11.5646","longitude":"78.6128","accuracy":"3"},{"address3":"Paithur","state":"Tamil Nadu","state_code":"25","district":"Salem","district_code":"608","address1":"Atur","address2":"","latitude":"11.5646","longitude":"78.6128","accuracy":"3"}],"636142":[{"address3":"Moolakurichi","state":"Tamil Nadu","state_code":"25","district":"Salem","district_code":"608","address1":"Attur","address2":"","latitude":"11.3052","longitude":"78.5365","accuracy":"1"},{"address3":"Unanthangal","state":"Tamil Nadu","state_code":"25","district":"Namakkal","district_code":"609","address1":"Rasipuram","address2":"","latitude":"11.3052","longitude":"78.5365","accuracy":"1"},{"address3":"Mullukurichi","state":"Tamil Nadu","state_code":"25","district":"Namakkal","district_code":"609","address1":"Rasipuram","address2":"","latitude":"11.3052","longitude":"78.5365","accuracy":"1"}],"636201":[{"address3":"Nilavarapatti","state":"Tamil Nadu","state_code":"25","district":"Salem","district_code":"608","address1":"Salem","address2":"","latitude":"11.1597","longitude":"78.1794","accuracy":"1"},{"address3":"Nalikalpatti","state":"Tamil Nadu","state_code":"25","district":"Salem","district_code":"608","address1":"Salem","address2":"","latitude":"11.1597","longitude":"78.1794","accuracy":"1"},{"address3":"Seelanaickenpatti","state":"Tamil Nadu","state_code":"25","district":"Salem","district_code":"608","address1":"Salem","address2":"","latitude":"11.1597","longitude":"78.1794","accuracy":"1"},{"address3":"Gajjalnaickenpatti","state":"Tamil Nadu","state_code":"25","district":"Salem","district_code":"608","address1":"Salem","address2":"","latitude":"11.1597","longitude":"78.1794","accuracy":"1"},{"address3":"Dasanaickenpatti","state":"Tamil Nadu","state_code":"25","district":"Salem","district_code":"608","address1":"Salem","address2":"","latitude":"11.1597","longitude":"78.1794","accuracy":"1"}],"636202":[{"address3":"Kamarajnagar","state":"Tamil Nadu","state_code":"25","district":"Salem","district_code":"608","address1":"Salem","address2":"","latitude":"11.3314","longitude":"78.0301","accuracy":"3"},{"address3":"Karkudalpatti","state":"Tamil Nadu","state_code":"25","district":"Namakkal","district_code":"609","address1":"Rasipuram","address2":"","latitude":"11.5002","longitude":"78.3521","accuracy":"4"},{"address3":"Kammalapatti","state":"Tamil Nadu","state_code":"25","district":"Namakkal","district_code":"609","address1":"Rasipuram","address2":"","latitude":"11.3163","longitude":"78.1361","accuracy":"4"},{"address3":"Thirumanur","state":"Tamil Nadu","state_code":"25","district":"Namakkal","district_code":"609","address1":"Rasipuram","address2":"","latitude":"11.3314","longitude":"78.0301","accuracy":"3"},{"address3":"Mangalapuram","state":"Tamil Nadu","state_code":"25","district":"Namakkal","district_code":"609","address1":"Rasipuram","address2":"","latitude":"11.5667","longitude":"78.3788","accuracy":"4"},{"address3":"Kattur","state":"Tamil Nadu","state_code":"25","district":"Namakkal","district_code":"609","address1":"Rasipuram","address2":"","latitude":"11.41","longitude":"78.1422","accuracy":"4"},{"address3":"Thimmanaickenpatti","state":"Tamil Nadu","state_code":"25","district":"Namakkal","district_code":"609","address1":"Rasipuram","address2":"","latitude":"11.3314","longitude":"78.0301","accuracy":"3"},{"address3":"Ayilpatti","state":"Tamil Nadu","state_code":"25","district":"Namakkal","district_code":"609","address1":"Rasipuram","address2":"","latitude":"11.3314","longitude":"78.0301","accuracy":"3"},{"address3":"Singiliankombai","state":"Tamil Nadu","state_code":"25","district":"Namakkal","district_code":"609","address1":"Rasipuram","address2":"","latitude":"11.3314","longitude":"78.0301","accuracy":"3"},{"address3":"Mathuruttu","state":"Tamil Nadu","state_code":"25","district":"Namakkal","district_code":"609","address1":"Rasipuram","address2":"","latitude":"11.3314","longitude":"78.0301","accuracy":"3"},{"address3":"Thandagoundanpalayam","state":"Tamil Nadu","state_code":"25","district":"Namakkal","district_code":"609","address1":"Rasipuram","address2":"","latitude":"11.3314","longitude":"78.0301","accuracy":"3"},{"address3":"Eswaramurthipalayam","state":"Tamil Nadu","state_code":"25","district":"Namakkal","district_code":"609","address1":"Rasipuram","address2":"","latitude":"11.3314","longitude":"78.0301","accuracy":"3"},{"address3":"Veppilaipatti","state":"Tamil Nadu","state_code":"25","district":"Namakkal","district_code":"609","address1":"Rasipuram","address2":"","latitude":"11.3314","longitude":"78.0301","accuracy":"3"}],"636203":[{"address3":"Parapatti","state":"Tamil Nadu","state_code":"25","district":"Salem","district_code":"608","address1":"Salem","address2":"","latitude":"11.6741","longitude":"78.2221","accuracy":"4"},{"address3":"Mullur","state":"Tamil Nadu","state_code":"25","district":"Salem","district_code":"608","address1":"Salem","address2":"","latitude":"11.6741","longitude":"78.2221","accuracy":"4"},{"address3":"E.Pethampatti","state":"Tamil Nadu","state_code":"25","district":"Salem","district_code":"608","address1":"Salem","address2":"","latitude":"11.2644","longitude":"78.4393","accuracy":"3"},{"address3":"Shevroy Mines","state":"Tamil Nadu","state_code":"25","district":"Salem","district_code":"608","address1":"salem","address2":"","latitude":"11.2644","longitude":"78.4393","accuracy":"3"},{"address3":"R.Komarapalayam","state":"Tamil Nadu","state_code":"25","district":"Salem","district_code":"608","address1":"Salem","address2":"","latitude":"11.2644","longitude":"78.4393","accuracy":"3"},{"address3":"S.Attayampatti","state":"Tamil Nadu","state_code":"25","district":"Salem","district_code":"608","address1":"Salem","address2":"","latitude":"11.2644","longitude":"78.4393","accuracy":"3"},{"address3":"P.Mettur","state":"Tamil Nadu","state_code":"25","district":"Salem","district_code":"608","address1":"Salem","address2":"","latitude":"11.2644","longitude":"78.4393","accuracy":"3"},{"address3":"Mookuthipalayam","state":"Tamil Nadu","state_code":"25","district":"Salem","district_code":"608","address1":"Salem","address2":"","latitude":"11.2644","longitude":"78.4393","accuracy":"3"}],"636204":[{"address3":"Panamarathupatti","state":"Tamil Nadu","state_code":"25","district":"Salem","district_code":"608","address1":"Salem","address2":"","latitude":"10.7117","longitude":"78.2181","accuracy":"3"},{"address3":"Adikarai","state":"Tamil Nadu","state_code":"25","district":"Salem","district_code":"608","address1":"Salem","address2":"","latitude":"11.6741","longitude":"78.2221","accuracy":"4"},{"address3":"Thumbalpatti","state":"Tamil Nadu","state_code":"25","district":"Salem","district_code":"608","address1":"Salem","address2":"","latitude":"10.7117","longitude":"78.2181","accuracy":"3"},{"address3":"Tippampatti","state":"Tamil Nadu","state_code":"25","district":"Salem","district_code":"608","address1":"Salem","address2":"","latitude":"11.568","longitude":"78.2014","accuracy":"4"},{"address3":"Kuralnatham","state":"Tamil Nadu","state_code":"25","district":"Salem","district_code":"608","address1":"Salem","address2":"","latitude":"10.7117","longitude":"78.2181","accuracy":"3"}],"636301":[{"address3":"Attanur","state":"Tamil Nadu","state_code":"25","district":"Namakkal","district_code":"609","address1":"Rasipuram","address2":"","latitude":"11.5006","longitude":"78.1356","accuracy":"4"},{"address3":"Thengalpalayam","state":"Tamil Nadu","state_code":"25","district":"Namakkal","district_code":"609","address1":"Rasipuram","address2":"","latitude":"11.5006","longitude":"78.1356","accuracy":"3"},{"address3":"Thottivalasu","state":"Tamil Nadu","state_code":"25","district":"Namakkal","district_code":"609","address1":"Rasipuram","address2":"","latitude":"11.5006","longitude":"78.1356","accuracy":"3"}],"636302":[{"address3":"Dalavaipatti","state":"Tamil Nadu","state_code":"25","district":"Salem","district_code":"608","address1":"Salem","address2":"","latitude":"11.6614","longitude":"78.0834","accuracy":"4"},{"address3":"Magnesite Mines","state":"Tamil Nadu","state_code":"25","district":"Salem","district_code":"608","address1":"Salem","address2":"","latitude":"11.6614","longitude":"78.0834","accuracy":"3"},{"address3":"Jagir Ammapalayam","state":"Tamil Nadu","state_code":"25","district":"Salem","district_code":"608","address1":"Salem","address2":"","latitude":"11.6614","longitude":"78.0834","accuracy":"3"},{"address3":"Ayyamperumalpatti","state":"Tamil Nadu","state_code":"25","district":"Salem","district_code":"608","address1":"Salem","address2":"","latitude":"11.6614","longitude":"78.0834","accuracy":"3"},{"address3":"Kachakaranur","state":"Tamil Nadu","state_code":"25","district":"Salem","district_code":"608","address1":"Salem","address2":"","latitude":"11.6614","longitude":"78.0834","accuracy":"3"},{"address3":"Mamangam","state":"Tamil Nadu","state_code":"25","district":"Salem","district_code":"608","address1":"Salem","address2":"","latitude":"11.6614","longitude":"78.0834","accuracy":"3"}],"636303":[{"address3":"Kaveripuram","state":"Tamil Nadu","state_code":"25","district":"Salem","district_code":"608","address1":"Mettur","address2":"","latitude":"11.9066","longitude":"77.7619","accuracy":"4"},{"address3":"Chinnathanda","state":"Tamil Nadu","state_code":"25","district":"Salem","district_code":"608","address1":"Mettur","address2":"","latitude":"11.8787","longitude":"77.7654","accuracy":"3"},{"address3":"Pannavadi","state":"Tamil Nadu","state_code":"25","district":"Salem","district_code":"608","address1":"Mettur","address2":"","latitude":"11.8754","longitude":"77.7481","accuracy":"4"},{"address3":"Tharkadusundarapuram","state":"Tamil Nadu","state_code":"25","district":"Salem","district_code":"608","address1":"Mettur","address2":"","latitude":"11.8787","longitude":"77.7654","accuracy":"3"},{"address3":"Kurumbarur","state":"Tamil Nadu","state_code":"25","district":"Salem","district_code":"608","address1":"Mettur","address2":"","latitude":"11.8338","longitude":"77.7243","accuracy":"4"},{"address3":"Kolathur (Salem)S.O","state":"Tamil Nadu","state_code":"25","district":"Salem","district_code":"608","address1":"Mettur","address2":"","latitude":"11.8787","longitude":"77.7654","accuracy":"3"},{"address3":"Govindapadi","state":"Tamil Nadu","state_code":"25","district":"Salem","district_code":"608","address1":"Mettur","address2":"","latitude":"11.8991","longitude":"77.8272","accuracy":"4"},{"address3":"Singiripatti","state":"Tamil Nadu","state_code":"25","district":"Salem","district_code":"608","address1":"Mettur","address2":"","latitude":"11.8787","longitude":"77.7654","accuracy":"3"},{"address3":"Settiyur","state":"Tamil Nadu","state_code":"25","district":"Salem","district_code":"608","address1":"Mettur","address2":"","latitude":"11.8787","longitude":"77.7654","accuracy":"3"},{"address3":"Savariyarpalayam","state":"Tamil Nadu","state_code":"25","district":"Salem","district_code":"608","address1":"Mettur","address2":"","latitude":"11.8787","longitude":"77.7654","accuracy":"3"},{"address3":"Palamalai Hills","state":"Tamil Nadu","state_code":"25","district":"Salem","district_code":"608","address1":"Mettur","address2":"","latitude":"11.8787","longitude":"77.7654","accuracy":"3"},{"address3":"Karungallur","state":"Tamil Nadu","state_code":"25","district":"Salem","district_code":"608","address1":"Mettur","address2":"","latitude":"11.8787","longitude":"77.7654","accuracy":"3"},{"address3":"Kannamoochi","state":"Tamil Nadu","state_code":"25","district":"Salem","district_code":"608","address1":"Mettur","address2":"","latitude":"11.8787","longitude":"77.7654","accuracy":"3"},{"address3":"Dinnapatti","state":"Tamil Nadu","state_code":"25","district":"Salem","district_code":"608","address1":"Mettur","address2":"","latitude":"11.8787","longitude":"77.7654","accuracy":"3"}],"636304":[{"address3":"Pakalpatti","state":"Tamil Nadu","state_code":"25","district":"Salem","district_code":"608","address1":"Omalur","address2":"","latitude":"11.7021","longitude":"78.057","accuracy":"4"},{"address3":"Attukaranur","state":"Tamil Nadu","state_code":"25","district":"Salem","district_code":"608","address1":"Salem","address2":"","latitude":"11.7021","longitude":"78.057","accuracy":"3"},{"address3":"Boominaickenpatti","state":"Tamil Nadu","state_code":"25","district":"Salem","district_code":"608","address1":"Salem","address2":"","latitude":"11.7021","longitude":"78.057","accuracy":"3"},{"address3":"Chellapillaikuttai","state":"Tamil Nadu","state_code":"25","district":"Salem","district_code":"608","address1":"Omalur","address2":"","latitude":"11.7021","longitude":"78.057","accuracy":"3"},{"address3":"Nallagoundampatti","state":"Tamil Nadu","state_code":"25","district":"Salem","district_code":"608","address1":"Salem","address2":"","latitude":"11.7021","longitude":"78.057","accuracy":"3"},{"address3":"Semmankudal","state":"Tamil Nadu","state_code":"25","district":"Salem","district_code":"608","address1":"Salem","address2":"","latitude":"11.7021","longitude":"78.057","accuracy":"3"},{"address3":"Muthunaickenpatti","state":"Tamil Nadu","state_code":"25","district":"Salem","district_code":"608","address1":"Omalur","address2":"","latitude":"11.7021","longitude":"78.057","accuracy":"3"}],"636305":[{"address3":"Kongupatti","state":"Tamil Nadu","state_code":"25","district":"Salem","district_code":"608","address1":"Omalur","address2":"","latitude":"11.8593","longitude":"78.0217","accuracy":"4"},{"address3":"Sarkaraichettipatti","state":"Tamil Nadu","state_code":"25","district":"Salem","district_code":"608","address1":"Omalur","address2":"","latitude":"11.8593","longitude":"78.0217","accuracy":"3"},{"address3":"Pannapatti","state":"Tamil Nadu","state_code":"25","district":"Salem","district_code":"608","address1":"Omalur","address2":"","latitude":"11.8593","longitude":"78.0217","accuracy":"3"},{"address3":"Sarkkapillaiyur","state":"Tamil Nadu","state_code":"25","district":"Salem","district_code":"608","address1":"Salem","address2":"","latitude":"11.8593","longitude":"78.0217","accuracy":"3"},{"address3":"Thinnapatti","state":"Tamil Nadu","state_code":"25","district":"Salem","district_code":"608","address1":"Salem","address2":"","latitude":"11.8593","longitude":"78.0217","accuracy":"3"},{"address3":"Thumbipadi","state":"Tamil Nadu","state_code":"25","district":"Salem","district_code":"608","address1":"Omalur","address2":"","latitude":"11.8593","longitude":"78.0217","accuracy":"3"},{"address3":"Kanjanaickenpatti","state":"Tamil Nadu","state_code":"25","district":"Salem","district_code":"608","address1":"Omalur","address2":"","latitude":"11.8593","longitude":"78.0217","accuracy":"3"},{"address3":"Karuvalli","state":"Tamil Nadu","state_code":"25","district":"Salem","district_code":"608","address1":"Salem","address2":"","latitude":"11.8593","longitude":"78.0217","accuracy":"3"},{"address3":"Mattukaranpudur","state":"Tamil Nadu","state_code":"25","district":"Salem","district_code":"608","address1":"Salem","address2":"","latitude":"11.8593","longitude":"78.0217","accuracy":"3"},{"address3":"Poosaripatti","state":"Tamil Nadu","state_code":"25","district":"Salem","district_code":"608","address1":"Omalur","address2":"","latitude":"11.8593","longitude":"78.0217","accuracy":"3"}],"636306":[{"address3":"Samudram","state":"Tamil Nadu","state_code":"25","district":"Salem","district_code":"608","address1":"Edappadi","address2":"","latitude":"11.6533","longitude":"77.9079","accuracy":"4"},{"address3":"Dasavilakku","state":"Tamil Nadu","state_code":"25","district":"Salem","district_code":"608","address1":"Edappadi","address2":"","latitude":"11.6533","longitude":"77.9079","accuracy":"3"},{"address3":"Sinnappampatti","state":"Tamil Nadu","state_code":"25","district":"Salem","district_code":"608","address1":"Salem","address2":"","latitude":"11.6533","longitude":"77.9079","accuracy":"3"},{"address3":"Duddampatti","state":"Tamil Nadu","state_code":"25","district":"Salem","district_code":"608","address1":"Salem","address2":"","latitude":"11.6533","longitude":"77.9079","accuracy":"3"},{"address3":"Pappampadi","state":"Tamil Nadu","state_code":"25","district":"Salem","district_code":"608","address1":"Edappadi","address2":"","latitude":"11.6533","longitude":"77.9079","accuracy":"3"},{"address3":"Pudupalayam","state":"Tamil Nadu","state_code":"25","district":"Salem","district_code":"608","address1":"Edappadi","address2":"","latitude":"11.6533","longitude":"77.9079","accuracy":"3"}],"636307":[{"address3":"Andipatti","state":"Tamil Nadu","state_code":"25","district":"Salem","district_code":"608","address1":"Salem","address2":"","latitude":"11.6741","longitude":"78.2221","accuracy":"4"},{"address3":"Sivadapuram","state":"Tamil Nadu","state_code":"25","district":"Salem","district_code":"608","address1":"Salem","address2":"","latitude":"11.6484","longitude":"78.1088","accuracy":"4"},{"address3":"Murungapatti","state":"Tamil Nadu","state_code":"25","district":"Salem","district_code":"608","address1":"Salem","address2":"","latitude":"11.6741","longitude":"78.2221","accuracy":"4"},{"address3":"Naickenpatti","state":"Tamil Nadu","state_code":"25","district":"Salem","district_code":"608","address1":"Salem","address2":"","latitude":"11.4877","longitude":"78.2346","accuracy":"3"},{"address3":"Kandampatti","state":"Tamil Nadu","state_code":"25","district":"Salem","district_code":"608","address1":"Salem","address2":"","latitude":"11.6569","longitude":"78.1198","accuracy":"4"},{"address3":"Thirumalagiri","state":"Tamil Nadu","state_code":"25","district":"Salem","district_code":"608","address1":"Salem","address2":"","latitude":"11.4877","longitude":"78.2346","accuracy":"3"},{"address3":"Perumampatti","state":"Tamil Nadu","state_code":"25","district":"Salem","district_code":"608","address1":"Salem","address2":"","latitude":"11.6395","longitude":"78.0739","accuracy":"4"},{"address3":"Bodinaickenpatti","state":"Tamil Nadu","state_code":"25","district":"Salem","district_code":"608","address1":"Salem","address2":"","latitude":"11.4877","longitude":"78.2346","accuracy":"3"}],"636308":[{"address3":"Ariyanur","state":"Tamil Nadu","state_code":"25","district":"Salem","district_code":"608","address1":"Salem","address2":"","latitude":"11.5907","longitude":"78.0832","accuracy":"4"},{"address3":"Bairoji Agraharam","state":"Tamil Nadu","state_code":"25","district":"Salem","district_code":"608","address1":"Salem","address2":"","latitude":"11.5907","longitude":"78.0832","accuracy":"3"},{"address3":"Akkarapalayam","state":"Tamil Nadu","state_code":"25","district":"Salem","district_code":"608","address1":"Salem","address2":"","latitude":"11.5907","longitude":"78.0832","accuracy":"3"},{"address3":"Chinnaseeragapadi","state":"Tamil Nadu","state_code":"25","district":"Salem","district_code":"608","address1":"Salem","address2":"","latitude":"11.5907","longitude":"78.0832","accuracy":"3"},{"address3":"Periaseeragapadi","state":"Tamil Nadu","state_code":"25","district":"Salem","district_code":"608","address1":"Salem","address2":"","latitude":"11.5907","longitude":"78.0832","accuracy":"3"},{"address3":"Veerapandi Salem","state":"Tamil Nadu","state_code":"25","district":"Salem","district_code":"608","address1":"Salem","address2":"","latitude":"11.5907","longitude":"78.0832","accuracy":"3"}],"636309":[{"address3":"Pottipuram","state":"Tamil Nadu","state_code":"25","district":"Salem","district_code":"608","address1":"Omalur","address2":"","latitude":"11.6741","longitude":"78.2221","accuracy":"4"},{"address3":"Sikkanampatti","state":"Tamil Nadu","state_code":"25","district":"Salem","district_code":"608","address1":"Omalur","address2":"","latitude":"11.7928","longitude":"78.0584","accuracy":"4"},{"address3":"Darapuram","state":"Tamil Nadu","state_code":"25","district":"Salem","district_code":"608","address1":"Omalur","address2":"","latitude":"11.7876","longitude":"78.0478","accuracy":"4"},{"address3":"Semmandapatti","state":"Tamil Nadu","state_code":"25","district":"Salem","district_code":"608","address1":"Omalur","address2":"","latitude":"11.7892","longitude":"78.0253","accuracy":"4"},{"address3":"Kamalapuram (Salem)","state":"Tamil Nadu","state_code":"25","district":"Salem","district_code":"608","address1":"Omalur","address2":"","latitude":"11.768","longitude":"78.0599","accuracy":"4"},{"address3":"Periapatti","state":"Tamil Nadu","state_code":"25","district":"Salem","district_code":"608","address1":"Salem","address2":"","latitude":"11.4155","longitude":"77.9025","accuracy":"3"}],"636351":[{"address3":"Kadayampatti","state":"Tamil Nadu","state_code":"25","district":"Salem","district_code":"608","address1":"Omalur","address2":"","latitude":"11.6741","longitude":"78.2221","accuracy":"4"},{"address3":"Mukkanur","state":"Tamil Nadu","state_code":"25","district":"Salem","district_code":"608","address1":"Omalur","address2":"","latitude":"11.5531","longitude":"78.1615","accuracy":"4"},{"address3":"Jodukuli","state":"Tamil Nadu","state_code":"25","district":"Salem","district_code":"608","address1":"Salem","address2":"","latitude":"11.9034","longitude":"78.0525","accuracy":"4"},{"address3":"Nadupatti","state":"Tamil Nadu","state_code":"25","district":"Salem","district_code":"608","address1":"Omalur","address2":"","latitude":"11.8089","longitude":"78.5934","accuracy":"4"},{"address3":"Konreddiyur","state":"Tamil Nadu","state_code":"25","district":"Salem","district_code":"608","address1":"Salem","address2":"","latitude":"11.8813","longitude":"78.0419","accuracy":"4"},{"address3":"Deevattipatti","state":"Tamil Nadu","state_code":"25","district":"Salem","district_code":"608","address1":"Omalur","address2":"","latitude":"11.7211","longitude":"78.105","accuracy":"3"},{"address3":"Umbilickampatti","state":"Tamil Nadu","state_code":"25","district":"Salem","district_code":"608","address1":"Salem","address2":"","latitude":"11.7211","longitude":"78.105","accuracy":"3"},{"address3":"V.Kongarapatti","state":"Tamil Nadu","state_code":"25","district":"Salem","district_code":"608","address1":"Salem","address2":"","latitude":"11.7211","longitude":"78.105","accuracy":"3"},{"address3":"Bommiampatti","state":"Tamil Nadu","state_code":"25","district":"Salem","district_code":"608","address1":"Omalur","address2":"","latitude":"11.7211","longitude":"78.105","accuracy":"3"}],"636352":[{"address3":"Moolakadu","state":"Tamil Nadu","state_code":"25","district":"Dharmapuri","district_code":"630","address1":"Dharmapuri","address2":"","latitude":"11.9068","longitude":"77.9945","accuracy":"3"},{"address3":"Thoppur","state":"Tamil Nadu","state_code":"25","district":"Dharmapuri","district_code":"630","address1":"Nallampalli","address2":"","latitude":"11.9068","longitude":"77.9945","accuracy":"3"},{"address3":"Kammampatti","state":"Tamil Nadu","state_code":"25","district":"Dharmapuri","district_code":"630","address1":"Dharmapuri","address2":"","latitude":"11.9068","longitude":"77.9945","accuracy":"4"},{"address3":"T.Ganigarahalli","state":"Tamil Nadu","state_code":"25","district":"Dharmapuri","district_code":"630","address1":"Dharmapuri","address2":"","latitude":"11.9068","longitude":"77.9945","accuracy":"3"}],"636354":[{"address3":"Danishpet","state":"Tamil Nadu","state_code":"25","district":"Salem","district_code":"608","address1":"Omalur","address2":"","latitude":"11.8618","longitude":"78.1282","accuracy":"4"},{"address3":"Periavadugampatti","state":"Tamil Nadu","state_code":"25","district":"Salem","district_code":"608","address1":"Salem","address2":"","latitude":"11.8618","longitude":"78.1282","accuracy":"3"},{"address3":"Ramamurthinagar","state":"Tamil Nadu","state_code":"25","district":"Salem","district_code":"608","address1":"Salem","address2":"","latitude":"11.8618","longitude":"78.1282","accuracy":"3"},{"address3":"K.Morur","state":"Tamil Nadu","state_code":"25","district":"Salem","district_code":"608","address1":"Omalur","address2":"","latitude":"11.8618","longitude":"78.1282","accuracy":"3"},{"address3":"Kanavaipudur","state":"Tamil Nadu","state_code":"25","district":"Salem","district_code":"608","address1":"Omalur","address2":"","latitude":"11.8618","longitude":"78.1282","accuracy":"3"},{"address3":"Kannapadi","state":"Tamil Nadu","state_code":"25","district":"Salem","district_code":"608","address1":"Mettur","address2":"","latitude":"11.8618","longitude":"78.1282","accuracy":"3"},{"address3":"Kethunaickenpattipudur","state":"Tamil Nadu","state_code":"25","district":"Salem","district_code":"608","address1":"Omalur","address2":"","latitude":"11.8618","longitude":"78.1282","accuracy":"3"}],"636401":[{"address3":"Metturdam South","state":"Tamil Nadu","state_code":"25","district":"Salem","district_code":"608","address1":"Mettur","address2":"","latitude":"11.8219","longitude":"77.8601","accuracy":"1"},{"address3":"Metturdam","state":"Tamil Nadu","state_code":"25","district":"Salem","district_code":"608","address1":"Mettur","address2":"","latitude":"11.8219","longitude":"77.8601","accuracy":"1"}],"636402":[{"address3":"Metturdam RS","state":"Tamil Nadu","state_code":"25","district":"Salem","district_code":"608","address1":"Mettur","address2":"","latitude":"11.8219","longitude":"77.8601","accuracy":"1"},{"address3":"Nedunchalai Nagar","state":"Tamil Nadu","state_code":"25","district":"Salem","district_code":"608","address1":"Salem","address2":"","latitude":"11.8219","longitude":"77.8601","accuracy":"1"}],"636403":[{"address3":"Pudusampalli","state":"Tamil Nadu","state_code":"25","district":"Salem","district_code":"608","address1":"Mettur","address2":"","latitude":"11.8219","longitude":"77.8601","accuracy":"1"},{"address3":"Raman Nagar","state":"Tamil Nadu","state_code":"25","district":"Salem","district_code":"608","address1":"Mettur","address2":"","latitude":"11.8219","longitude":"77.8601","accuracy":"1"},{"address3":"Karumalaikudal","state":"Tamil Nadu","state_code":"25","district":"Salem","district_code":"608","address1":"Mettur","address2":"","latitude":"11.8219","longitude":"77.8601","accuracy":"1"}],"636404":[{"address3":"Gonur","state":"Tamil Nadu","state_code":"25","district":"Salem","district_code":"608","address1":"Mettur","address2":"","latitude":"11.8219","longitude":"77.8601","accuracy":"4"},{"address3":"Karuppureddiyur","state":"Tamil Nadu","state_code":"25","district":"Salem","district_code":"608","address1":"Mettur","address2":"","latitude":"11.8219","longitude":"77.8601","accuracy":"3"},{"address3":"Andikarai","state":"Tamil Nadu","state_code":"25","district":"Salem","district_code":"608","address1":"Mettur","address2":"","latitude":"11.8219","longitude":"77.8601","accuracy":"3"}],"636406":[{"address3":"Mettur Thermal Project","state":"Tamil Nadu","state_code":"25","district":"Salem","district_code":"608","address1":"Mettur","address2":"","latitude":"11.8219","longitude":"77.8601","accuracy":"1"}],"636451":[{"address3":"Banapuram","state":"Tamil Nadu","state_code":"25","district":"Salem","district_code":"608","address1":"Mettur","address2":"","latitude":"11.7883","longitude":"77.9498","accuracy":"4"},{"address3":"Vellar","state":"Tamil Nadu","state_code":"25","district":"Salem","district_code":"608","address1":"Mettur","address2":"","latitude":"11.8938","longitude":"77.9698","accuracy":"4"},{"address3":"Aranganur","state":"Tamil Nadu","state_code":"25","district":"Salem","district_code":"608","address1":"Mettur","address2":"","latitude":"11.8097","longitude":"77.9927","accuracy":"4"},{"address3":"Bukkampatti","state":"Tamil Nadu","state_code":"25","district":"Salem","district_code":"608","address1":"Mettur","address2":"","latitude":"11.8375","longitude":"77.9737","accuracy":"4"},{"address3":"Periasathapadi","state":"Tamil Nadu","state_code":"25","district":"Salem","district_code":"608","address1":"Mettur","address2":"","latitude":"11.8337","longitude":"77.9691","accuracy":"3"},{"address3":"Amaram","state":"Tamil Nadu","state_code":"25","district":"Salem","district_code":"608","address1":"Mettur","address2":"","latitude":"11.8392","longitude":"77.9595","accuracy":"4"},{"address3":"Thettigiripatti","state":"Tamil Nadu","state_code":"25","district":"Salem","district_code":"608","address1":"Mettur","address2":"","latitude":"11.8337","longitude":"77.9691","accuracy":"3"},{"address3":"Chamrajpet (Salem)","state":"Tamil Nadu","state_code":"25","district":"Salem","district_code":"608","address1":"Mettur","address2":"","latitude":"11.8337","longitude":"77.9691","accuracy":"3"},{"address3":"Marakottai","state":"Tamil Nadu","state_code":"25","district":"Salem","district_code":"608","address1":"Mettur","address2":"","latitude":"11.8337","longitude":"77.9691","accuracy":"3"},{"address3":"Erakondampatti","state":"Tamil Nadu","state_code":"25","district":"Salem","district_code":"608","address1":"Mettur","address2":"","latitude":"11.8337","longitude":"77.9691","accuracy":"3"}],"636452":[{"address3":"Navapatti","state":"Tamil Nadu","state_code":"25","district":"Salem","district_code":"608","address1":"Mettur","address2":"","latitude":"11.6741","longitude":"78.2221","accuracy":"4"},{"address3":"Masilapalayam","state":"Tamil Nadu","state_code":"25","district":"Salem","district_code":"608","address1":"Mettur","address2":"","latitude":"11.3244","longitude":"78.4134","accuracy":"3"},{"address3":"Mulakadu","state":"Tamil Nadu","state_code":"25","district":"Salem","district_code":"608","address1":"Mettur","address2":"","latitude":"11.6741","longitude":"78.2221","accuracy":"4"},{"address3":"Kolanaickenpatti","state":"Tamil Nadu","state_code":"25","district":"Salem","district_code":"608","address1":"Mettur","address2":"","latitude":"11.3244","longitude":"78.4134","accuracy":"3"},{"address3":"Madayankuttai","state":"Tamil Nadu","state_code":"25","district":"Salem","district_code":"608","address1":"Mettur","address2":"","latitude":"11.3244","longitude":"78.4134","accuracy":"3"}],"636453":[{"address3":"Koppampudur","state":"Tamil Nadu","state_code":"25","district":"Salem","district_code":"608","address1":"Mettur","address2":"","latitude":"11.7951","longitude":"77.9446","accuracy":"4"},{"address3":"Mecheri","state":"Tamil Nadu","state_code":"25","district":"Salem","district_code":"608","address1":"Mettur","address2":"","latitude":"11.8341","longitude":"77.9439","accuracy":"4"},{"address3":"Pottaneri","state":"Tamil Nadu","state_code":"25","district":"Salem","district_code":"608","address1":"Mettur","address2":"","latitude":"11.6888","longitude":"78.0014","accuracy":"4"},{"address3":"Kullamudayanur","state":"Tamil Nadu","state_code":"25","district":"Salem","district_code":"608","address1":"Mettur","address2":"","latitude":"11.7727","longitude":"77.9633","accuracy":"3"},{"address3":"Guttapatti","state":"Tamil Nadu","state_code":"25","district":"Salem","district_code":"608","address1":"Mettur","address2":"","latitude":"11.7727","longitude":"77.9633","accuracy":"3"},{"address3":"Virudasampatti","state":"Tamil Nadu","state_code":"25","district":"Salem","district_code":"608","address1":"Mettur","address2":"","latitude":"11.7727","longitude":"77.9633","accuracy":"3"},{"address3":"M.Kalipatti","state":"Tamil Nadu","state_code":"25","district":"Salem","district_code":"608","address1":"Mettur","address2":"","latitude":"11.7727","longitude":"77.9633","accuracy":"3"}],"636454":[{"address3":"Kanakkampatti","state":"Tamil Nadu","state_code":"25","district":"Salem","district_code":"608","address1":"Mettur","address2":"","latitude":"11.6741","longitude":"78.2221","accuracy":"4"},{"address3":"Veerakkal","state":"Tamil Nadu","state_code":"25","district":"Salem","district_code":"608","address1":"Mettur","address2":"","latitude":"11.3108","longitude":"77.8289","accuracy":"3"},{"address3":"Nangavalli","state":"Tamil Nadu","state_code":"25","district":"Salem","district_code":"608","address1":"Mettur","address2":"","latitude":"11.7619","longitude":"77.8909","accuracy":"4"}],"636455":[{"address3":"Mettupatti","state":"Tamil Nadu","state_code":"25","district":"Salem","district_code":"608","address1":"Salem","address2":"","latitude":"11.6741","longitude":"78.2221","accuracy":"4"},{"address3":"Omalur","state":"Tamil Nadu","state_code":"25","district":"Salem","district_code":"608","address1":"Omalur","address2":"","latitude":"11.741","longitude":"78.0456","accuracy":"4"},{"address3":"Chettipatti","state":"Tamil Nadu","state_code":"25","district":"Salem","district_code":"608","address1":"Omalur","address2":"","latitude":"11.9393","longitude":"77.699","accuracy":"4"},{"address3":"Pachanampatti","state":"Tamil Nadu","state_code":"25","district":"Salem","district_code":"608","address1":"Omalur","address2":"","latitude":"11.6741","longitude":"78.2221","accuracy":"4"},{"address3":"Panankattur","state":"Tamil Nadu","state_code":"25","district":"Salem","district_code":"608","address1":"Omalur","address2":"","latitude":"10.7208","longitude":"78.0791","accuracy":"3"},{"address3":"Olaipatti","state":"Tamil Nadu","state_code":"25","district":"Salem","district_code":"608","address1":"Omalur","address2":"","latitude":"11.6741","longitude":"78.2221","accuracy":"4"},{"address3":"Omalur Cutcherry","state":"Tamil Nadu","state_code":"25","district":"Salem","district_code":"608","address1":"Salem","address2":"","latitude":"10.7208","longitude":"78.0791","accuracy":"3"},{"address3":"Moongilerichettipatti","state":"Tamil Nadu","state_code":"25","district":"Salem","district_code":"608","address1":"Omalur","address2":"","latitude":"10.7208","longitude":"78.0791","accuracy":"3"}],"636456":[{"address3":"Salem Camp","state":"Tamil Nadu","state_code":"25","district":"Salem","district_code":"608","address1":"Mettur","address2":"","latitude":"11.4168","longitude":"78.021","accuracy":"1"}],"636457":[{"address3":"Vanavasi","state":"Tamil Nadu","state_code":"25","district":"Salem","district_code":"608","address1":"Mettur","address2":"","latitude":"11.75","longitude":"77.8801","accuracy":"4"},{"address3":"Periavanavasi","state":"Tamil Nadu","state_code":"25","district":"Salem","district_code":"608","address1":"Mettur","address2":"","latitude":"11.75","longitude":"77.8801","accuracy":"3"},{"address3":"Sanarapatti","state":"Tamil Nadu","state_code":"25","district":"Salem","district_code":"608","address1":"Mettur","address2":"","latitude":"11.75","longitude":"77.8801","accuracy":"3"}],"636458":[{"address3":"Nariyanur","state":"Tamil Nadu","state_code":"25","district":"Salem","district_code":"608","address1":"Mettur","address2":"","latitude":"11.8082","longitude":"77.9041","accuracy":"4"},{"address3":"Koonandiyur","state":"Tamil Nadu","state_code":"25","district":"Salem","district_code":"608","address1":"Mettur","address2":"","latitude":"11.8082","longitude":"77.9041","accuracy":"3"},{"address3":"Mallikundam","state":"Tamil Nadu","state_code":"25","district":"Salem","district_code":"608","address1":"Mettur","address2":"","latitude":"11.8082","longitude":"77.9041","accuracy":"3"},{"address3":"M.Pallipatti","state":"Tamil Nadu","state_code":"25","district":"Salem","district_code":"608","address1":"Mettur","address2":"","latitude":"11.8082","longitude":"77.9041","accuracy":"3"}],"636501":[{"address3":"Adaiyur","state":"Tamil Nadu","state_code":"25","district":"Salem","district_code":"608","address1":"Mettur","address2":"","latitude":"11.6923","longitude":"77.8398","accuracy":"4"},{"address3":"Doramangalam","state":"Tamil Nadu","state_code":"25","district":"Salem","district_code":"608","address1":"Mettur","address2":"","latitude":"11.6962","longitude":"77.8737","accuracy":"3"},{"address3":"Savariyur","state":"Tamil Nadu","state_code":"25","district":"Salem","district_code":"608","address1":"Mettur","address2":"","latitude":"11.6893","longitude":"77.8628","accuracy":"4"},{"address3":"Ramireddipatti","state":"Tamil Nadu","state_code":"25","district":"Salem","district_code":"608","address1":"Mettur","address2":"","latitude":"11.6962","longitude":"77.8737","accuracy":"3"},{"address3":"Ilavampatti","state":"Tamil Nadu","state_code":"25","district":"Salem","district_code":"608","address1":"Mettur","address2":"","latitude":"11.6836","longitude":"77.9285","accuracy":"4"},{"address3":"Surapalli","state":"Tamil Nadu","state_code":"25","district":"Salem","district_code":"608","address1":"Mettur","address2":"","latitude":"11.6962","longitude":"77.8737","accuracy":"3"},{"address3":"Selavadai","state":"Tamil Nadu","state_code":"25","district":"Salem","district_code":"608","address1":"Mettur","address2":"","latitude":"11.6997","longitude":"77.9195","accuracy":"4"},{"address3":"Kuppampatti","state":"Tamil Nadu","state_code":"25","district":"Salem","district_code":"608","address1":"Mettur","address2":"","latitude":"11.7099","longitude":"77.8712","accuracy":"4"},{"address3":"Jalakantapuram","state":"Tamil Nadu","state_code":"25","district":"Salem","district_code":"608","address1":"Mettur","address2":"","latitude":"11.6978","longitude":"77.873","accuracy":"4"},{"address3":"Pakkanadu","state":"Tamil Nadu","state_code":"25","district":"Salem","district_code":"608","address1":"Mettur","address2":"","latitude":"11.701","longitude":"77.8211","accuracy":"4"}],"636502":[{"address3":"Arurpatti","state":"Tamil Nadu","state_code":"25","district":"Salem","district_code":"608","address1":"Omalur","address2":"","latitude":"11.7115","longitude":"77.9456","accuracy":"4"},{"address3":"Tharamangalam","state":"Tamil Nadu","state_code":"25","district":"Salem","district_code":"608","address1":"Salem","address2":"","latitude":"11.7115","longitude":"77.9456","accuracy":"3"},{"address3":"Periasoragai","state":"Tamil Nadu","state_code":"25","district":"Salem","district_code":"608","address1":"Omalur","address2":"","latitude":"11.7115","longitude":"77.9456","accuracy":"3"},{"address3":"T.Konagapadi","state":"Tamil Nadu","state_code":"25","district":"Salem","district_code":"608","address1":"Omalur","address2":"","latitude":"11.7115","longitude":"77.9456","accuracy":"3"},{"address3":"Periakadampatti","state":"Tamil Nadu","state_code":"25","district":"Salem","district_code":"608","address1":"Salem","address2":"","latitude":"11.7115","longitude":"77.9456","accuracy":"3"},{"address3":"Pavalathanur","state":"Tamil Nadu","state_code":"25","district":"Salem","district_code":"608","address1":"Salem","address2":"","latitude":"11.7115","longitude":"77.9456","accuracy":"3"},{"address3":"Chinnasoragai","state":"Tamil Nadu","state_code":"25","district":"Salem","district_code":"608","address1":"Omalur","address2":"","latitude":"11.7115","longitude":"77.9456","accuracy":"3"}],"636503":[{"address3":"Mallikuttai","state":"Tamil Nadu","state_code":"25","district":"Salem","district_code":"608","address1":"Omalur","address2":"","latitude":"11.6741","longitude":"78.2221","accuracy":"4"},{"address3":"Tholasampatti","state":"Tamil Nadu","state_code":"25","district":"Salem","district_code":"608","address1":"Omalur","address2":"","latitude":"12.069","longitude":"78.1032","accuracy":"3"},{"address3":"Maramangalam","state":"Tamil Nadu","state_code":"25","district":"Salem","district_code":"608","address1":"Omalur","address2":"","latitude":"11.7524","longitude":"77.9759","accuracy":"4"},{"address3":"Manathal","state":"Tamil Nadu","state_code":"25","district":"Salem","district_code":"608","address1":"Omalur","address2":"","latitude":"12.069","longitude":"78.1032","accuracy":"3"},{"address3":"Muthampatti","state":"Tamil Nadu","state_code":"25","district":"Salem","district_code":"608","address1":"Salem","address2":"","latitude":"11.6741","longitude":"78.2221","accuracy":"4"},{"address3":"Periyeripatti","state":"Tamil Nadu","state_code":"25","district":"Salem","district_code":"608","address1":"Omalur","address2":"","latitude":"12.069","longitude":"78.1032","accuracy":"3"},{"address3":"Manathal Nallagoundampatti","state":"Tamil Nadu","state_code":"25","district":"Salem","district_code":"608","address1":"Omalur","address2":"","latitude":"12.069","longitude":"78.1032","accuracy":"3"},{"address3":"Amaragundhi","state":"Tamil Nadu","state_code":"25","district":"Salem","district_code":"608","address1":"Omalur","address2":"","latitude":"12.069","longitude":"78.1032","accuracy":"3"}],"636601":[{"address3":"Puthur","state":"Tamil Nadu","state_code":"25","district":"Salem","district_code":"608","address1":"Yercaud","address2":"","latitude":"11.6741","longitude":"78.2221","accuracy":"4"},{"address3":"Velur","state":"Tamil Nadu","state_code":"25","district":"Salem","district_code":"608","address1":"Yercaud","address2":"","latitude":"11.8167","longitude":"78.1799","accuracy":"4"},{"address3":"Yercaud","state":"Tamil Nadu","state_code":"25","district":"Salem","district_code":"608","address1":"Yercaud","address2":"","latitude":"11.776","longitude":"78.2093","accuracy":"4"},{"address3":"Palakadu","state":"Tamil Nadu","state_code":"25","district":"Salem","district_code":"608","address1":"Yercaud","address2":"","latitude":"11.6741","longitude":"78.2221","accuracy":"4"},{"address3":"Sengadu","state":"Tamil Nadu","state_code":"25","district":"Salem","district_code":"608","address1":"Yercaud","address2":"","latitude":"11.7818","longitude":"78.2298","accuracy":"4"},{"address3":"Maramangalam","state":"Tamil Nadu","state_code":"25","district":"Salem","district_code":"608","address1":"Yercaud","address2":"","latitude":"11.8372","longitude":"78.3038","accuracy":"4"},{"address3":"Kottaichedu","state":"Tamil Nadu","state_code":"25","district":"Salem","district_code":"608","address1":"Yercaud","address2":"","latitude":"11.9338","longitude":"78.5031","accuracy":"3"},{"address3":"Kombuthooki","state":"Tamil Nadu","state_code":"25","district":"Salem","district_code":"608","address1":"Yercaud","address2":"","latitude":"11.9338","longitude":"78.5031","accuracy":"3"},{"address3":"Thalaisolai","state":"Tamil Nadu","state_code":"25","district":"Salem","district_code":"608","address1":"Yercaud","address2":"","latitude":"11.9338","longitude":"78.5031","accuracy":"3"},{"address3":"Vazhavandhi","state":"Tamil Nadu","state_code":"25","district":"Salem","district_code":"608","address1":"Yercaud","address2":"","latitude":"11.9338","longitude":"78.5031","accuracy":"3"},{"address3":"Pattipadi","state":"Tamil Nadu","state_code":"25","district":"Salem","district_code":"608","address1":"Yercaud","address2":"","latitude":"11.9338","longitude":"78.5031","accuracy":"3"},{"address3":"Keeraikadu","state":"Tamil Nadu","state_code":"25","district":"Salem","district_code":"608","address1":"Yercaud","address2":"","latitude":"11.9338","longitude":"78.5031","accuracy":"3"}],"636602":[{"address3":"Nagalur","state":"Tamil Nadu","state_code":"25","district":"Salem","district_code":"608","address1":"Yercaud","address2":"","latitude":"11.84","longitude":"78.2099","accuracy":"4"},{"address3":"Asambur","state":"Tamil Nadu","state_code":"25","district":"Salem","district_code":"608","address1":"Yercaud","address2":"","latitude":"11.8053","longitude":"78.2224","accuracy":"4"},{"address3":"Karadiyur","state":"Tamil Nadu","state_code":"25","district":"Salem","district_code":"608","address1":"Yercaud","address2":"","latitude":"11.8474","longitude":"78.1951","accuracy":"4"},{"address3":"Manjakuttai","state":"Tamil Nadu","state_code":"25","district":"Salem","district_code":"608","address1":"Yercaud","address2":"","latitude":"11.8309","longitude":"78.2091","accuracy":"3"},{"address3":"Cauvery Peak","state":"Tamil Nadu","state_code":"25","district":"Salem","district_code":"608","address1":"Yercaud","address2":"","latitude":"11.8309","longitude":"78.2091","accuracy":"3"},{"address3":"Semmanatham","state":"Tamil Nadu","state_code":"25","district":"Salem","district_code":"608","address1":"Yercaud","address2":"","latitude":"11.8309","longitude":"78.2091","accuracy":"3"},{"address3":"Muluvi","state":"Tamil Nadu","state_code":"25","district":"Salem","district_code":"608","address1":"Yercaud","address2":"","latitude":"11.8309","longitude":"78.2091","accuracy":"3"},{"address3":"Ondikadai","state":"Tamil Nadu","state_code":"25","district":"Salem","district_code":"608","address1":"Yercaud","address2":"","latitude":"11.8309","longitude":"78.2091","accuracy":"3"},{"address3":"Piliyur","state":"Tamil Nadu","state_code":"25","district":"Salem","district_code":"608","address1":"Yercaud","address2":"","latitude":"11.8309","longitude":"78.2091","accuracy":"3"},{"address3":"Vellakadai","state":"Tamil Nadu","state_code":"25","district":"Salem","district_code":"608","address1":"Yercaud","address2":"","latitude":"11.8309","longitude":"78.2091","accuracy":"3"}],"636701":[{"address3":"Hale Dharmapuri","state":"Tamil Nadu","state_code":"25","district":"Dharmapuri","district_code":"630","address1":"Dharmapuri","address2":"","latitude":"12.1588","longitude":"78.1636","accuracy":"4"},{"address3":"Komarasamipatti","state":"Tamil Nadu","state_code":"25","district":"Dharmapuri","district_code":"630","address1":"Dharmapuri","address2":"","latitude":"12.1588","longitude":"78.1636","accuracy":"3"},{"address3":"Mathikonpalayam","state":"Tamil Nadu","state_code":"25","district":"Dharmapuri","district_code":"630","address1":"Dharmapuri","address2":"","latitude":"12.1588","longitude":"78.1636","accuracy":"3"},{"address3":"Dharmapuri South","state":"Tamil Nadu","state_code":"25","district":"Dharmapuri","district_code":"630","address1":"Dharmapuri","address2":"","latitude":"12.1588","longitude":"78.1636","accuracy":"3"},{"address3":"Dharmapuri R.S","state":"Tamil Nadu","state_code":"25","district":"Dharmapuri","district_code":"630","address1":"Dharmapuri","address2":"","latitude":"12.1588","longitude":"78.1636","accuracy":"3"},{"address3":"Dharmapuri Public Offices","state":"Tamil Nadu","state_code":"25","district":"Dharmapuri","district_code":"630","address1":"Dharmapuri","address2":"","latitude":"12.1588","longitude":"78.1636","accuracy":"3"},{"address3":"Dharmapuri H.O","state":"Tamil Nadu","state_code":"25","district":"Dharmapuri","district_code":"630","address1":"Dharmapuri","address2":"","latitude":"12.1588","longitude":"78.1636","accuracy":"3"},{"address3":"Dharmapuri Fort","state":"Tamil Nadu","state_code":"25","district":"Dharmapuri","district_code":"630","address1":"Dharmapuri","address2":"","latitude":"12.1588","longitude":"78.1636","accuracy":"3"}],"636704":[{"address3":"Kuppur","state":"Tamil Nadu","state_code":"25","district":"Dharmapuri","district_code":"630","address1":"Dharmapuri","address2":"","latitude":"12.1655","longitude":"78.2047","accuracy":"4"},{"address3":"Solaikottai","state":"Tamil Nadu","state_code":"25","district":"Dharmapuri","district_code":"630","address1":"Dharmapuri","address2":"","latitude":"12.14","longitude":"78.1849","accuracy":"3"},{"address3":"Settikarai","state":"Tamil Nadu","state_code":"25","district":"Dharmapuri","district_code":"630","address1":"Dharmapuri","address2":"","latitude":"12.1373","longitude":"78.1869","accuracy":"4"},{"address3":"Akkamanahalli","state":"Tamil Nadu","state_code":"25","district":"Dharmapuri","district_code":"630","address1":"Dharmapuri","address2":"","latitude":"12.14","longitude":"78.1849","accuracy":"3"},{"address3":"Annasagaram","state":"Tamil Nadu","state_code":"25","district":"Dharmapuri","district_code":"630","address1":"Dharmapuri","address2":"","latitude":"12.1173","longitude":"78.163","accuracy":"4"},{"address3":"Mittanoolahalli","state":"Tamil Nadu","state_code":"25","district":"Dharmapuri","district_code":"630","address1":"Dharmapuri","address2":"","latitude":"12.14","longitude":"78.1849","accuracy":"3"},{"address3":"A.Gollahalli","state":"Tamil Nadu","state_code":"25","district":"Dharmapuri","district_code":"630","address1":"Dharmapuri","address2":"","latitude":"12.14","longitude":"78.1849","accuracy":"3"}],"636705":[{"address3":"Vennampatti","state":"Tamil Nadu","state_code":"25","district":"Dharmapuri","district_code":"630","address1":"Dharmapuri","address2":"","latitude":"12.0969","longitude":"78.1958","accuracy":"4"},{"address3":"Dharmapuri Collectorate","state":"Tamil Nadu","state_code":"25","district":"Dharmapuri","district_code":"630","address1":"Dharmapuri","address2":"","latitude":"10.6847","longitude":"78.8305","accuracy":"3"},{"address3":"Ungaranahalli","state":"Tamil Nadu","state_code":"25","district":"Dharmapuri","district_code":"630","address1":"Dharmapuri","address2":"","latitude":"10.6847","longitude":"78.8305","accuracy":"3"},{"address3":"Venkatenahalli","state":"Tamil Nadu","state_code":"25","district":"Dharmapuri","district_code":"630","address1":"Dharmapuri","address2":"","latitude":"10.6847","longitude":"78.8305","accuracy":"3"},{"address3":"Thokkampatti","state":"Tamil Nadu","state_code":"25","district":"Dharmapuri","district_code":"630","address1":"Dharmapuri","address2":"","latitude":"10.6847","longitude":"78.8305","accuracy":"3"}],"636803":[{"address3":"Makkanur","state":"Tamil Nadu","state_code":"25","district":"Dharmapuri","district_code":"630","address1":"Dharmapuri","address2":"","latitude":"12.0969","longitude":"78.1958","accuracy":"4"},{"address3":"Somenahalli","state":"Tamil Nadu","state_code":"25","district":"Dharmapuri","district_code":"630","address1":"Pennagaram","address2":"","latitude":"12.0974","longitude":"77.9209","accuracy":"4"},{"address3":"Nettadahalli","state":"Tamil Nadu","state_code":"25","district":"Dharmapuri","district_code":"630","address1":"Dharmapuri","address2":"","latitude":"12.133","longitude":"78.0671","accuracy":"4"},{"address3":"Pungunatham","state":"Tamil Nadu","state_code":"25","district":"Dharmapuri","district_code":"630","address1":"Pennagaram","address2":"","latitude":"12.0142","longitude":"77.9834","accuracy":"3"},{"address3":"Indur","state":"Tamil Nadu","state_code":"25","district":"Dharmapuri","district_code":"630","address1":"Palacode","address2":"","latitude":"12.1324","longitude":"78.0562","accuracy":"4"},{"address3":"Dalavaihalli","state":"Tamil Nadu","state_code":"25","district":"Dharmapuri","district_code":"630","address1":"Pennagaram","address2":"","latitude":"12.0142","longitude":"77.9834","accuracy":"3"},