{"688001":[{"address3":"Alappuzha Collectorate","state":"Kerala","state_code":"13","district":"Alappuzha","district_code":"598","address1":"Ambalapuzha","address2":"","latitude":"9.4333","longitude":"76.35","accuracy":"1"},{"address3":"Alappuzha H.O","state":"Kerala","state_code":"13","district":"Alappuzha","district_code":"598","address1":"Ambalapuzha","address2":"","latitude":"9.4333","longitude":"76.35","accuracy":"1"}],"688002":[{"address3":"Vattayal Ward","state":"Kerala","state_code":"13","district":"Alappuzha","district_code":"598","address1":"Ambalapuzha","address2":"","latitude":"9.4333","longitude":"76.35","accuracy":"1"},{"address3":"Thiruvampady Junction","state":"Kerala","state_code":"13","district":"Alappuzha","district_code":"598","address1":"Ambalapuha","address2":"","latitude":"9.4333","longitude":"76.35","accuracy":"1"}],"688003":[{"address3":"Vadackal","state":"Kerala","state_code":"13","district":"Alappuzha","district_code":"598","address1":"Ambalapuzha","address2":"","latitude":"9.4333","longitude":"76.35","accuracy":"1"},{"address3":"Sanathanapuram","state":"Kerala","state_code":"13","district":"Alappuzha","district_code":"598","address1":"Ambalapuzha","address2":"","latitude":"9.4333","longitude":"76.35","accuracy":"1"}],"688004":[{"address3":"Punnapra","state":"Kerala","state_code":"13","district":"Alappuzha","district_code":"598","address1":"Ambalapuzha","address2":"","latitude":"9.4333","longitude":"76.35","accuracy":"4"}],"688005":[{"address3":"Kanjipadom","state":"Kerala","state_code":"13","district":"Alappuzha","district_code":"598","address1":"Ambalappuzha","address2":"","latitude":"9.4333","longitude":"76.35","accuracy":"1"},{"address3":"Vysombhagom","state":"Kerala","state_code":"13","district":"Alappuzha","district_code":"598","address1":"Kuttanad","address2":"","latitude":"9.4333","longitude":"76.35","accuracy":"1"},{"address3":"Kakkazhom","state":"Kerala","state_code":"13","district":"Alappuzha","district_code":"598","address1":"Ambalappuzha","address2":"","latitude":"9.4333","longitude":"76.35","accuracy":"1"},{"address3":"Alappuzha Medical College","state":"Kerala","state_code":"13","district":"Alappuzha","district_code":"598","address1":"Ambalappuzha","address2":"","latitude":"9.4333","longitude":"76.35","accuracy":"1"}],"688006":[{"address3":"Komalapuram","state":"Kerala","state_code":"13","district":"Alappuzha","district_code":"598","address1":"Ambalapuzha","address2":"","latitude":"9.4333","longitude":"76.35","accuracy":"1"},{"address3":"Vembanad Kayal","state":"Kerala","state_code":"13","district":"Alappuzha","district_code":"598","address1":"Ambalapuzha","address2":"","latitude":"9.4333","longitude":"76.35","accuracy":"1"},{"address3":"Kottankulangara","state":"Kerala","state_code":"13","district":"Alappuzha","district_code":"598","address1":"Ambalappuzha","address2":"","latitude":"9.4333","longitude":"76.35","accuracy":"1"},{"address3":"Avalukkunnu","state":"Kerala","state_code":"13","district":"Alappuzha","district_code":"598","address1":"Ambalapuzha","address2":"","latitude":"9.4333","longitude":"76.35","accuracy":"1"}],"688007":[{"address3":"Alappuzha North","state":"Kerala","state_code":"13","district":"Alappuzha","district_code":"598","address1":"Ambalapuzh A","address2":"","latitude":"9.4333","longitude":"76.35","accuracy":"1"},{"address3":"Kanjiramchira","state":"Kerala","state_code":"13","district":"Alappuzha","district_code":"598","address1":"Ambalappuzha","address2":"","latitude":"9.4333","longitude":"76.35","accuracy":"1"},{"address3":"Kommady Ward","state":"Kerala","state_code":"13","district":"Alappuzha","district_code":"598","address1":"Ambalappuzha","address2":"","latitude":"9.4333","longitude":"76.35","accuracy":"1"}],"688008":[{"address3":"Thumpoly","state":"Kerala","state_code":"13","district":"Alappuzha","district_code":"598","address1":"Ambalapuzha","address2":"","latitude":"9.4333","longitude":"76.35","accuracy":"1"}],"688009":[{"address3":"Pandarakulam","state":"Kerala","state_code":"13","district":"Alappuzha","district_code":"598","address1":"Ambalapuzha","address2":"","latitude":"9.4333","longitude":"76.35","accuracy":"1"},{"address3":"Pazhaveedu","state":"Kerala","state_code":"13","district":"Alappuzha","district_code":"598","address1":"Ambalapuzha","address2":"","latitude":"9.4333","longitude":"76.35","accuracy":"1"}],"688011":[{"address3":"Alappuzha Mullackal","state":"Kerala","state_code":"13","district":"Alappuzha","district_code":"598","address1":"Ambalappuzha","address2":"","latitude":"9.5046","longitude":"76.3477","accuracy":"1"},{"address3":"Kuppappuram","state":"Kerala","state_code":"13","district":"Alappuzha","district_code":"598","address1":"Ambalapuzha","address2":"","latitude":"9.5046","longitude":"76.3477","accuracy":"1"},{"address3":"Alappuzha Iron Bridge","state":"Kerala","state_code":"13","district":"Alappuzha","district_code":"598","address1":"Ambalapuzha","address2":"","latitude":"9.5046","longitude":"76.3477","accuracy":"1"},{"address3":"Chungom","state":"Kerala","state_code":"13","district":"Alappuzha","district_code":"598","address1":"Ambalappuzha","address2":"","latitude":"9.5046","longitude":"76.3477","accuracy":"1"},{"address3":"Alappuzha District Hospital","state":"Kerala","state_code":"13","district":"Alappuzha","district_code":"598","address1":"Ambalapuzha","address2":"","latitude":"9.5046","longitude":"76.3477","accuracy":"1"}],"688012":[{"address3":"Alappuzha Bazar","state":"Kerala","state_code":"13","district":"Alappuzha","district_code":"598","address1":"Ambalapuzha","address2":"","latitude":"9.5046","longitude":"76.3477","accuracy":"1"}],"688013":[{"address3":"Thathampally","state":"Kerala","state_code":"13","district":"Alappuzha","district_code":"598","address1":"Ambalappuzha","address2":"","latitude":"9.5046","longitude":"76.3477","accuracy":"4"},{"address3":"Thondankulangara","state":"Kerala","state_code":"13","district":"Alappuzha","district_code":"598","address1":"Ambalappuzha","address2":"","latitude":"9.5046","longitude":"76.3477","accuracy":"3"}],"688014":[{"address3":"Punnapra North","state":"Kerala","state_code":"13","district":"Alappuzha","district_code":"598","address1":"Ambalapuzha","address2":"","latitude":"9.5046","longitude":"76.3477","accuracy":"1"}],"688501":[{"address3":"Thottuvathala","state":"Kerala","state_code":"13","district":"Alappuzha","district_code":"598","address1":"Kuttanad","address2":"","latitude":"9.466","longitude":"76.4352","accuracy":"1"},{"address3":"Kainakary East","state":"Kerala","state_code":"13","district":"Alappuzha","district_code":"598","address1":"Kuttanad","address2":"","latitude":"9.466","longitude":"76.4352","accuracy":"1"},{"address3":"Chennamkary","state":"Kerala","state_code":"13","district":"Alappuzha","district_code":"598","address1":"Kuttanad","address2":"","latitude":"9.466","longitude":"76.4352","accuracy":"1"},{"address3":"Kainakary","state":"Kerala","state_code":"13","district":"Alappuzha","district_code":"598","address1":"Kuttanad","address2":"","latitude":"9.466","longitude":"76.4352","accuracy":"1"},{"address3":"Kuttamangalam","state":"Kerala","state_code":"13","district":"Alappuzha","district_code":"598","address1":"Kuttanad","address2":"","latitude":"9.466","longitude":"76.4352","accuracy":"1"}],"688502":[{"address3":"Moncombu","state":"Kerala","state_code":"13","district":"Alappuzha","district_code":"598","address1":"Kuttanad","address2":"","latitude":"9.4502","longitude":"76.4129","accuracy":"3"},{"address3":"Chathurthiakary","state":"Kerala","state_code":"13","district":"Alappuzha","district_code":"598","address1":"Kuttanad","address2":"","latitude":"9.4502","longitude":"76.4129","accuracy":"4"}],"688503":[{"address3":"Nedumudy","state":"Kerala","state_code":"13","district":"Alappuzha","district_code":"598","address1":"Kuttanad","address2":"","latitude":"9.466","longitude":"76.4352","accuracy":"1"},{"address3":"Ponga","state":"Kerala","state_code":"13","district":"Alappuzha","district_code":"598","address1":"Kuttanad","address2":"","latitude":"9.466","longitude":"76.4352","accuracy":"1"},{"address3":"Moncombu Thekkekara","state":"Kerala","state_code":"13","district":"Alappuzha","district_code":"598","address1":"Kuttanad","address2":"","latitude":"9.466","longitude":"76.4352","accuracy":"1"}],"688504":[{"address3":"Punnakunnathussery South","state":"Kerala","state_code":"13","district":"Alappuzha","district_code":"598","address1":"Kuttanad","address2":"","latitude":"9.466","longitude":"76.4352","accuracy":"1"},{"address3":"Kayalpuram","state":"Kerala","state_code":"13","district":"Alappuzha","district_code":"598","address1":"Kuttanad","address2":"","latitude":"9.466","longitude":"76.4352","accuracy":"1"},{"address3":"Punnakunnathussery","state":"Kerala","state_code":"13","district":"Alappuzha","district_code":"598","address1":"Kuttanad","address2":"","latitude":"9.466","longitude":"76.4352","accuracy":"1"},{"address3":"Kannady","state":"Kerala","state_code":"13","district":"Alappuzha","district_code":"598","address1":"Kuttanad","address2":"","latitude":"9.466","longitude":"76.4352","accuracy":"1"},{"address3":"Pulincunnu","state":"Kerala","state_code":"13","district":"Alappuzha","district_code":"598","address1":"Kuttanad","address2":"","latitude":"9.466","longitude":"76.4352","accuracy":"1"},{"address3":"Kannady West","state":"Kerala","state_code":"13","district":"Alappuzha","district_code":"598","address1":"Kuttanad","address2":"","latitude":"9.466","longitude":"76.4352","accuracy":"1"}],"688505":[{"address3":"Pullangadi","state":"Kerala","state_code":"13","district":"Alappuzha","district_code":"598","address1":"Kuttanad","address2":"","latitude":"9.466","longitude":"76.4352","accuracy":"1"},{"address3":"Champakulam","state":"Kerala","state_code":"13","district":"Alappuzha","district_code":"598","address1":"Kuttanad","address2":"","latitude":"9.466","longitude":"76.4352","accuracy":"1"},{"address3":"Champakulam East","state":"Kerala","state_code":"13","district":"Alappuzha","district_code":"598","address1":"Kuttanad","address2":"","latitude":"9.466","longitude":"76.4352","accuracy":"1"},{"address3":"Chempumpuram","state":"Kerala","state_code":"13","district":"Alappuzha","district_code":"598","address1":"Kuttanad","address2":"","latitude":"9.466","longitude":"76.4352","accuracy":"1"}],"688506":[{"address3":"Kavalam","state":"Kerala","state_code":"13","district":"Alappuzha","district_code":"598","address1":"Kuttanad","address2":"","latitude":"9.4819","longitude":"76.4574","accuracy":"4"},{"address3":"Chennamkary East","state":"Kerala","state_code":"13","district":"Alappuzha","district_code":"598","address1":"Kuttanad","address2":"","latitude":"9.4819","longitude":"76.4574","accuracy":"3"},{"address3":"Kavalam North","state":"Kerala","state_code":"13","district":"Alappuzha","district_code":"598","address1":"Kuttanad","address2":"","latitude":"9.4819","longitude":"76.4574","accuracy":"3"},{"address3":"Narakathara","state":"Kerala","state_code":"13","district":"Alappuzha","district_code":"598","address1":"Kuttanad","address2":"","latitude":"9.4819","longitude":"76.4574","accuracy":"3"},{"address3":"Cherukara Kuttanad","state":"Kerala","state_code":"13","district":"Alappuzha","district_code":"598","address1":"Kuttanad","address2":"","latitude":"9.4819","longitude":"76.4574","accuracy":"3"}],"688521":[{"address3":"Pathirappally","state":"Kerala","state_code":"13","district":"Alappuzha","district_code":"598","address1":"Ambalapuzha","address2":"","latitude":"10.1954","longitude":"76.1692","accuracy":"1"}],"688522":[{"address3":"Kattor Kalavoor BO","state":"Kerala","state_code":"13","district":"Alappuzha","district_code":"598","address1":"Ambalapuzha","address2":"","latitude":"9.5705","longitude":"76.3276","accuracy":"3"},{"address3":"Pollethai","state":"Kerala","state_code":"13","district":"Alappuzha","district_code":"598","address1":"Ambalappuzha","address2":"","latitude":"9.5705","longitude":"76.3276","accuracy":"3"},{"address3":"Kalavoor","state":"Kerala","state_code":"13","district":"Alappuzha","district_code":"598","address1":"Ambalapuzha","address2":"","latitude":"9.5705","longitude":"76.3276","accuracy":"4"}],"688523":[{"address3":"Mararikulam North BO","state":"Kerala","state_code":"13","district":"Alappuzha","district_code":"598","address1":"Cherthala","address2":"","latitude":"10.1954","longitude":"76.1692","accuracy":"1"},{"address3":"Sethulekshmipuram","state":"Kerala","state_code":"13","district":"Alappuzha","district_code":"598","address1":"Cherthala","address2":"","latitude":"10.1954","longitude":"76.1692","accuracy":"1"}],"688524":[{"address3":"Cherthala H.O","state":"Kerala","state_code":"13","district":"Alappuzha","district_code":"598","address1":"Cherthala","address2":"","latitude":"10.1954","longitude":"76.1692","accuracy":"1"},{"address3":"Cherthala Cutcherry","state":"Kerala","state_code":"13","district":"Alappuzha","district_code":"598","address1":"Cherthala","address2":"","latitude":"10.1954","longitude":"76.1692","accuracy":"1"}],"688525":[{"address3":"Muhamma","state":"Kerala","state_code":"13","district":"Alappuzha","district_code":"598","address1":"Cherthala","address2":"","latitude":"10.1954","longitude":"76.1692","accuracy":"1"}],"688526":[{"address3":"Manappuram BO","state":"Kerala","state_code":"13","district":"Alappuzha","district_code":"598","address1":"Cherthala","address2":"","latitude":"10.1954","longitude":"76.1692","accuracy":"1"},{"address3":"Naduvathunagar","state":"Kerala","state_code":"13","district":"Alappuzha","district_code":"598","address1":"Cherthala","address2":"","latitude":"10.1954","longitude":"76.1692","accuracy":"1"},{"address3":"Trichattukulam","state":"Kerala","state_code":"13","district":"Alappuzha","district_code":"598","address1":"Cherthala","address2":"","latitude":"10.1954","longitude":"76.1692","accuracy":"1"},{"address3":"Olavaipu","state":"Kerala","state_code":"13","district":"Alappuzha","district_code":"598","address1":"Cherthala","address2":"","latitude":"10.1954","longitude":"76.1692","accuracy":"1"},{"address3":"Poochackal","state":"Kerala","state_code":"13","district":"Alappuzha","district_code":"598","address1":"Cherthala","address2":"","latitude":"10.1954","longitude":"76.1692","accuracy":"1"},{"address3":"Panavally","state":"Kerala","state_code":"13","district":"Alappuzha","district_code":"598","address1":"Cherthala","address2":"","latitude":"10.1954","longitude":"76.1692","accuracy":"1"}],"688527":[{"address3":"Thanneermukkom","state":"Kerala","state_code":"13","district":"Alappuzha","district_code":"598","address1":"Cherthala","address2":"","latitude":"9.6634","longitude":"76.3807","accuracy":"4"},{"address3":"Kannankara","state":"Kerala","state_code":"13","district":"Alappuzha","district_code":"598","address1":"Cherthala","address2":"","latitude":"9.4236","longitude":"76.4496","accuracy":"4"},{"address3":"Muttathiparambu","state":"Kerala","state_code":"13","district":"Alappuzha","district_code":"598","address1":"Cherthala","address2":"","latitude":"10.5079","longitude":"76.0901","accuracy":"3"},{"address3":"Kokkothamangalam","state":"Kerala","state_code":"13","district":"Alappuzha","district_code":"598","address1":"Cherthala","address2":"","latitude":"10.5079","longitude":"76.0901","accuracy":"3"},{"address3":"Karikkad BO","state":"Kerala","state_code":"13","district":"Alappuzha","district_code":"598","address1":"Cherthala","address2":"","latitude":"10.5079","longitude":"76.0901","accuracy":"3"}],"688528":[{"address3":"Thycattussery","state":"Kerala","state_code":"13","district":"Alappuzha","district_code":"598","address1":"Cherthala","address2":"","latitude":"10.1954","longitude":"76.1692","accuracy":"1"}],"688529":[{"address3":"Vettackal","state":"Kerala","state_code":"13","district":"Alappuzha","district_code":"598","address1":"Cherthala","address2":"","latitude":"10.1954","longitude":"76.1692","accuracy":"1"},{"address3":"Kadakkarapally","state":"Kerala","state_code":"13","district":"Alappuzha","district_code":"598","address1":"Cherthala","address2":"","latitude":"10.1954","longitude":"76.1692","accuracy":"1"}],"688530":[{"address3":"Arthingal","state":"Kerala","state_code":"13","district":"Alappuzha","district_code":"598","address1":"Cherthala","address2":"","latitude":"9.7869","longitude":"76.3235","accuracy":"1"},{"address3":"Thaickal","state":"Kerala","state_code":"13","district":"Alappuzha","district_code":"598","address1":"Cherthala","address2":"","latitude":"9.7869","longitude":"76.3235","accuracy":"1"},{"address3":"Chethy GDB.O","state":"Kerala","state_code":"13","district":"Alappuzha","district_code":"598","address1":"Cherthala","address2":"","latitude":"9.7869","longitude":"76.3235","accuracy":"1"}],"688531":[{"address3":"Pattanacaud","state":"Kerala","state_code":"13","district":"Alappuzha","district_code":"598","address1":"Cherthala","address2":"","latitude":"9.7869","longitude":"76.3235","accuracy":"1"},{"address3":"Andhakaranazhy","state":"Kerala","state_code":"13","district":"Alappuzha","district_code":"598","address1":"Cherthala","address2":"","latitude":"9.7869","longitude":"76.3235","accuracy":"1"}],"688532":[{"address3":"Thuravoor","state":"Kerala","state_code":"13","district":"Alappuzha","district_code":"598","address1":"Cherthala","address2":"","latitude":"9.7667","longitude":"76.3167","accuracy":"4"},{"address3":"Valamangalam","state":"Kerala","state_code":"13","district":"Alappuzha","district_code":"598","address1":"Cherthala","address2":"","latitude":"9.7667","longitude":"76.3167","accuracy":"3"},{"address3":"Thuravoor South","state":"Kerala","state_code":"13","district":"Alappuzha","district_code":"598","address1":"Cherthala","address2":"","latitude":"9.7667","longitude":"76.3167","accuracy":"3"}],"688533":[{"address3":"Kuthiathode","state":"Kerala","state_code":"13","district":"Alappuzha","district_code":"598","address1":"Cherthala","address2":"","latitude":"9.8","longitude":"76.3333","accuracy":"4"}],"688534":[{"address3":"Aroor","state":"Kerala","state_code":"13","district":"Alappuzha","district_code":"598","address1":"Cherthla","address2":"","latitude":"9.8694","longitude":"76.305","accuracy":"4"}],"688535":[{"address3":"Arookutty","state":"Kerala","state_code":"13","district":"Alappuzha","district_code":"598","address1":"Cherthala","address2":"","latitude":"9.7869","longitude":"76.3235","accuracy":"1"},{"address3":"Vaduthala Jetty","state":"Kerala","state_code":"13","district":"Alappuzha","district_code":"598","address1":"Cherthala","address2":"","latitude":"9.7869","longitude":"76.3235","accuracy":"1"}],"688536":[{"address3":"Vayalar","state":"Kerala","state_code":"13","district":"Alappuzha","district_code":"598","address1":"Cherthala","address2":"","latitude":"9.7116","longitude":"76.3389","accuracy":"4"},{"address3":"Kalavamkodam","state":"Kerala","state_code":"13","district":"Alappuzha","district_code":"598","address1":"Cherthala","address2":"","latitude":"9.7116","longitude":"76.3389","accuracy":"3"}],"688537":[{"address3":"Eramallur","state":"Kerala","state_code":"13","district":"Alappuzha","district_code":"598","address1":"Cherthala","address2":"","latitude":"9.7869","longitude":"76.3235","accuracy":"1"},{"address3":"Chandiroor BO","state":"Kerala","state_code":"13","district":"Alappuzha","district_code":"598","address1":"Cherthala","address2":"","latitude":"9.7869","longitude":"76.3235","accuracy":"1"},{"address3":"Ezhupunna South BO","state":"Kerala","state_code":"13","district":"Alappuzha","district_code":"598","address1":"Cherthala","address2":"","latitude":"9.7869","longitude":"76.3235","accuracy":"1"},{"address3":"Ezhupunna EDB.O","state":"Kerala","state_code":"13","district":"Alappuzha","district_code":"598","address1":"Cherthala","address2":"","latitude":"9.7869","longitude":"76.3235","accuracy":"1"}],"688538":[{"address3":"Ponnad","state":"Kerala","state_code":"13","district":"Alappuzha","district_code":"598","address1":"Ambalappuzha","address2":"","latitude":"9.7869","longitude":"76.3235","accuracy":"1"},{"address3":"Aryad North BO","state":"Kerala","state_code":"13","district":"Alappuzha","district_code":"598","address1":"Ambalapuzha","address2":"","latitude":"9.7869","longitude":"76.3235","accuracy":"1"},{"address3":"Mannancherry","state":"Kerala","state_code":"13","district":"Alappuzha","district_code":"598","address1":"Ambalappuzha","address2":"","latitude":"9.7869","longitude":"76.3235","accuracy":"1"}],"688539":[{"address3":"Varanad","state":"Kerala","state_code":"13","district":"Alappuzha","district_code":"598","address1":"Cherthala","address2":"","latitude":"9.7869","longitude":"76.3235","accuracy":"1"},{"address3":"Maruthorvattom","state":"Kerala","state_code":"13","district":"Alappuzha","district_code":"598","address1":"Cherthala","address2":"","latitude":"9.7869","longitude":"76.3235","accuracy":"1"},{"address3":"Kuruppankulangara","state":"Kerala","state_code":"13","district":"Alappuzha","district_code":"598","address1":"Cherthala","address2":"","latitude":"9.7869","longitude":"76.3235","accuracy":"1"},{"address3":"Mayithara Market","state":"Kerala","state_code":"13","district":"Alappuzha","district_code":"598","address1":"Cherthala","address2":"","latitude":"9.7869","longitude":"76.3235","accuracy":"1"},{"address3":"Cherthala South BO","state":"Kerala","state_code":"13","district":"Alappuzha","district_code":"598","address1":"Cherthala","address2":"","latitude":"9.7869","longitude":"76.3235","accuracy":"1"}],"688540":[{"address3":"Pallithode","state":"Kerala","state_code":"13","district":"Alappuzha","district_code":"598","address1":"Cherthala","address2":"","latitude":"10.1508","longitude":"76.1896","accuracy":"1"},{"address3":"Parayakad","state":"Kerala","state_code":"13","district":"Alappuzha","district_code":"598","address1":"Cherthala","address2":"","latitude":"10.1508","longitude":"76.1896","accuracy":"1"},{"address3":"Thirumalabhagom","state":"Kerala","state_code":"13","district":"Alappuzha","district_code":"598","address1":"Cherthala","address2":"","latitude":"10.1508","longitude":"76.1896","accuracy":"1"}],"688541":[{"address3":"Pallippuram","state":"Kerala","state_code":"13","district":"Alappuzha","district_code":"598","address1":"Cherthala","address2":"","latitude":"9.4236","longitude":"76.4496","accuracy":"4"},{"address3":"Kochuramapuram BO","state":"Kerala","state_code":"13","district":"Alappuzha","district_code":"598","address1":"Cherthala","address2":"","latitude":"10.1508","longitude":"76.1896","accuracy":"3"},{"address3":"Thirunallur","state":"Kerala","state_code":"13","district":"Alappuzha","district_code":"598","address1":"Cherthala","address2":"","latitude":"10.1508","longitude":"76.1896","accuracy":"3"}],"688555":[{"address3":"Varanam","state":"Kerala","state_code":"13","district":"Alappuzha","district_code":"598","address1":"Cherthala","address2":"","latitude":"9.6487","longitude":"76.3764","accuracy":"4"}],"688561":[{"address3":"Ambalapuzha","state":"Kerala","state_code":"13","district":"Alappuzha","district_code":"598","address1":"Ambalapuzha","address2":"","latitude":"9.3846","longitude":"76.3551","accuracy":"4"},{"address3":"Amabalapuzha East  B O","state":"Kerala","state_code":"13","district":"Alappuzha","district_code":"598","address1":"Ambalappuzha","address2":"","latitude":"9.3846","longitude":"76.3551","accuracy":"3"},{"address3":"Karumady BO","state":"Kerala","state_code":"13","district":"Alappuzha","district_code":"598","address1":"Ambalapuzha","address2":"","latitude":"9.3846","longitude":"76.3551","accuracy":"3"},{"address3":"Purakad","state":"Kerala","state_code":"13","district":"Alappuzha","district_code":"598","address1":"Ambalappuzha","address2":"","latitude":"9.3846","longitude":"76.3551","accuracy":"3"},{"address3":"Thottappally","state":"Kerala","state_code":"13","district":"Alappuzha","district_code":"598","address1":"Ambalapuzha","address2":"","latitude":"9.3846","longitude":"76.3551","accuracy":"3"},{"address3":"Illichira","state":"Kerala","state_code":"13","district":"Alappuzha","district_code":"598","address1":"Ambalappuzha","address2":"","latitude":"9.3846","longitude":"76.3551","accuracy":"3"}],"688562":[{"address3":"Kelamangalam","state":"Kerala","state_code":"13","district":"Alappuzha","district_code":"598","address1":"Kuttanad","address2":"","latitude":"9.3622","longitude":"76.4266","accuracy":"4"},{"address3":"Chirayakom","state":"Kerala","state_code":"13","district":"Alappuzha","district_code":"598","address1":"Kuttanad","address2":"","latitude":"9.3622","longitude":"76.4266","accuracy":"3"},{"address3":"Thakazhy","state":"Kerala","state_code":"13","district":"Alappuzha","district_code":"598","address1":"Kuttanad","address2":"","latitude":"9.3622","longitude":"76.4266","accuracy":"3"},{"address3":"Kunnumma Thakazhy","state":"Kerala","state_code":"13","district":"Alappuzha","district_code":"598","address1":"Kuttanad","address2":"","latitude":"9.3622","longitude":"76.4266","accuracy":"3"}],"688570":[{"address3":"Perumbalam","state":"Kerala","state_code":"13","district":"Alappuzha","district_code":"598","address1":"Cherthala","address2":"","latitude":"9.85","longitude":"76.3667","accuracy":"4"}],"688582":[{"address3":"Sreenarayanapuram","state":"Kerala","state_code":"13","district":"Alappuzha","district_code":"598","address1":"Cherthala","address2":"","latitude":"9.7902","longitude":"76.3133","accuracy":"1"},{"address3":"Kanichukulangara BO","state":"Kerala","state_code":"13","district":"Alappuzha","district_code":"598","address1":"Cherthala","address2":"","latitude":"9.7902","longitude":"76.3133","accuracy":"1"}],"credits":[{"name":"geonames","url":"https://www.geonames.org"}],"last_update":"2019-03-01T09:01:31.145Z"}