{"733101":[{"address3":"Khadimpur","state":"West Bengal","state_code":"28","district":"South Dinajpur","district_code":"","address1":"Balurghat","address2":"","latitude":"24.8616","longitude":"87.887","accuracy":"1"},{"address3":"Balurghat H.O","state":"West Bengal","state_code":"28","district":"South Dinajpur","district_code":"","address1":"Balurghat","address2":"","latitude":"24.8616","longitude":"87.887","accuracy":"1"},{"address3":"Chakbhabani","state":"West Bengal","state_code":"28","district":"South Dinajpur","district_code":"","address1":"Balurghat","address2":"","latitude":"24.8616","longitude":"87.887","accuracy":"1"},{"address3":"Narayanpur (South Dinajpur)","state":"West Bengal","state_code":"28","district":"South Dinajpur","district_code":"","address1":"Balurghat","address2":"","latitude":"24.8616","longitude":"87.887","accuracy":"1"},{"address3":"School Para","state":"West Bengal","state_code":"28","district":"South Dinajpur","district_code":"","address1":"Balurghat","address2":"","latitude":"24.8616","longitude":"87.887","accuracy":"1"},{"address3":"District School Board (South Dinajpur)","state":"West Bengal","state_code":"28","district":"South Dinajpur","district_code":"","address1":"Balurghat","address2":"","latitude":"24.8616","longitude":"87.887","accuracy":"1"},{"address3":"Balurghat Market","state":"West Bengal","state_code":"28","district":"South Dinajpur","district_code":"","address1":"Balurghat","address2":"","latitude":"24.8616","longitude":"87.887","accuracy":"1"}],"733102":[{"address3":"Jalghar","state":"West Bengal","state_code":"28","district":"South Dinajpur","district_code":"","address1":"Balurghat","address2":"","latitude":"24.7066","longitude":"87.8967","accuracy":"3"},{"address3":"Khaspur","state":"West Bengal","state_code":"28","district":"South Dinajpur","district_code":"","address1":"Balurghat","address2":"","latitude":"24.1811","longitude":"87.9445","accuracy":"4"},{"address3":"Kuaran","state":"West Bengal","state_code":"28","district":"South Dinajpur","district_code":"","address1":"Balurghat","address2":"","latitude":"24.7066","longitude":"87.8967","accuracy":"3"},{"address3":"Chakvrigu","state":"West Bengal","state_code":"28","district":"South Dinajpur","district_code":"","address1":"Balurghat","address2":"","latitude":"24.7066","longitude":"87.8967","accuracy":"3"},{"address3":"Barakashipur","state":"West Bengal","state_code":"28","district":"South Dinajpur","district_code":"","address1":"Balurghat","address2":"","latitude":"24.7066","longitude":"87.8967","accuracy":"3"},{"address3":"Bhatra","state":"West Bengal","state_code":"28","district":"South Dinajpur","district_code":"","address1":"Balurghat","address2":"","latitude":"24.5164","longitude":"87.8648","accuracy":"4"},{"address3":"Bharila","state":"West Bengal","state_code":"28","district":"South Dinajpur","district_code":"","address1":"Balurghat","address2":"","latitude":"24.7066","longitude":"87.8967","accuracy":"3"},{"address3":"Radhanagar","state":"West Bengal","state_code":"28","district":"South Dinajpur","district_code":"","address1":"Balurghat","address2":"","latitude":"25.4223","longitude":"87.8808","accuracy":"4"},{"address3":"Gofanagar","state":"West Bengal","state_code":"28","district":"South Dinajpur","district_code":"","address1":"Balurghat","address2":"","latitude":"24.7066","longitude":"87.8967","accuracy":"3"},{"address3":"Rajua","state":"West Bengal","state_code":"28","district":"South Dinajpur","district_code":"","address1":"Balurghat","address2":"","latitude":"24.7066","longitude":"87.8967","accuracy":"3"},{"address3":"Dakra","state":"West Bengal","state_code":"28","district":"South Dinajpur","district_code":"","address1":"Balurghat","address2":"","latitude":"24.7066","longitude":"87.8967","accuracy":"3"}],"733103":[{"address3":"Bijoyshree","state":"West Bengal","state_code":"28","district":"South Dinajpur","district_code":"","address1":"Balurghat","address2":"","latitude":"25.3266","longitude":"87.858","accuracy":"3"},{"address3":"Khidirpur","state":"West Bengal","state_code":"28","district":"South Dinajpur","district_code":"","address1":"Balurghat","address2":"","latitude":"25.3266","longitude":"87.858","accuracy":"4"},{"address3":"Dakshin Shibrampur","state":"West Bengal","state_code":"28","district":"South Dinajpur","district_code":"","address1":"Balurghat","address2":"","latitude":"25.3266","longitude":"87.858","accuracy":"3"},{"address3":"BaraRaghunathpur","state":"West Bengal","state_code":"28","district":"South Dinajpur","district_code":"","address1":"Balurghat","address2":"","latitude":"25.3266","longitude":"87.858","accuracy":"3"},{"address3":"Nunail","state":"West Bengal","state_code":"28","district":"South Dinajpur","district_code":"","address1":"Balurghat","address2":"","latitude":"25.3266","longitude":"87.858","accuracy":"3"},{"address3":"Beltala Park","state":"West Bengal","state_code":"28","district":"South Dinajpur","district_code":"","address1":"Balurghat","address2":"","latitude":"25.3266","longitude":"87.858","accuracy":"3"},{"address3":"Amrail","state":"West Bengal","state_code":"28","district":"South Dinajpur","district_code":"","address1":"Balurghat","address2":"","latitude":"25.3266","longitude":"87.858","accuracy":"3"},{"address3":"Sarangram","state":"West Bengal","state_code":"28","district":"South Dinajpur","district_code":"","address1":"Balurghat","address2":"","latitude":"25.3266","longitude":"87.858","accuracy":"3"},{"address3":"Bedoypur","state":"West Bengal","state_code":"28","district":"South Dinajpur","district_code":"","address1":"Balurghat","address2":"","latitude":"25.3266","longitude":"87.858","accuracy":"3"},{"address3":"Birohini","state":"West Bengal","state_code":"28","district":"South Dinajpur","district_code":"","address1":"Balurghat","address2":"","latitude":"25.3266","longitude":"87.858","accuracy":"3"},{"address3":"Amritakhanda Hat","state":"West Bengal","state_code":"28","district":"South Dinajpur","district_code":"","address1":"Balurghat","address2":"","latitude":"25.3266","longitude":"87.858","accuracy":"3"}],"733121":[{"address3":"Durgapur","state":"West Bengal","state_code":"28","district":"North Dinajpur","district_code":"330","address1":"Itahar","address2":"","latitude":"25.5287","longitude":"88.1506","accuracy":"4"},{"address3":"Mahipal","state":"West Bengal","state_code":"28","district":"South Dinajpur","district_code":"","address1":"Kushmundi","address2":"","latitude":"25.0576","longitude":"88.1934","accuracy":"3"},{"address3":"Dikul","state":"West Bengal","state_code":"28","district":"South Dinajpur","district_code":"","address1":"Banshihari","address2":"","latitude":"25.5027","longitude":"88.4973","accuracy":"4"},{"address3":"Karkha","state":"West Bengal","state_code":"28","district":"South Dinajpur","district_code":"","address1":"Banshihari","address2":"","latitude":"25.0576","longitude":"88.1934","accuracy":"3"},{"address3":"Kalikamora","state":"West Bengal","state_code":"28","district":"South Dinajpur","district_code":"","address1":"Banshihari","address2":"","latitude":"25.0576","longitude":"88.1934","accuracy":"3"},{"address3":"Biswanathpur","state":"West Bengal","state_code":"28","district":"South Dinajpur","district_code":"","address1":"Banshihari","address2":"","latitude":"24.1414","longitude":"87.9322","accuracy":"4"},{"address3":"Buniadpur","state":"West Bengal","state_code":"28","district":"South Dinajpur","district_code":"","address1":"Banshihari","address2":"","latitude":"25.0576","longitude":"88.1934","accuracy":"3"},{"address3":"Sihole","state":"West Bengal","state_code":"28","district":"South Dinajpur","district_code":"","address1":"Banshihari","address2":"","latitude":"25.0576","longitude":"88.1934","accuracy":"3"},{"address3":"Karai","state":"West Bengal","state_code":"28","district":"South Dinajpur","district_code":"","address1":"Banshihari","address2":"","latitude":"25.0576","longitude":"88.1934","accuracy":"3"},{"address3":"Kushkari","state":"West Bengal","state_code":"28","district":"South Dinajpur","district_code":"","address1":"Banshihari","address2":"","latitude":"25.0576","longitude":"88.1934","accuracy":"3"},{"address3":"Banshihari","state":"West Bengal","state_code":"28","district":"South Dinajpur","district_code":"","address1":"Banshihari","address2":"","latitude":"25.0576","longitude":"88.1934","accuracy":"3"},{"address3":"Cheragipara","state":"West Bengal","state_code":"28","district":"South Dinajpur","district_code":"","address1":"Bansihari","address2":"","latitude":"25.0576","longitude":"88.1934","accuracy":"3"},{"address3":"Badalpur","state":"West Bengal","state_code":"28","district":"South Dinajpur","district_code":"","address1":"Banshihari","address2":"","latitude":"25.0576","longitude":"88.1934","accuracy":"3"},{"address3":"Joredighi","state":"West Bengal","state_code":"28","district":"South Dinajpur","district_code":"","address1":"Bansihari","address2":"","latitude":"25.0576","longitude":"88.1934","accuracy":"3"},{"address3":"Sudarshannagar","state":"West Bengal","state_code":"28","district":"South Dinajpur","district_code":"","address1":"Bansihari","address2":"","latitude":"25.0576","longitude":"88.1934","accuracy":"3"},{"address3":"Nilgambhir","state":"West Bengal","state_code":"28","district":"South Dinajpur","district_code":"","address1":"Bansihari","address2":"","latitude":"25.0576","longitude":"88.1934","accuracy":"3"}],"733123":[{"address3":"Paschim Manoharpur","state":"West Bengal","state_code":"28","district":"North Dinajpur","district_code":"330","address1":"Raiganj","address2":"","latitude":"25.881","longitude":"88.1583","accuracy":"1"},{"address3":"Gorahar","state":"West Bengal","state_code":"28","district":"North Dinajpur","district_code":"330","address1":"Raiganj","address2":"","latitude":"24.307","longitude":"88.1246","accuracy":"1"},{"address3":"Tenohari","state":"West Bengal","state_code":"28","district":"North Dinajpur","district_code":"330","address1":"Raiganj","address2":"","latitude":"24.307","longitude":"88.1246","accuracy":"1"},{"address3":"Birghai","state":"West Bengal","state_code":"28","district":"North Dinajpur","district_code":"330","address1":"Raiganj","address2":"","latitude":"24.307","longitude":"88.1246","accuracy":"1"},{"address3":"Keotal","state":"West Bengal","state_code":"28","district":"North Dinajpur","district_code":"330","address1":"Raiganj","address2":"","latitude":"24.307","longitude":"88.1246","accuracy":"1"},{"address3":"Bariol","state":"West Bengal","state_code":"28","district":"North Dinajpur","district_code":"330","address1":"Raiganj","address2":"","latitude":"24.307","longitude":"88.1246","accuracy":"1"},{"address3":"Debinagar","state":"West Bengal","state_code":"28","district":"North Dinajpur","district_code":"330","address1":"Raiganj","address2":"","latitude":"24.307","longitude":"88.1246","accuracy":"1"},{"address3":"Ital","state":"West Bengal","state_code":"28","district":"North Dinajpur","district_code":"330","address1":"Raiganj","address2":"","latitude":"24.307","longitude":"88.1246","accuracy":"1"},{"address3":"Hatia","state":"West Bengal","state_code":"28","district":"North Dinajpur","district_code":"330","address1":"Raiganj","address2":"","latitude":"24.307","longitude":"88.1246","accuracy":"1"},{"address3":"Rupahar","state":"West Bengal","state_code":"28","district":"North Dinajpur","district_code":"330","address1":"Raiganj","address2":"","latitude":"24.307","longitude":"88.1246","accuracy":"1"}],"733124":[{"address3":"Dobakhokshan","state":"West Bengal","state_code":"28","district":"Malda","district_code":"332","address1":"Gazole","address2":"","latitude":"24.5657","longitude":"88.3296","accuracy":"3"},{"address3":"Nalagola","state":"West Bengal","state_code":"28","district":"Malda","district_code":"332","address1":"Bamangola","address2":"","latitude":"24.5657","longitude":"88.3296","accuracy":"3"},{"address3":"Madnabati","state":"West Bengal","state_code":"28","district":"Malda","district_code":"332","address1":"Bamangola","address2":"","latitude":"24.5657","longitude":"88.3296","accuracy":"3"},{"address3":"Gangarampur","state":"West Bengal","state_code":"28","district":"South Dinajpur","district_code":"","address1":"Gangarampur","address2":"","latitude":"25.4014","longitude":"88.5298","accuracy":"4"},{"address3":"Ratanpur","state":"West Bengal","state_code":"28","district":"South Dinajpur","district_code":"","address1":"Gangarampur","address2":"","latitude":"24.6679","longitude":"87.9462","accuracy":"4"},{"address3":"Sarbamangala","state":"West Bengal","state_code":"28","district":"South Dinajpur","district_code":"","address1":"Gangarampur","address2":"","latitude":"24.5657","longitude":"88.3296","accuracy":"3"},{"address3":"Jahangirpur","state":"West Bengal","state_code":"28","district":"South Dinajpur","district_code":"","address1":"Gangarampur","address2":"","latitude":"24.5657","longitude":"88.3296","accuracy":"3"},{"address3":"Laxmitola","state":"West Bengal","state_code":"28","district":"South Dinajpur","district_code":"","address1":"Gangarampur","address2":"","latitude":"24.5657","longitude":"88.3296","accuracy":"3"},{"address3":"Sukdebpur","state":"West Bengal","state_code":"28","district":"South Dinajpur","district_code":"","address1":"Gangarampur","address2":"","latitude":"25.4547","longitude":"88.5088","accuracy":"4"},{"address3":"Kantabari","state":"West Bengal","state_code":"28","district":"South Dinajpur","district_code":"","address1":"Gangarampur","address2":"","latitude":"24.5657","longitude":"88.3296","accuracy":"3"},{"address3":"Nandanpur","state":"West Bengal","state_code":"28","district":"South Dinajpur","district_code":"","address1":"Gangarampur","address2":"","latitude":"24.5657","longitude":"88.3296","accuracy":"3"},{"address3":"Kaldighi","state":"West Bengal","state_code":"28","district":"South Dinajpur","district_code":"","address1":"Gangarampur","address2":"","latitude":"24.5657","longitude":"88.3296","accuracy":"3"},{"address3":"Raghabpur","state":"West Bengal","state_code":"28","district":"South Dinajpur","district_code":"","address1":"Gangarampur","address2":"","latitude":"22.8251","longitude":"88.7459","accuracy":"4"},{"address3":"Chenchra","state":"West Bengal","state_code":"28","district":"South Dinajpur","district_code":"","address1":"Gangarampur","address2":"","latitude":"24.5657","longitude":"88.3296","accuracy":"3"},{"address3":"Belbari","state":"West Bengal","state_code":"28","district":"South Dinajpur","district_code":"","address1":"Gangarampur","address2":"","latitude":"24.5657","longitude":"88.3296","accuracy":"3"},{"address3":"Purba Mollapara","state":"West Bengal","state_code":"28","district":"South Dinajpur","district_code":"","address1":"Gangarampur","address2":"","latitude":"24.5657","longitude":"88.3296","accuracy":"3"},{"address3":"Jalalpur","state":"West Bengal","state_code":"28","district":"South Dinajpur","district_code":"","address1":"Gangarampur","address2":"","latitude":"24.4794","longitude":"87.9174","accuracy":"4"},{"address3":"Rajibpur","state":"West Bengal","state_code":"28","district":"South Dinajpur","district_code":"","address1":"Gangarampur","address2":"","latitude":"24.5657","longitude":"88.3296","accuracy":"3"},{"address3":"Narai","state":"West Bengal","state_code":"28","district":"South Dinajpur","district_code":"","address1":"Gangarampur","address2":"","latitude":"24.5657","longitude":"88.3296","accuracy":"3"},{"address3":"Champatali","state":"West Bengal","state_code":"28","district":"South Dinajpur","district_code":"","address1":"Gangarampur","address2":"","latitude":"24.5657","longitude":"88.3296","accuracy":"3"}],"733125":[{"address3":"Balihara","state":"West Bengal","state_code":"28","district":"North Dinajpur","district_code":"330","address1":"Itahar","address2":"","latitude":"24.1985","longitude":"87.9041","accuracy":"3"},{"address3":"Sandhiya","state":"West Bengal","state_code":"28","district":"North Dinajpur","district_code":"330","address1":"Itahar","address2":"","latitude":"24.1985","longitude":"87.9041","accuracy":"3"},{"address3":"Bagichapur","state":"West Bengal","state_code":"28","district":"South Dinajpur","district_code":"","address1":"Harirampur","address2":"","latitude":"24.1985","longitude":"87.9041","accuracy":"3"},{"address3":"Kanaipur","state":"West Bengal","state_code":"28","district":"South Dinajpur","district_code":"","address1":"Harirampur","address2":"","latitude":"24.2287","longitude":"87.8975","accuracy":"4"},{"address3":"Harirampur","state":"West Bengal","state_code":"28","district":"South Dinajpur","district_code":"","address1":"Harirampur","address2":"","latitude":"24.1684","longitude":"87.9108","accuracy":"4"},{"address3":"Bairhatta","state":"West Bengal","state_code":"28","district":"South Dinajpur","district_code":"","address1":"Harirampur","address2":"","latitude":"24.1985","longitude":"87.9041","accuracy":"3"},{"address3":"Danagram","state":"West Bengal","state_code":"28","district":"South Dinajpur","district_code":"","address1":"Harirampur","address2":"","latitude":"24.1985","longitude":"87.9041","accuracy":"3"},{"address3":"Bartakigram","state":"West Bengal","state_code":"28","district":"South Dinajpur","district_code":"","address1":"Harirampur","address2":"","latitude":"24.1985","longitude":"87.9041","accuracy":"3"},{"address3":"Daulatpur (South Dinajpur)B.O","state":"West Bengal","state_code":"28","district":"South Dinajpur","district_code":"","address1":"Banshihari","address2":"","latitude":"24.1985","longitude":"87.9041","accuracy":"3"},{"address3":"Pundari","state":"West Bengal","state_code":"28","district":"South Dinajpur","district_code":"","address1":"Harirampur","address2":"","latitude":"24.1985","longitude":"87.9041","accuracy":"3"},{"address3":"Singadaha","state":"West Bengal","state_code":"28","district":"South Dinajpur","district_code":"","address1":"Bansihari","address2":"","latitude":"24.1985","longitude":"87.9041","accuracy":"3"},{"address3":"Saiyadpur Nayapara","state":"West Bengal","state_code":"28","district":"South Dinajpur","district_code":"","address1":"Harirampur","address2":"","latitude":"24.1985","longitude":"87.9041","accuracy":"3"},{"address3":"Maliandighi","state":"West Bengal","state_code":"28","district":"South Dinajpur","district_code":"","address1":"Harirampur","address2":"","latitude":"24.1985","longitude":"87.9041","accuracy":"3"}],"733126":[{"address3":"Fatepur","state":"West Bengal","state_code":"28","district":"South Dinajpur","district_code":"","address1":"Hili","address2":"","latitude":"24.307","longitude":"88.1246","accuracy":"1"},{"address3":"Hili","state":"West Bengal","state_code":"28","district":"South Dinajpur","district_code":"","address1":"Hili","address2":"","latitude":"24.307","longitude":"88.1246","accuracy":"1"},{"address3":"Trimohini","state":"West Bengal","state_code":"28","district":"South Dinajpur","district_code":"","address1":"Hilli","address2":"","latitude":"24.307","longitude":"88.1246","accuracy":"1"},{"address3":"Hili Aftair","state":"West Bengal","state_code":"28","district":"South Dinajpur","district_code":"","address1":"Hilli","address2":"","latitude":"24.307","longitude":"88.1246","accuracy":"1"}],"733127":[{"address3":"Mahadebpur","state":"West Bengal","state_code":"28","district":"South Dinajpur","district_code":"","address1":"Tapan","address2":"","latitude":"22.3453","longitude":"88.1133","accuracy":"4"},{"address3":"Tapan","state":"West Bengal","state_code":"28","district":"South Dinajpur","district_code":"","address1":"Balurghat","address2":"","latitude":"24.2243","longitude":"87.8487","accuracy":"4"},{"address3":"Ramchandrapur","state":"West Bengal","state_code":"28","district":"South Dinajpur","district_code":"","address1":"Tapan","address2":"","latitude":"22.2781","longitude":"88.4944","accuracy":"4"},{"address3":"Laskarhat","state":"West Bengal","state_code":"28","district":"South Dinajpur","district_code":"","address1":"Tapan","address2":"","latitude":"22.9492","longitude":"88.1521","accuracy":"3"},{"address3":"Telighata","state":"West Bengal","state_code":"28","district":"South Dinajpur","district_code":"","address1":"Tapan","address2":"","latitude":"22.9492","longitude":"88.1521","accuracy":"3"},{"address3":"Holidana","state":"West Bengal","state_code":"28","district":"South Dinajpur","district_code":"","address1":"Tapan","address2":"","latitude":"22.9492","longitude":"88.1521","accuracy":"3"},{"address3":"Tilon","state":"West Bengal","state_code":"28","district":"South Dinajpur","district_code":"","address1":"Tapan","address2":"","latitude":"22.9492","longitude":"88.1521","accuracy":"3"},{"address3":"Karaichenchra","state":"West Bengal","state_code":"28","district":"South Dinajpur","district_code":"","address1":"Tapan","address2":"","latitude":"22.9492","longitude":"88.1521","accuracy":"3"},{"address3":"Patkola","state":"West Bengal","state_code":"28","district":"South Dinajpur","district_code":"","address1":"Tapan","address2":"","latitude":"22.9492","longitude":"88.1521","accuracy":"3"},{"address3":"Banial","state":"West Bengal","state_code":"28","district":"South Dinajpur","district_code":"","address1":"Tapan","address2":"","latitude":"22.9492","longitude":"88.1521","accuracy":"3"},{"address3":"Balapur","state":"West Bengal","state_code":"28","district":"South Dinajpur","district_code":"","address1":"Tapan","address2":"","latitude":"22.9492","longitude":"88.1521","accuracy":"3"},{"address3":"Ajmatpur","state":"West Bengal","state_code":"28","district":"South Dinajpur","district_code":"","address1":"Tapan","address2":"","latitude":"22.9492","longitude":"88.1521","accuracy":"3"},{"address3":"Kamdebbati","state":"West Bengal","state_code":"28","district":"South Dinajpur","district_code":"","address1":"Tapan","address2":"","latitude":"22.9492","longitude":"88.1521","accuracy":"3"},{"address3":"Daralhat","state":"West Bengal","state_code":"28","district":"South Dinajpur","district_code":"","address1":"Tapan","address2":"","latitude":"22.9492","longitude":"88.1521","accuracy":"3"},{"address3":"Chakbaliram","state":"West Bengal","state_code":"28","district":"South Dinajpur","district_code":"","address1":"Tapan","address2":"","latitude":"22.9492","longitude":"88.1521","accuracy":"3"}],"733128":[{"address3":"Baidara","state":"West Bengal","state_code":"28","district":"North Dinajpur","district_code":"330","address1":"Itahar","address2":"","latitude":"25.881","longitude":"88.1583","accuracy":"4"},{"address3":"Churaman","state":"West Bengal","state_code":"28","district":"North Dinajpur","district_code":"330","address1":"Itahar","address2":"","latitude":"25.4303","longitude":"88.1064","accuracy":"4"},{"address3":"Radhanagar","state":"West Bengal","state_code":"28","district":"North Dinajpur","district_code":"330","address1":"Itahar","address2":"","latitude":"25.881","longitude":"88.1583","accuracy":"4"},{"address3":"Kapasia","state":"West Bengal","state_code":"28","district":"North Dinajpur","district_code":"330","address1":"Itahar","address2":"","latitude":"25.097","longitude":"87.9915","accuracy":"3"},{"address3":"Gulandar","state":"West Bengal","state_code":"28","district":"North Dinajpur","district_code":"330","address1":"Itahar","address2":"","latitude":"25.097","longitude":"87.9915","accuracy":"3"},{"address3":"Marnai","state":"West Bengal","state_code":"28","district":"North Dinajpur","district_code":"330","address1":"Itahar","address2":"","latitude":"25.097","longitude":"87.9915","accuracy":"3"},{"address3":"Chhayghara","state":"West Bengal","state_code":"28","district":"North Dinajpur","district_code":"330","address1":"Itahar","address2":"","latitude":"25.097","longitude":"87.9915","accuracy":"3"},{"address3":"Nomunia","state":"West Bengal","state_code":"28","district":"North Dinajpur","district_code":"330","address1":"Itahar","address2":"","latitude":"25.097","longitude":"87.9915","accuracy":"3"},{"address3":"Tilna","state":"West Bengal","state_code":"28","district":"North Dinajpur","district_code":"330","address1":"Itahar","address2":"","latitude":"25.097","longitude":"87.9915","accuracy":"3"},{"address3":"Patirajpur","state":"West Bengal","state_code":"28","district":"North Dinajpur","district_code":"330","address1":"Itahar","address2":"","latitude":"25.097","longitude":"87.9915","accuracy":"3"},{"address3":"Joyhat","state":"West Bengal","state_code":"28","district":"North Dinajpur","district_code":"330","address1":"Itahar","address2":"","latitude":"25.097","longitude":"87.9915","accuracy":"3"},{"address3":"Chavote","state":"West Bengal","state_code":"28","district":"North Dinajpur","district_code":"330","address1":"Itahar","address2":"","latitude":"25.097","longitude":"87.9915","accuracy":"3"},{"address3":"Itahar","state":"West Bengal","state_code":"28","district":"North Dinajpur","district_code":"330","address1":"Itahar","address2":"","latitude":"25.097","longitude":"87.9915","accuracy":"3"},{"address3":"Kalaibari","state":"West Bengal","state_code":"28","district":"South Dinajpur","district_code":"","address1":"Harirampur","address2":"","latitude":"25.097","longitude":"87.9915","accuracy":"3"},{"address3":"Baragarm","state":"West Bengal","state_code":"28","district":"South Dinajpur","district_code":"","address1":"Harirampur","address2":"","latitude":"25.097","longitude":"87.9915","accuracy":"3"}],"733129":[{"address3":"Faridpur","state":"West Bengal","state_code":"28","district":"North Dinajpur","district_code":"330","address1":"Kaliyaganj","address2":"","latitude":"25.881","longitude":"88.1583","accuracy":"4"},{"address3":"Kunor","state":"West Bengal","state_code":"28","district":"North Dinajpur","district_code":"330","address1":"Kaliaganj","address2":"","latitude":"24.0363","longitude":"88.0456","accuracy":"3"},{"address3":"Raghunathpur","state":"West Bengal","state_code":"28","district":"North Dinajpur","district_code":"330","address1":"Kaliaganj","address2":"","latitude":"25.881","longitude":"88.1583","accuracy":"4"},{"address3":"Madhabpur","state":"West Bengal","state_code":"28","district":"North Dinajpur","district_code":"330","address1":"Kaliaganj","address2":"","latitude":"25.881","longitude":"88.1583","accuracy":"4"},{"address3":"Radhikapur","state":"West Bengal","state_code":"28","district":"North Dinajpur","district_code":"330","address1":"Kaliyaganj","address2":"","latitude":"25.881","longitude":"88.1583","accuracy":"4"},{"address3":"Tarangapur","state":"West Bengal","state_code":"28","district":"North Dinajpur","district_code":"330","address1":"Kaliyaganj","address2":"","latitude":"24.0363","longitude":"88.0456","accuracy":"3"},{"address3":"Dhankoil Hat","state":"West Bengal","state_code":"28","district":"North Dinajpur","district_code":"330","address1":"Kaliaganj","address2":"","latitude":"24.0363","longitude":"88.0456","accuracy":"3"},{"address3":"Manoharpur","state":"West Bengal","state_code":"28","district":"North Dinajpur","district_code":"330","address1":"Kaliaganj","address2":"","latitude":"25.881","longitude":"88.1583","accuracy":"4"},{"address3":"Kaliyaganj","state":"West Bengal","state_code":"28","district":"North Dinajpur","district_code":"330","address1":"Kaliyaganj","address2":"","latitude":"25.6344","longitude":"88.3266","accuracy":"4"},{"address3":"Bhelai","state":"West Bengal","state_code":"28","district":"North Dinajpur","district_code":"330","address1":"Kaliyaganj","address2":"","latitude":"24.0363","longitude":"88.0456","accuracy":"3"},{"address3":"Dalimgaon","state":"West Bengal","state_code":"28","district":"North Dinajpur","district_code":"330","address1":"Kaliyaganj","address2":"","latitude":"24.0363","longitude":"88.0456","accuracy":"3"},{"address3":"Mudafat","state":"West Bengal","state_code":"28","district":"North Dinajpur","district_code":"330","address1":"Kaliaganj","address2":"","latitude":"24.0363","longitude":"88.0456","accuracy":"3"},{"address3":"Tungail Bilpara","state":"West Bengal","state_code":"28","district":"North Dinajpur","district_code":"330","address1":"Kaliaganj","address2":"","latitude":"24.0363","longitude":"88.0456","accuracy":"3"},{"address3":"Tamchari Mathbari","state":"West Bengal","state_code":"28","district":"North Dinajpur","district_code":"330","address1":"Kaliaganj","address2":"","latitude":"24.0363","longitude":"88.0456","accuracy":"3"},{"address3":"Malgaon","state":"West Bengal","state_code":"28","district":"North Dinajpur","district_code":"330","address1":"Kaliaganj","address2":"","latitude":"24.0363","longitude":"88.0456","accuracy":"3"},{"address3":"Puria","state":"West Bengal","state_code":"28","district":"North Dinajpur","district_code":"330","address1":"Kaliaganj","address2":"","latitude":"24.0363","longitude":"88.0456","accuracy":"3"},{"address3":"Kaliyaganj Collegepara","state":"West Bengal","state_code":"28","district":"North Dinajpur","district_code":"330","address1":"Kaliaganj","address2":"","latitude":"24.0363","longitude":"88.0456","accuracy":"3"},{"address3":"Mahendraganj (North Dinajpur)","state":"West Bengal","state_code":"28","district":"North Dinajpur","district_code":"330","address1":"Kaliaganj","address2":"","latitude":"24.0363","longitude":"88.0456","accuracy":"3"},{"address3":"Baghan","state":"West Bengal","state_code":"28","district":"North Dinajpur","district_code":"330","address1":"Kaliyaganj","address2":"","latitude":"24.0363","longitude":"88.0456","accuracy":"3"},{"address3":"Akhanagar","state":"West Bengal","state_code":"28","district":"North Dinajpur","district_code":"330","address1":"Kaliganj","address2":"","latitude":"24.0363","longitude":"88.0456","accuracy":"3"},{"address3":"Bhanail","state":"West Bengal","state_code":"28","district":"North Dinajpur","district_code":"330","address1":"Kaliyaganj","address2":"","latitude":"24.0363","longitude":"88.0456","accuracy":"3"},{"address3":"Krishnabati","state":"West Bengal","state_code":"28","district":"North Dinajpur","district_code":"330","address1":"Kaliyaganj","address2":"","latitude":"24.0363","longitude":"88.0456","accuracy":"3"}],"733130":[{"address3":"Hemtabad","state":"West Bengal","state_code":"28","district":"North Dinajpur","district_code":"330","address1":"Hemtabad","address2":"","latitude":"25.6771","longitude":"88.2228","accuracy":"4"},{"address3":"Mirual","state":"West Bengal","state_code":"28","district":"North Dinajpur","district_code":"330","address1":"Raiganj","address2":"","latitude":"25.6771","longitude":"88.2228","accuracy":"3"},{"address3":"Karnojora","state":"West Bengal","state_code":"28","district":"North Dinajpur","district_code":"330","address1":"Raiganj","address2":"","latitude":"25.6771","longitude":"88.2228","accuracy":"3"},{"address3":"Dadhikotbari","state":"West Bengal","state_code":"28","district":"North Dinajpur","district_code":"330","address1":"Raiganj","address2":"","latitude":"25.6771","longitude":"88.2228","accuracy":"3"}],"733132":[{"address3":"Majhihar","state":"West Bengal","state_code":"28","district":"North Dinajpur","district_code":"330","address1":"Kaliaganj","address2":"","latitude":"24.3955","longitude":"88.0943","accuracy":"1"},{"address3":"Fatepur Hat","state":"West Bengal","state_code":"28","district":"North Dinajpur","district_code":"330","address1":"Kaliaganj","address2":"","latitude":"24.3955","longitude":"88.0943","accuracy":"1"},{"address3":"Nahit","state":"West Bengal","state_code":"28","district":"South Dinajpur","district_code":"","address1":"Kushmandi","address2":"","latitude":"24.3955","longitude":"88.0943","accuracy":"1"},{"address3":"Sarala","state":"West Bengal","state_code":"28","district":"South Dinajpur","district_code":"","address1":"Kushmandi","address2":"","latitude":"24.3955","longitude":"88.0943","accuracy":"1"},{"address3":"Basoil","state":"West Bengal","state_code":"28","district":"South Dinajpur","district_code":"","address1":"Kushmandi","address2":"","latitude":"24.3955","longitude":"88.0943","accuracy":"1"},{"address3":"Aminpur","state":"West Bengal","state_code":"28","district":"South Dinajpur","district_code":"","address1":"Kushmandi","address2":"","latitude":"24.3955","longitude":"88.0943","accuracy":"1"},{"address3":"Berail","state":"West Bengal","state_code":"28","district":"South Dinajpur","district_code":"","address1":"Kushmandi","address2":"","latitude":"24.3955","longitude":"88.0943","accuracy":"1"},{"address3":"Chousa","state":"West Bengal","state_code":"28","district":"South Dinajpur","district_code":"","address1":"Kushmandi","address2":"","latitude":"24.3955","longitude":"88.0943","accuracy":"1"},{"address3":"Uttar Karanji","state":"West Bengal","state_code":"28","district":"South Dinajpur","district_code":"","address1":"Kushmundi","address2":"","latitude":"24.3955","longitude":"88.0943","accuracy":"1"},{"address3":"Kushmandi","state":"West Bengal","state_code":"28","district":"South Dinajpur","district_code":"","address1":"Kushmandi","address2":"","latitude":"24.3955","longitude":"88.0943","accuracy":"1"},{"address3":"Sahapur Jharbari","state":"West Bengal","state_code":"28","district":"South Dinajpur","district_code":"","address1":"Kushmundi","address2":"","latitude":"24.3955","longitude":"88.0943","accuracy":"1"},{"address3":"Sibkrishnapur","state":"West Bengal","state_code":"28","district":"South Dinajpur","district_code":"","address1":"Kushmundi","address2":"","latitude":"24.3955","longitude":"88.0943","accuracy":"1"},{"address3":"Uttar Para","state":"West Bengal","state_code":"28","district":"South Dinajpur","district_code":"","address1":"Kushmandi","address2":"","latitude":"24.3955","longitude":"88.0943","accuracy":"1"},{"address3":"Parameshwarpur","state":"West Bengal","state_code":"28","district":"South Dinajpur","district_code":"","address1":"Kushmundi","address2":"","latitude":"24.3955","longitude":"88.0943","accuracy":"1"},{"address3":"Arajipanishalahat","state":"West Bengal","state_code":"28","district":"South Dinajpur","district_code":"","address1":"Kushmandi","address2":"","latitude":"24.3955","longitude":"88.0943","accuracy":"1"},{"address3":"Dehaband","state":"West Bengal","state_code":"28","district":"South Dinajpur","district_code":"","address1":"Kushmandi","address2":"","latitude":"24.3955","longitude":"88.0943","accuracy":"1"},{"address3":"Manikore","state":"West Bengal","state_code":"28","district":"South Dinajpur","district_code":"","address1":"Kushmandi","address2":"","latitude":"24.3955","longitude":"88.0943","accuracy":"1"},{"address3":"Usha Haranhat","state":"West Bengal","state_code":"28","district":"South Dinajpur","district_code":"","address1":"Kushmundi","address2":"","latitude":"24.3955","longitude":"88.0943","accuracy":"1"}],"733133":[{"address3":"Nazirpur","state":"West Bengal","state_code":"28","district":"South Dinajpur","district_code":"","address1":"Balurgthat","address2":"","latitude":"25.4031","longitude":"87.8175","accuracy":"4"},{"address3":"Patiram","state":"West Bengal","state_code":"28","district":"South Dinajpur","district_code":"","address1":"Balurghat","address2":"","latitude":"25.33","longitude":"88.7666","accuracy":"4"},{"address3":"Radhakrishnapur","state":"West Bengal","state_code":"28","district":"South Dinajpur","district_code":"","address1":"Kumarganj","address2":"","latitude":"24.4081","longitude":"87.6651","accuracy":"4"},{"address3":"Gobindapur","state":"West Bengal","state_code":"28","district":"South Dinajpur","district_code":"","address1":"Kumarganj","address2":"","latitude":"24.0333","longitude":"87.8884","accuracy":"4"},{"address3":"Khanpur","state":"West Bengal","state_code":"28","district":"South Dinajpur","district_code":"","address1":"Balurghat","address2":"","latitude":"24.3931","longitude":"87.8225","accuracy":"4"},{"address3":"Batun","state":"West Bengal","state_code":"28","district":"South Dinajpur","district_code":"","address1":"Kumarganj","address2":"","latitude":"24.7135","longitude":"87.992","accuracy":"3"},{"address3":"Beltara","state":"West Bengal","state_code":"28","district":"South Dinajpur","district_code":"","address1":"Kumarganj","address2":"","latitude":"24.7135","longitude":"87.992","accuracy":"3"},{"address3":"Sayedpur","state":"West Bengal","state_code":"28","district":"South Dinajpur","district_code":"","address1":"Balurghat","address2":"","latitude":"24.7135","longitude":"87.992","accuracy":"3"}],"733134":[{"address3":"Sasan","state":"West Bengal","state_code":"28","district":"North Dinajpur","district_code":"330","address1":"Raiganj","address2":"","latitude":"25.881","longitude":"88.1583","accuracy":"4"},{"address3":"Bahin","state":"West Bengal","state_code":"28","district":"North Dinajpur","district_code":"330","address1":"Raiganj","address2":"","latitude":"22.9597","longitude":"88.2859","accuracy":"3"},{"address3":"Raipur","state":"West Bengal","state_code":"28","district":"North Dinajpur","district_code":"330","address1":"Raiganj","address2":"","latitude":"25.881","longitude":"88.1583","accuracy":"3"},{"address3":"Samaspur","state":"West Bengal","state_code":"28","district":"North Dinajpur","district_code":"330","address1":"Raiganj","address2":"","latitude":"22.9597","longitude":"88.2859","accuracy":"3"},{"address3":"Bangalbari","state":"West Bengal","state_code":"28","district":"North Dinajpur","district_code":"330","address1":"Raiganj","address2":"","latitude":"22.9597","longitude":"88.2859","accuracy":"3"},{"address3":"Raiganj Bandar","state":"West Bengal","state_code":"28","district":"North Dinajpur","district_code":"330","address1":"Raiganj","address2":"","latitude":"22.9597","longitude":"88.2859","accuracy":"3"},{"address3":"Madhupur Barduari","state":"West Bengal","state_code":"28","district":"North Dinajpur","district_code":"330","address1":"Raiganj","address2":"","latitude":"22.9597","longitude":"88.2859","accuracy":"3"},{"address3":"Rashbehari Market","state":"West Bengal","state_code":"28","district":"North Dinajpur","district_code":"330","address1":"Raiganj","address2":"","latitude":"22.9597","longitude":"88.2859","accuracy":"3"},{"address3":"Baharail","state":"West Bengal","state_code":"28","district":"North Dinajpur","district_code":"330","address1":"Raiganj","address2":"","latitude":"22.9597","longitude":"88.2859","accuracy":"3"},{"address3":"Sudarshanpur","state":"West Bengal","state_code":"28","district":"North Dinajpur","district_code":"330","address1":"Raiganj","address2":"","latitude":"22.9597","longitude":"88.2859","accuracy":"3"},{"address3":"Mohanbati","state":"West Bengal","state_code":"28","district":"North Dinajpur","district_code":"330","address1":"Raiganj","address2":"","latitude":"22.9597","longitude":"88.2859","accuracy":"3"},{"address3":"Raiganj Town","state":"West Bengal","state_code":"28","district":"North Dinajpur","district_code":"330","address1":"Raiganj","address2":"","latitude":"22.9597","longitude":"88.2859","accuracy":"3"},{"address3":"Lohanda","state":"West Bengal","state_code":"28","district":"North Dinajpur","district_code":"330","address1":"Raiganj","address2":"","latitude":"22.9597","longitude":"88.2859","accuracy":"3"},{"address3":"Industrial Market","state":"West Bengal","state_code":"28","district":"North Dinajpur","district_code":"330","address1":"Raiganj","address2":"","latitude":"22.9597","longitude":"88.2859","accuracy":"3"},{"address3":"Taherpur","state":"West Bengal","state_code":"28","district":"North Dinajpur","district_code":"330","address1":"Raiganj","address2":"","latitude":"22.9597","longitude":"88.2859","accuracy":"3"},{"address3":"Panishalahat","state":"West Bengal","state_code":"28","district":"North Dinajpur","district_code":"330","address1":"Raiganj","address2":"","latitude":"22.9597","longitude":"88.2859","accuracy":"3"},{"address3":"Bilashpur","state":"West Bengal","state_code":"28","district":"North Dinajpur","district_code":"330","address1":"Raiganj","address2":"","latitude":"22.9597","longitude":"88.2859","accuracy":"3"},{"address3":"Raiganj","state":"West Bengal","state_code":"28","district":"North Dinajpur","district_code":"330","address1":"Raiganj","address2":"","latitude":"22.9597","longitude":"88.2859","accuracy":"3"},{"address3":"Bhitiar","state":"West Bengal","state_code":"28","district":"North Dinajpur","district_code":"330","address1":"Raiganj","address2":"","latitude":"22.9597","longitude":"88.2859","accuracy":"3"},{"address3":"Khalshi","state":"West Bengal","state_code":"28","district":"North Dinajpur","district_code":"330","address1":"Raiganj","address2":"","latitude":"22.9597","longitude":"88.2859","accuracy":"3"},{"address3":"Subhashganj","state":"West Bengal","state_code":"28","district":"North Dinajpur","district_code":"330","address1":"Raiganj","address2":"","latitude":"22.9597","longitude":"88.2859","accuracy":"3"},{"address3":"Bamangram","state":"West Bengal","state_code":"28","district":"North Dinajpur","district_code":"330","address1":"Raiganj","address2":"","latitude":"22.9597","longitude":"88.2859","accuracy":"3"},{"address3":"Harigram","state":"West Bengal","state_code":"28","district":"North Dinajpur","district_code":"330","address1":"Raiganj","address2":"","latitude":"25.881","longitude":"88.1583","accuracy":"4"},{"address3":"Bhogram","state":"West Bengal","state_code":"28","district":"North Dinajpur","district_code":"330","address1":"Raiganj","address2":"","latitude":"22.9597","longitude":"88.2859","accuracy":"3"}],"733140":[{"address3":"Ramkrishnapur","state":"West Bengal","state_code":"28","district":"South Dinajpur","district_code":"","address1":"Kumarganj","address2":"","latitude":"22.3294","longitude":"88.3994","accuracy":"4"},{"address3":"Panchagram","state":"West Bengal","state_code":"28","district":"South Dinajpur","district_code":"","address1":"Kumargunj","address2":"","latitude":"22.2277","longitude":"88.2419","accuracy":"4"},{"address3":"Rampur (South Dinajpur)","state":"West Bengal","state_code":"28","district":"South Dinajpur","district_code":"","address1":"Gangarampur","address2":"","latitude":"22.2786","longitude":"88.3207","accuracy":"3"},{"address3":"Janchi","state":"West Bengal","state_code":"28","district":"South Dinajpur","district_code":"","address1":"Gangarampur","address2":"","latitude":"22.2786","longitude":"88.3207","accuracy":"3"},{"address3":"Bandighi","state":"West Bengal","state_code":"28","district":"South Dinajpur","district_code":"","address1":"Gangarampur","address2":"","latitude":"22.2786","longitude":"88.3207","accuracy":"3"},{"address3":"Pransagar","state":"West Bengal","state_code":"28","district":"South Dinajpur","district_code":"","address1":"Gangarampur","address2":"","latitude":"22.2786","longitude":"88.3207","accuracy":"3"},{"address3":"Mahanaj","state":"West Bengal","state_code":"28","district":"South Dinajpur","district_code":"","address1":"Gangarampur","address2":"","latitude":"22.2786","longitude":"88.3207","accuracy":"3"},{"address3":"Fulbari","state":"West Bengal","state_code":"28","district":"South Dinajpur","district_code":"","address1":"Gangarampur","address2":"","latitude":"22.2786","longitude":"88.3207","accuracy":"3"},{"address3":"Deor","state":"West Bengal","state_code":"28","district":"South Dinajpur","district_code":"","address1":"Kumargunj","address2":"","latitude":"22.2786","longitude":"88.3207","accuracy":"3"}],"733141":[{"address3":"Gopalganj","state":"West Bengal","state_code":"28","district":"South Dinajpur","district_code":"","address1":"Kumarganj","address2":"","latitude":"24.4388","longitude":"88.3645","accuracy":"3"},{"address3":"Angina","state":"West Bengal","state_code":"28","district":"South Dinajpur","district_code":"","address1":"Kumarganj","address2":"","latitude":"24.4388","longitude":"88.3645","accuracy":"3"},{"address3":"Bhagabatipur","state":"West Bengal","state_code":"28","district":"South Dinajpur","district_code":"","address1":"Kumarganj","address2":"","latitude":"22.6942","longitude":"88.1872","accuracy":"4"},{"address3":"Samjhia","state":"West Bengal","state_code":"28","district":"South Dinajpur","district_code":"","address1":"Kumarganj","address2":"","latitude":"25.5178","longitude":"88.762","accuracy":"4"},{"address3":"Dangarhat","state":"West Bengal","state_code":"28","district":"South Dinajpur","district_code":"","address1":"Kumarganj","address2":"","latitude":"25.4519","longitude":"88.7674","accuracy":"4"},{"address3":"Debipur","state":"West Bengal","state_code":"28","district":"South Dinajpur","district_code":"","address1":"Kumarganj","address2":"","latitude":"24.2503","longitude":"88.6182","accuracy":"4"},{"address3":"Bholanathpur","state":"West Bengal","state_code":"28","district":"South Dinajpur","district_code":"","address1":"Kumarganj","address2":"","latitude":"24.6089","longitude":"87.9762","accuracy":"4"},{"address3":"Churail Krishnapur","state":"West Bengal","state_code":"28","district":"South Dinajpur","district_code":"","address1":"Kumarganj","address2":"","latitude":"24.4388","longitude":"88.3645","accuracy":"3"},{"address3":"Narayanpur","state":"West Bengal","state_code":"28","district":"South Dinajpur","district_code":"","address1":"Kumarganj","address2":"","latitude":"24.1098","longitude":"87.8759","accuracy":"4"},{"address3":"Safanagar","state":"West Bengal","state_code":"28","district":"South Dinajpur","district_code":"","address1":"Kumarganj","address2":"","latitude":"24.4388","longitude":"88.3645","accuracy":"3"},{"address3":"Panitara","state":"West Bengal","state_code":"28","district":"South Dinajpur","district_code":"","address1":"Kumarganj","address2":"","latitude":"24.4388","longitude":"88.3645","accuracy":"3"},{"address3":"Jakhirpur","state":"West Bengal","state_code":"28","district":"South Dinajpur","district_code":"","address1":"Kumarganj","address2":"","latitude":"24.4388","longitude":"88.3645","accuracy":"3"},{"address3":"Chandganj","state":"West Bengal","state_code":"28","district":"South Dinajpur","district_code":"","address1":"Kumarganj","address2":"","latitude":"24.4388","longitude":"88.3645","accuracy":"3"},{"address3":"Ashokegram","state":"West Bengal","state_code":"28","district":"South Dinajpur","district_code":"","address1":"Gangarampur","address2":"","latitude":"24.4388","longitude":"88.3645","accuracy":"3"},{"address3":"Mahipur","state":"West Bengal","state_code":"28","district":"South Dinajpur","district_code":"","address1":"Kumarganj","address2":"","latitude":"24.4388","longitude":"88.3645","accuracy":"3"},{"address3":"Kuraha","state":"West Bengal","state_code":"28","district":"South Dinajpur","district_code":"","address1":"Kumarganj","address2":"","latitude":"24.4388","longitude":"88.3645","accuracy":"3"},{"address3":"Kumarganj","state":"West Bengal","state_code":"28","district":"South Dinajpur","district_code":"","address1":"Kumarganj","address2":"","latitude":"24.4388","longitude":"88.3645","accuracy":"3"}],"733142":[{"address3":"Kupadaha","state":"West Bengal","state_code":"28","district":"Malda","district_code":"332","address1":"Bamangola","address2":"","latitude":"24.2416","longitude":"88.3456","accuracy":"1"},{"address3":"Chaksukdebpur","state":"West Bengal","state_code":"28","district":"Malda","district_code":"332","address1":"Bamangola","address2":"","latitude":"24.2416","longitude":"88.3456","accuracy":"1"},{"address3":"Kardah","state":"West Bengal","state_code":"28","district":"South Dinajpur","district_code":"","address1":"Gangarampur","address2":"","latitude":"24.2416","longitude":"88.3456","accuracy":"1"},{"address3":"Bhikahar","state":"West Bengal","state_code":"28","district":"South Dinajpur","district_code":"","address1":"Gangarampur","address2":"","latitude":"24.2416","longitude":"88.3456","accuracy":"1"},{"address3":"Basuria","state":"West Bengal","state_code":"28","district":"South Dinajpur","district_code":"","address1":"Tapan","address2":"","latitude":"24.2416","longitude":"88.3456","accuracy":"1"},{"address3":"Nayabazar (South Dinajpur)","state":"West Bengal","state_code":"28","district":"South Dinajpur","district_code":"","address1":"Gangarampur","address2":"","latitude":"24.2416","longitude":"88.3456","accuracy":"1"},{"address3":"Joypur","state":"West Bengal","state_code":"28","district":"South Dinajpur","district_code":"","address1":"Gangarampur","address2":"","latitude":"24.2416","longitude":"88.3456","accuracy":"1"},{"address3":"Manohali","state":"West Bengal","state_code":"28","district":"South Dinajpur","district_code":"","address1":"Tapan","address2":"","latitude":"24.2416","longitude":"88.3456","accuracy":"1"},{"address3":"Gurail","state":"West Bengal","state_code":"28","district":"South Dinajpur","district_code":"","address1":"Tapan","address2":"","latitude":"24.2416","longitude":"88.3456","accuracy":"1"}],"733143":[{"address3":"Durlavpur","state":"West Bengal","state_code":"28","district":"North Dinajpur","district_code":"330","address1":"Itahar","address2":"","latitude":"25.881","longitude":"88.1583","accuracy":"4"},{"address3":"Sonapur","state":"West Bengal","state_code":"28","district":"North Dinajpur","district_code":"330","address1":"Raiganj","address2":"","latitude":"25.9889","longitude":"87.8419","accuracy":"4"},{"address3":"Parbatipur","state":"West Bengal","state_code":"28","district":"North Dinajpur","district_code":"330","address1":"Raiganj","address2":"","latitude":"25.881","longitude":"88.1583","accuracy":"4"},{"address3":"Bhupalpur","state":"West Bengal","state_code":"28","district":"North Dinajpur","district_code":"330","address1":"Raiganj","address2":"","latitude":"25.5373","longitude":"88.1548","accuracy":"4"},{"address3":"Hatgachhi","state":"West Bengal","state_code":"28","district":"North Dinajpur","district_code":"330","address1":"Itahar","address2":"","latitude":"24.4267","longitude":"88.0795","accuracy":"3"},{"address3":"Parergram","state":"West Bengal","state_code":"28","district":"North Dinajpur","district_code":"330","address1":"Raiganj","address2":"","latitude":"24.4267","longitude":"88.0795","accuracy":"3"},{"address3":"Bhagnail","state":"West Bengal","state_code":"28","district":"North Dinajpur","district_code":"330","address1":"Raiganj","address2":"","latitude":"24.4267","longitude":"88.0795","accuracy":"3"},{"address3":"Hasua Samadhimath","state":"West Bengal","state_code":"28","district":"North Dinajpur","district_code":"330","address1":"Itahar","address2":"","latitude":"24.4267","longitude":"88.0795","accuracy":"3"},{"address3":"Paraharipur","state":"West Bengal","state_code":"28","district":"North Dinajpur","district_code":"330","address1":"Itahar","address2":"","latitude":"24.4267","longitude":"88.0795","accuracy":"3"},{"address3":"Bekidanga","state":"West Bengal","state_code":"28","district":"North Dinajpur","district_code":"330","address1":"Itahar","address2":"","latitude":"24.4267","longitude":"88.0795","accuracy":"3"},{"address3":"Kamlai","state":"West Bengal","state_code":"28","district":"North Dinajpur","district_code":"330","address1":"Raiganj","address2":"","latitude":"24.4267","longitude":"88.0795","accuracy":"3"}],"733145":[{"address3":"Kamarpara","state":"West Bengal","state_code":"28","district":"South Dinajpur","district_code":"","address1":"Balurghat","address2":"","latitude":"26.4299","longitude":"89.9656","accuracy":"4"},{"address3":"Jamalpur","state":"West Bengal","state_code":"28","district":"South Dinajpur","district_code":"","address1":"Hilli","address2":"","latitude":"24.0551","longitude":"87.7262","accuracy":"4"},{"address3":"Thakurpurahat","state":"West Bengal","state_code":"28","district":"South Dinajpur","district_code":"","address1":"Balurghat","address2":"","latitude":"25.2425","longitude":"88.8459","accuracy":"3"},{"address3":"Teor","state":"West Bengal","state_code":"28","district":"South Dinajpur","district_code":"","address1":"Balurghat","address2":"","latitude":"25.2425","longitude":"88.8459","accuracy":"3"},{"address3":"Gopalbati","state":"West Bengal","state_code":"28","district":"South Dinajpur","district_code":"","address1":"Balurghat","address2":"","latitude":"25.2425","longitude":"88.8459","accuracy":"3"},{"address3":"Chingishpur","state":"West Bengal","state_code":"28","district":"South Dinajpur","district_code":"","address1":"Balurghat","address2":"","latitude":"25.2425","longitude":"88.8459","accuracy":"3"},{"address3":"Powrahar","state":"West Bengal","state_code":"28","district":"South Dinajpur","district_code":"","address1":"Hilli","address2":"","latitude":"25.2425","longitude":"88.8459","accuracy":"3"}],"733156":[{"address3":"Chainagar","state":"West Bengal","state_code":"28","district":"North Dinajpur","district_code":"330","address1":"Raiganj","address2":"","latitude":"25.7707","longitude":"88.1834","accuracy":"3"},{"address3":"Bindole","state":"West Bengal","state_code":"28","district":"North Dinajpur","district_code":"330","address1":"Raiganj","address2":"","latitude":"25.7707","longitude":"88.1834","accuracy":"4"},{"address3":"Maharajahat","state":"West Bengal","state_code":"28","district":"North Dinajpur","district_code":"330","address1":"Raiganj","address2":"","latitude":"25.7707","longitude":"88.1834","accuracy":"3"},{"address3":"Kantore","state":"West Bengal","state_code":"28","district":"North Dinajpur","district_code":"330","address1":"Raiganj","address2":"","latitude":"25.7707","longitude":"88.1834","accuracy":"3"},{"address3":"Bharatpur","state":"West Bengal","state_code":"28","district":"North Dinajpur","district_code":"330","address1":"Raiganj","address2":"","latitude":"25.7707","longitude":"88.1834","accuracy":"3"},{"address3":"Panchbhaya","state":"West Bengal","state_code":"28","district":"North Dinajpur","district_code":"330","address1":"Raiganj","address2":"","latitude":"25.7707","longitude":"88.1834","accuracy":"3"},{"address3":"Basian","state":"West Bengal","state_code":"28","district":"North Dinajpur","district_code":"330","address1":"Raiganj","address2":"","latitude":"25.7707","longitude":"88.1834","accuracy":"3"},{"address3":"Runia","state":"West Bengal","state_code":"28","district":"North Dinajpur","district_code":"330","address1":"Raiganj","address2":"","latitude":"25.7707","longitude":"88.1834","accuracy":"3"},{"address3":"Khokshan","state":"West Bengal","state_code":"28","district":"North Dinajpur","district_code":"330","address1":"Raiganj","address2":"","latitude":"25.7707","longitude":"88.1834","accuracy":"3"},{"address3":"Bhatolhat","state":"West Bengal","state_code":"28","district":"North Dinajpur","district_code":"330","address1":"Raiganj","address2":"","latitude":"25.7707","longitude":"88.1834","accuracy":"3"},{"address3":"Laxmonia","state":"West Bengal","state_code":"28","district":"North Dinajpur","district_code":"330","address1":"Raiganj","address2":"","latitude":"25.7707","longitude":"88.1834","accuracy":"3"}],"733158":[{"address3":"Baul","state":"West Bengal","state_code":"28","district":"South Dinajpur","district_code":"","address1":"Balurghat","address2":"","latitude":"25.7707","longitude":"88.1834","accuracy":"1"},{"address3":"Bolla","state":"West Bengal","state_code":"28","district":"South Dinajpur","district_code":"","address1":"Balurghat","address2":"","latitude":"25.7707","longitude":"88.1834","accuracy":"1"},{"address3":"Atrai","state":"West Bengal","state_code":"28","district":"South Dinajpur","district_code":"","address1":"Balurghat","address2":"","latitude":"25.7707","longitude":"88.1834","accuracy":"1"}],"733201":[{"address3":"Sripur","state":"West Bengal","state_code":"28","district":"North Dinajpur","district_code":"330","address1":"Dalkhola","address2":"","latitude":"25.881","longitude":"88.1583","accuracy":"4"},{"address3":"Jagadishpur","state":"West Bengal","state_code":"28","district":"North Dinajpur","district_code":"330","address1":"Dalkhola","address2":"","latitude":"25.881","longitude":"88.1583","accuracy":"4"},{"address3":"Shikarpur","state":"West Bengal","state_code":"28","district":"North Dinajpur","district_code":"330","address1":"Dalkhola","address2":"","latitude":"25.9084","longitude":"87.8538","accuracy":"4"},{"address3":"Maheshpur","state":"West Bengal","state_code":"28","district":"North Dinajpur","district_code":"330","address1":"Karandighi","address2":"","latitude":"25.881","longitude":"88.1583","accuracy":"4"},{"address3":"Andharia","state":"West Bengal","state_code":"28","district":"North Dinajpur","district_code":"330","address1":"Dalkhola","address2":"","latitude":"25.3471","longitude":"87.8817","accuracy":"3"},{"address3":"Rashokhowahat","state":"West Bengal","state_code":"28","district":"North Dinajpur","district_code":"330","address1":"Karandighi","address2":"","latitude":"25.3471","longitude":"87.8817","accuracy":"3"},{"address3":"Patnaur","state":"West Bengal","state_code":"28","district":"North Dinajpur","district_code":"330","address1":"Karandighi","address2":"","latitude":"25.8583","longitude":"87.9087","accuracy":"4"},{"address3":"Magnavita","state":"West Bengal","state_code":"28","district":"North Dinajpur","district_code":"330","address1":"Karandighi","address2":"","latitude":"25.3471","longitude":"87.8817","accuracy":"3"},{"address3":"Dalkhola","state":"West Bengal","state_code":"28","district":"North Dinajpur","district_code":"330","address1":"Karandighi","address2":"","latitude":"25.876","longitude":"87.839","accuracy":"4"},{"address3":"Khurka","state":"West Bengal","state_code":"28","district":"North Dinajpur","district_code":"330","address1":"Dalkhola","address2":"","latitude":"25.3471","longitude":"87.8817","accuracy":"3"},{"address3":"Lalganj","state":"West Bengal","state_code":"28","district":"North Dinajpur","district_code":"330","address1":"Goalpokhar - II","address2":"","latitude":"25.9307","longitude":"87.9232","accuracy":"4"},{"address3":"Bazargaon","state":"West Bengal","state_code":"28","district":"North Dinajpur","district_code":"330","address1":"Dalkhola","address2":"","latitude":"25.3471","longitude":"87.8817","accuracy":"3"}],"733202":[{"address3":"Islampur (North Dinajpur)","state":"West Bengal","state_code":"28","district":"North Dinajpur","district_code":"330","address1":"Islampur","address2":"","latitude":"26.2654","longitude":"88.1898","accuracy":"4"},{"address3":"Burhijagir","state":"West Bengal","state_code":"28","district":"North Dinajpur","district_code":"330","address1":"Islampur","address2":"","latitude":"26.2654","longitude":"88.1898","accuracy":"3"},{"address3":"Haptiagachh","state":"West Bengal","state_code":"28","district":"North Dinajpur","district_code":"330","address1":"Chopra","address2":"","latitude":"26.2654","longitude":"88.1898","accuracy":"3"},{"address3":"Dimrulla","state":"West Bengal","state_code":"28","district":"North Dinajpur","district_code":"330","address1":"Ilsmapur","address2":"","latitude":"26.2654","longitude":"88.1898","accuracy":"3"},{"address3":"Jagtagaon","state":"West Bengal","state_code":"28","district":"North Dinajpur","district_code":"330","address1":"Islampur","address2":"","latitude":"26.2654","longitude":"88.1898","accuracy":"3"},{"address3":"State Farm Colony","state":"West Bengal","state_code":"28","district":"North Dinajpur","district_code":"330","address1":"Islampur","address2":"","latitude":"26.2654","longitude":"88.1898","accuracy":"3"},{"address3":"Sonapur Hat","state":"West Bengal","state_code":"28","district":"North Dinajpur","district_code":"330","address1":"Chopra","address2":"","latitude":"26.2654","longitude":"88.1898","accuracy":"3"},{"address3":"Dulalibhita","state":"West Bengal","state_code":"28","district":"North Dinajpur","district_code":"330","address1":"Islampur","address2":"","latitude":"26.2654","longitude":"88.1898","accuracy":"3"},{"address3":"Srikrishnapur Colony","state":"West Bengal","state_code":"28","district":"North Dinajpur","district_code":"330","address1":"Islampur","address2":"","latitude":"26.2654","longitude":"88.1898","accuracy":"3"},{"address3":"Panchdimthi","state":"West Bengal","state_code":"28","district":"North Dinajpur","district_code":"330","address1":"Islampur","address2":"","latitude":"26.2654","longitude":"88.1898","accuracy":"3"},{"address3":"Khunti","state":"West Bengal","state_code":"28","district":"North Dinajpur","district_code":"330","address1":"Islampur","address2":"","latitude":"26.2654","longitude":"88.1898","accuracy":"3"},{"address3":"Larukhoa Gobindapur","state":"West Bengal","state_code":"28","district":"North Dinajpur","district_code":"330","address1":"Islampur","address2":"","latitude":"26.2654","longitude":"88.1898","accuracy":"3"},{"address3":"Matikundahat","state":"West Bengal","state_code":"28","district":"North Dinajpur","district_code":"330","address1":"Islampur","address2":"","latitude":"26.2654","longitude":"88.1898","accuracy":"3"},{"address3":"Kodaldaha","state":"West Bengal","state_code":"28","district":"North Dinajpur","district_code":"330","address1":"Islampur","address2":"","latitude":"26.2654","longitude":"88.1898","accuracy":"3"},{"address3":"Kalanagin","state":"West Bengal","state_code":"28","district":"North Dinajpur","district_code":"330","address1":"Islampur","address2":"","latitude":"26.2654","longitude":"88.1898","accuracy":"3"},{"address3":"Amaljhari","state":"West Bengal","state_code":"28","district":"North Dinajpur","district_code":"330","address1":"Islampur","address2":"","latitude":"26.2654","longitude":"88.1898","accuracy":"3"},{"address3":"Gunjaria Bazar","state":"West Bengal","state_code":"28","district":"North Dinajpur","district_code":"330","address1":"Islampur","address2":"","latitude":"26.2654","longitude":"88.1898","accuracy":"3"},{"address3":"Islampur Court","state":"West Bengal","state_code":"28","district":"North Dinajpur","district_code":"330","address1":"Islampur","address2":"","latitude":"26.2654","longitude":"88.1898","accuracy":"3"},{"address3":"Dhantala","state":"West Bengal","state_code":"28","district":"North Dinajpur","district_code":"330","address1":"Islampur","address2":"","latitude":"26.2654","longitude":"88.1898","accuracy":"3"}],"733207":[{"address3":"Chopra","state":"West Bengal","state_code":"28","district":"North Dinajpur","district_code":"330","address1":"Chopra","address2":"","latitude":"26.3676","longitude":"88.3126","accuracy":"4"},{"address3":"Narayanpur","state":"West Bengal","state_code":"28","district":"North Dinajpur","district_code":"330","address1":"Islampur","address2":"","latitude":"25.881","longitude":"88.1583","accuracy":"4"},{"address3":"Ramganj (North Dinajpur)","state":"West Bengal","state_code":"28","district":"North Dinajpur","district_code":"330","address1":"Islampur","address2":"","latitude":"26.3179","longitude":"88.29","accuracy":"4"},{"address3":"Daspara","state":"West Bengal","state_code":"28","district":"North Dinajpur","district_code":"330","address1":"Chopra","address2":"","latitude":"25.881","longitude":"88.1583","accuracy":"4"},{"address3":"Manikpur","state":"West Bengal","state_code":"28","district":"North Dinajpur","district_code":"330","address1":"Islampur","address2":"","latitude":"25.7574","longitude":"87.9919","accuracy":"4"},{"address3":"Bhaispitta","state":"West Bengal","state_code":"28","district":"North Dinajpur","district_code":"330","address1":"Chopra","address2":"","latitude":"25.577","longitude":"88.0713","accuracy":"3"},{"address3":"Khunia","state":"West Bengal","state_code":"28","district":"North Dinajpur","district_code":"330","address1":"Goalpokhar - I","address2":"","latitude":"25.577","longitude":"88.0713","accuracy":"3"},{"address3":"Molani","state":"West Bengal","state_code":"28","district":"North Dinajpur","district_code":"330","address1":"Chopra","address2":"","latitude":"25.577","longitude":"88.0713","accuracy":"3"},{"address3":"Sujali","state":"West Bengal","state_code":"28","district":"North Dinajpur","district_code":"330","address1":"Chopra","address2":"","latitude":"25.577","longitude":"88.0713","accuracy":"3"},{"address3":"Lakshipur","state":"West Bengal","state_code":"28","district":"North Dinajpur","district_code":"330","address1":"Islampur","address2":"","latitude":"25.577","longitude":"88.0713","accuracy":"3"},{"address3":"Dighabanahat","state":"West Bengal","state_code":"28","district":"North Dinajpur","district_code":"330","address1":"Chopra","address2":"","latitude":"25.577","longitude":"88.0713","accuracy":"3"},{"address3":"Chargharia","state":"West Bengal","state_code":"28","district":"North Dinajpur","district_code":"330","address1":"Chopra","address2":"","latitude":"25.577","longitude":"88.0713","accuracy":"3"},{"address3":"Kuchilagoan","state":"West Bengal","state_code":"28","district":"North Dinajpur","district_code":"330","address1":"Islampur","address2":"","latitude":"25.577","longitude":"88.0713","accuracy":"3"},{"address3":"Gharugachh","state":"West Bengal","state_code":"28","district":"North Dinajpur","district_code":"330","address1":"Chopra","address2":"","latitude":"25.577","longitude":"88.0713","accuracy":"3"},{"address3":"Debijhora","state":"West Bengal","state_code":"28","district":"North Dinajpur","district_code":"330","address1":"Chopra","address2":"","latitude":"25.577","longitude":"88.0713","accuracy":"3"},{"address3":"Kaimari","state":"West Bengal","state_code":"28","district":"North Dinajpur","district_code":"330","address1":"Islampur","address2":"","latitude":"25.577","longitude":"88.0713","accuracy":"3"},{"address3":"Chandanidanga","state":"West Bengal","state_code":"28","district":"North Dinajpur","district_code":"330","address1":"Chopra","address2":"","latitude":"25.577","longitude":"88.0713","accuracy":"3"},{"address3":"Gendagachh","state":"West Bengal","state_code":"28","district":"North Dinajpur","district_code":"330","address1":"Chopra","address2":"","latitude":"25.577","longitude":"88.0713","accuracy":"3"},{"address3":"Asharubasti","state":"West Bengal","state_code":"28","district":"North Dinajpur","district_code":"330","address1":"Chopra","address2":"","latitude":"25.577","longitude":"88.0713","accuracy":"3"}],"733208":[{"address3":"Panjipara","state":"West Bengal","state_code":"28","district":"North Dinajpur","district_code":"330","address1":"Islampur","address2":"","latitude":"26.1371","longitude":"88.021","accuracy":"4"},{"address3":"Tarial","state":"West Bengal","state_code":"28","district":"North Dinajpur","district_code":"330","address1":"Islampur","address2":"","latitude":"25.974","longitude":"87.9658","accuracy":"4"},{"address3":"Ikarchala","state":"West Bengal","state_code":"28","district":"North Dinajpur","district_code":"330","address1":"Islampur","address2":"","latitude":"26.0528","longitude":"87.9738","accuracy":"3"},{"address3":"Thakurbari","state":"West Bengal","state_code":"28","district":"North Dinajpur","district_code":"330","address1":"Goalpokhar - II","address2":"","latitude":"26.0475","longitude":"87.9347","accuracy":"4"},{"address3":"Goalgoan","state":"West Bengal","state_code":"28","district":"North Dinajpur","district_code":"330","address1":"Islampur","address2":"","latitude":"26.0528","longitude":"87.9738","accuracy":"3"},{"address3":"Chakulia Hat","state":"West Bengal","state_code":"28","district":"North Dinajpur","district_code":"330","address1":"Islampur","address2":"","latitude":"26.0528","longitude":"87.9738","accuracy":"3"},{"address3":"Nando","state":"West Bengal","state_code":"28","district":"North Dinajpur","district_code":"330","address1":"Goalpokhar - I","address2":"","latitude":"26.0528","longitude":"87.9738","accuracy":"3"},{"address3":"Kaniabhita","state":"West Bengal","state_code":"28","district":"North Dinajpur","district_code":"330","address1":"Goalpokhar - I","address2":"","latitude":"26.0528","longitude":"87.9738","accuracy":"3"},{"address3":"Baidyanandapur","state":"West Bengal","state_code":"28","district":"North Dinajpur","district_code":"330","address1":"Islampur","address2":"","latitude":"26.0528","longitude":"87.9738","accuracy":"3"},{"address3":"Pokhoria","state":"West Bengal","state_code":"28","district":"North Dinajpur","district_code":"330","address1":"Islampur","address2":"","latitude":"26.0528","longitude":"87.9738","accuracy":"3"},{"address3":"Bhebra","state":"West Bengal","state_code":"28","district":"North Dinajpur","district_code":"330","address1":"Goalpokhar - II","address2":"","latitude":"26.0528","longitude":"87.9738","accuracy":"3"},{"address3":"Sakuntala","state":"West Bengal","state_code":"28","district":"North Dinajpur","district_code":"330","address1":"Goalpokhar - II","address2":"","latitude":"26.0528","longitude":"87.9738","accuracy":"3"},{"address3":"Khikirtola","state":"West Bengal","state_code":"28","district":"North Dinajpur","district_code":"330","address1":"Islampur","address2":"","latitude":"26.0528","longitude":"87.9738","accuracy":"3"},{"address3":"Chapore","state":"West Bengal","state_code":"28","district":"North Dinajpur","district_code":"330","address1":"Goalpokhar - II","address2":"","latitude":"26.0528","longitude":"87.9738","accuracy":"3"},{"address3":"Amalia","state":"West Bengal","state_code":"28","district":"North Dinajpur","district_code":"330","address1":"Islampur","address2":"","latitude":"26.0528","longitude":"87.9738","accuracy":"3"},{"address3":"Gohara","state":"West Bengal","state_code":"28","district":"North Dinajpur","district_code":"330","address1":"Islampur","address2":"","latitude":"26.0528","longitude":"87.9738","accuracy":"3"}],"733209":[{"address3":"Galia","state":"West Bengal","state_code":"28","district":"North Dinajpur","district_code":"330","address1":"Karandighi","address2":"","latitude":"25.9662","longitude":"87.9066","accuracy":"4"},{"address3":"Bagdob","state":"West Bengal","state_code":"28","district":"North Dinajpur","district_code":"330","address1":"Karandighi","address2":"","latitude":"25.9863","longitude":"87.8867","accuracy":"4"},{"address3":"Hassan","state":"West Bengal","state_code":"28","district":"North Dinajpur","district_code":"330","address1":"Karandighi","address2":"","latitude":"26.0021","longitude":"87.888","accuracy":"3"},{"address3":"Simalia","state":"West Bengal","state_code":"28","district":"North Dinajpur","district_code":"330","address1":"Goalpokhar - II","address2":"","latitude":"26.0081","longitude":"87.8727","accuracy":"4"},{"address3":"Monora","state":"West Bengal","state_code":"28","district":"North Dinajpur","district_code":"330","address1":"Karandighi","address2":"","latitude":"26.0021","longitude":"87.888","accuracy":"3"},{"address3":"Surjapur","state":"West Bengal","state_code":"28","district":"North Dinajpur","district_code":"330","address1":"Goalpokhar - II","address2":"","latitude":"25.9356","longitude":"87.8533","accuracy":"4"},{"address3":"Asuragarh","state":"West Bengal","state_code":"28","district":"North Dinajpur","district_code":"330","address1":"Karandighi","address2":"","latitude":"26.0021","longitude":"87.888","accuracy":"3"},{"address3":"Bharna","state":"West Bengal","state_code":"28","district":"North Dinajpur","district_code":"330","address1":"Goalpokhar - II","address2":"","latitude":"26.0297","longitude":"87.9179","accuracy":"4"},{"address3":"Sayedpur Bhamantali","state":"West Bengal","state_code":"28","district":"North Dinajpur","district_code":"330","address1":"Karandighi","address2":"","latitude":"26.0021","longitude":"87.888","accuracy":"3"},{"address3":"Hatwar","state":"West Bengal","state_code":"28","district":"North Dinajpur","district_code":"330","address1":"Karandighi","address2":"","latitude":"26.0557","longitude":"87.8966","accuracy":"4"},{"address3":"Majlishpur","state":"West Bengal","state_code":"28","district":"North Dinajpur","district_code":"330","address1":"Karandighi","address2":"","latitude":"26.0021","longitude":"87.888","accuracy":"3"},{"address3":"Kanki","state":"West Bengal","state_code":"28","district":"North Dinajpur","district_code":"330","address1":"Karandighi","address2":"","latitude":"26.0183","longitude":"87.8705","accuracy":"4"},{"address3":"Nizampur","state":"West Bengal","state_code":"28","district":"North Dinajpur","district_code":"330","address1":"Karandighi","address2":"","latitude":"26.017","longitude":"87.9001","accuracy":"4"}],"733210":[{"address3":"Bahar","state":"West Bengal","state_code":"28","district":"North Dinajpur","district_code":"330","address1":"Goalpukher","address2":"","latitude":"25.881","longitude":"88.1583","accuracy":"4"},{"address3":"Sahapur","state":"West Bengal","state_code":"28","district":"North Dinajpur","district_code":"330","address1":"Goalpokhar - I","address2":"","latitude":"25.881","longitude":"88.1583","accuracy":"4"},{"address3":"Bhabanbari","state":"West Bengal","state_code":"28","district":"North Dinajpur","district_code":"330","address1":"Goalpukher","address2":"","latitude":"25.2082","longitude":"87.9116","accuracy":"3"},{"address3":"Debiganj","state":"West Bengal","state_code":"28","district":"North Dinajpur","district_code":"330","address1":"Goalpukher","address2":"","latitude":"25.881","longitude":"88.1583","accuracy":"4"},{"address3":"Gendabari","state":"West Bengal","state_code":"28","district":"North Dinajpur","district_code":"330","address1":"Goalpokhar - I","address2":"","latitude":"25.2082","longitude":"87.9116","accuracy":"3"},{"address3":"Jharbari","state":"West Bengal","state_code":"28","district":"North Dinajpur","district_code":"330","address1":"Goalpukher","address2":"","latitude":"25.7918","longitude":"87.9267","accuracy":"4"},{"address3":"Khagore","state":"West Bengal","state_code":"28","district":"North Dinajpur","district_code":"330","address1":"Goalpokhar - I","address2":"","latitude":"25.2082","longitude":"87.9116","accuracy":"3"},{"address3":"Kichaktola","state":"West Bengal","state_code":"28","district":"North Dinajpur","district_code":"330","address1":"Goalpukher","address2":"","latitude":"25.2082","longitude":"87.9116","accuracy":"3"},{"address3":"Dehar","state":"West Bengal","state_code":"28","district":"North Dinajpur","district_code":"330","address1":"Goalpukher","address2":"","latitude":"25.2082","longitude":"87.9116","accuracy":"3"},{"address3":"Barbilla","state":"West Bengal","state_code":"28","district":"North Dinajpur","district_code":"330","address1":"Goalpukher","address2":"","latitude":"25.2082","longitude":"87.9116","accuracy":"3"},{"address3":"Hatkholasahapur","state":"West Bengal","state_code":"28","district":"North Dinajpur","district_code":"330","address1":"Goalpukher","address2":"","latitude":"25.2082","longitude":"87.9116","accuracy":"3"},{"address3":"Goalpokher","state":"West Bengal","state_code":"28","district":"North Dinajpur","district_code":"330","address1":"Goalpokhar - I","address2":"","latitude":"25.2082","longitude":"87.9116","accuracy":"3"},{"address3":"Goalin","state":"West Bengal","state_code":"28","district":"North Dinajpur","district_code":"330","address1":"Goalpukher","address2":"","latitude":"25.2082","longitude":"87.9116","accuracy":"3"},{"address3":"Goti","state":"West Bengal","state_code":"28","district":"North Dinajpur","district_code":"330","address1":"Goalpokhar - I","address2":"","latitude":"25.2082","longitude":"87.9116","accuracy":"3"},{"address3":"Lalkuri","state":"West Bengal","state_code":"28","district":"North Dinajpur","district_code":"330","address1":"Goalpukher","address2":"","latitude":"25.2082","longitude":"87.9116","accuracy":"3"},{"address3":"Malkunda","state":"West Bengal","state_code":"28","district":"North Dinajpur","district_code":"330","address1":"Goalpokhar - I","address2":"","latitude":"25.2082","longitude":"87.9116","accuracy":"3"},{"address3":"Bhendabari","state":"West Bengal","state_code":"28","district":"North Dinajpur","district_code":"330","address1":"Goalpokhar - I","address2":"","latitude":"25.2082","longitude":"87.9116","accuracy":"3"},{"address3":"Baramajlishpur","state":"West Bengal","state_code":"28","district":"North Dinajpur","district_code":"330","address1":"Goalpokhar - I","address2":"","latitude":"25.2082","longitude":"87.9116","accuracy":"3"},{"address3":"Betna","state":"West Bengal","state_code":"28","district":"North Dinajpur","district_code":"330","address1":"Karandighi","address2":"","latitude":"25.2082","longitude":"87.9116","accuracy":"3"},{"address3":"Goagaon","state":"West Bengal","state_code":"28","district":"North Dinajpur","district_code":"330","address1":"Goalpukher","address2":"","latitude":"25.2082","longitude":"87.9116","accuracy":"3"},{"address3":"Solpara","state":"West Bengal","state_code":"28","district":"North Dinajpur","district_code":"330","address1":"Goalpukher","address2":"","latitude":"25.2082","longitude":"87.9116","accuracy":"3"}],"733215":[{"address3":"Tungidighi","state":"West Bengal","state_code":"28","district":"North Dinajpur","district_code":"330","address1":"Karandighi","address2":"","latitude":"25.7836","longitude":"87.9327","accuracy":"4"},{"address3":"Doarin","state":"West Bengal","state_code":"28","district":"North Dinajpur","district_code":"330","address1":"Karandighi","address2":"","latitude":"25.8075","longitude":"87.9768","accuracy":"4"},{"address3":"Madargachhi","state":"West Bengal","state_code":"28","district":"North Dinajpur","district_code":"330","address1":"Karandighi","address2":"","latitude":"25.8554","longitude":"87.9485","accuracy":"4"},{"address3":"Domohana","state":"West Bengal","state_code":"28","district":"North Dinajpur","district_code":"330","address1":"Karandighi","address2":"","latitude":"25.7973","longitude":"87.957","accuracy":"3"},{"address3":"Altapur","state":"West Bengal","state_code":"28","district":"North Dinajpur","district_code":"330","address1":"Karandighi","address2":"","latitude":"25.7315","longitude":"87.9951","accuracy":"4"},{"address3":"Kamartore","state":"West Bengal","state_code":"28","district":"North Dinajpur","district_code":"330","address1":"Karandighi","address2":"","latitude":"25.7973","longitude":"87.957","accuracy":"3"},{"address3":"Karandighi","state":"West Bengal","state_code":"28","district":"North Dinajpur","district_code":"330","address1":"Karandighi","address2":"","latitude":"25.8088","longitude":"87.932","accuracy":"4"},{"address3":"Sawdhan","state":"West Bengal","state_code":"28","district":"North Dinajpur","district_code":"330","address1":"Karandighi","address2":"","latitude":"25.7973","longitude":"87.957","accuracy":"3"}],"credits":[{"name":"geonames","url":"https://www.geonames.org"}],"last_update":"2019-03-01T09:01:36.138Z"}