{"734001":[{"address3":"Siliguri Road","state":"West Bengal","state_code":"28","district":"Darjiling","district_code":"327","address1":"Siliguri","address2":"","latitude":"26.731","longitude":"88.9486","accuracy":"1"},{"address3":"Subashpally","state":"West Bengal","state_code":"28","district":"Darjiling","district_code":"327","address1":"Siliguri","address2":"","latitude":"26.731","longitude":"88.9486","accuracy":"1"},{"address3":"Siliguri New Market","state":"West Bengal","state_code":"28","district":"Darjiling","district_code":"327","address1":"Siliguri","address2":"","latitude":"26.731","longitude":"88.9486","accuracy":"1"},{"address3":"Mahananda Bridge","state":"West Bengal","state_code":"28","district":"Darjiling","district_code":"327","address1":"Siliguri","address2":"","latitude":"26.731","longitude":"88.9486","accuracy":"1"},{"address3":"Rath Khola","state":"West Bengal","state_code":"28","district":"Darjiling","district_code":"327","address1":"Siliguri","address2":"","latitude":"26.731","longitude":"88.9486","accuracy":"1"},{"address3":"Siliguri Junction","state":"West Bengal","state_code":"28","district":"Darjiling","district_code":"327","address1":"Siliguri","address2":"","latitude":"26.731","longitude":"88.9486","accuracy":"1"},{"address3":"Sevoke Road","state":"West Bengal","state_code":"28","district":"Darjiling","district_code":"327","address1":"Siliguri","address2":"","latitude":"26.731","longitude":"88.9486","accuracy":"1"},{"address3":"Siliguri H.O","state":"West Bengal","state_code":"28","district":"Darjiling","district_code":"327","address1":"Siliguri","address2":"","latitude":"26.731","longitude":"88.9486","accuracy":"1"},{"address3":"Saktigarh (Jalpaiguri)","state":"West Bengal","state_code":"28","district":"Jalpaiguri","district_code":"328","address1":"Rajganj","address2":"","latitude":"26.731","longitude":"88.9486","accuracy":"1"},{"address3":"Vivekanandapally","state":"West Bengal","state_code":"28","district":"Jalpaiguri","district_code":"328","address1":"Rajganj","address2":"","latitude":"26.731","longitude":"88.9486","accuracy":"1"}],"734002":[{"address3":"Salbari","state":"West Bengal","state_code":"28","district":"Darjiling","district_code":"327","address1":"Kurseong","address2":"","latitude":"26.9135","longitude":"88.3947","accuracy":"4"}],"734003":[{"address3":"Pradhan Nagar","state":"West Bengal","state_code":"28","district":"Darjiling","district_code":"327","address1":"Siliguri","address2":"","latitude":"26.731","longitude":"88.9486","accuracy":"1"},{"address3":"Champasari","state":"West Bengal","state_code":"28","district":"Darjiling","district_code":"327","address1":"Siliguri","address2":"","latitude":"26.731","longitude":"88.9486","accuracy":"1"}],"734004":[{"address3":"Desbandhupara","state":"West Bengal","state_code":"28","district":"Darjiling","district_code":"327","address1":"Siliguri","address2":"","latitude":"26.731","longitude":"88.9486","accuracy":"1"},{"address3":"Siliguri Town","state":"West Bengal","state_code":"28","district":"Darjiling","district_code":"327","address1":"Siliguri","address2":"","latitude":"26.731","longitude":"88.9486","accuracy":"1"},{"address3":"Dabgram","state":"West Bengal","state_code":"28","district":"Jalpaiguri","district_code":"328","address1":"Rajganj","address2":"","latitude":"26.731","longitude":"88.9486","accuracy":"1"}],"734005":[{"address3":"Siliguri Bazar","state":"West Bengal","state_code":"28","district":"Darjiling","district_code":"327","address1":"Siliguri","address2":"","latitude":"26.731","longitude":"88.9486","accuracy":"1"},{"address3":"Jyoti Nagar","state":"West Bengal","state_code":"28","district":"Darjiling","district_code":"327","address1":"Siliguri","address2":"","latitude":"26.731","longitude":"88.9486","accuracy":"1"}],"734006":[{"address3":"Rabindra Sarani","state":"West Bengal","state_code":"28","district":"Jalpaiguri","district_code":"328","address1":"Rajganj","address2":"","latitude":"26.731","longitude":"88.9486","accuracy":"1"},{"address3":"Haidarpara","state":"West Bengal","state_code":"28","district":"Jalpaiguri","district_code":"328","address1":"Rajganj","address2":"","latitude":"26.731","longitude":"88.9486","accuracy":"1"},{"address3":"Ghugumali","state":"West Bengal","state_code":"28","district":"Jalpaiguri","district_code":"328","address1":"Rajganj","address2":"","latitude":"26.731","longitude":"88.9486","accuracy":"1"}],"734007":[{"address3":"Lake Town (Darjiling)","state":"West Bengal","state_code":"28","district":"Darjiling","district_code":"327","address1":"Siliguri","address2":"","latitude":"26.731","longitude":"88.9486","accuracy":"1"},{"address3":"Bhaktinagar","state":"West Bengal","state_code":"28","district":"Jalpaiguri","district_code":"328","address1":"Rajganj","address2":"","latitude":"26.731","longitude":"88.9486","accuracy":"1"},{"address3":"East Bhaktinagar","state":"West Bengal","state_code":"28","district":"Jalpaiguri","district_code":"328","address1":"Rajganj","address2":"","latitude":"26.731","longitude":"88.9486","accuracy":"1"}],"734008":[{"address3":"Latpanchar","state":"West Bengal","state_code":"28","district":"Darjiling","district_code":"327","address1":"Siliguri","address2":"","latitude":"26.731","longitude":"88.9486","accuracy":"1"},{"address3":"Salugarah","state":"West Bengal","state_code":"28","district":"Darjiling","district_code":"327","address1":"Kurseong","address2":"","latitude":"26.731","longitude":"88.9486","accuracy":"1"},{"address3":"Selpu","state":"West Bengal","state_code":"28","district":"Darjiling","district_code":"327","address1":"Siliguri","address2":"","latitude":"26.731","longitude":"88.9486","accuracy":"1"},{"address3":"Sitong","state":"West Bengal","state_code":"28","district":"Darjiling","district_code":"327","address1":"Siliguri","address2":"","latitude":"26.731","longitude":"88.9486","accuracy":"1"},{"address3":"Lohapool","state":"West Bengal","state_code":"28","district":"Darjiling","district_code":"327","address1":"Kalimpong -I","address2":"","latitude":"26.731","longitude":"88.9486","accuracy":"1"},{"address3":"Baigunta Pur","state":"West Bengal","state_code":"28","district":"Darjiling","district_code":"327","address1":"Kurseong","address2":"","latitude":"26.731","longitude":"88.9486","accuracy":"1"}],"734009":[{"address3":"New Chumta","state":"West Bengal","state_code":"28","district":"Darjiling","district_code":"327","address1":"Siliguri","address2":"","latitude":"26.731","longitude":"88.9486","accuracy":"1"},{"address3":"Simulbari","state":"West Bengal","state_code":"28","district":"Darjiling","district_code":"327","address1":"Kurseong","address2":"","latitude":"26.731","longitude":"88.9486","accuracy":"1"},{"address3":"Sukna","state":"West Bengal","state_code":"28","district":"Darjiling","district_code":"327","address1":"Kurseong","address2":"","latitude":"26.731","longitude":"88.9486","accuracy":"1"},{"address3":"Gulma","state":"West Bengal","state_code":"28","district":"Darjiling","district_code":"327","address1":"Siliguri","address2":"","latitude":"26.731","longitude":"88.9486","accuracy":"1"}],"734010":[{"address3":"Nemai","state":"West Bengal","state_code":"28","district":"Darjiling","district_code":"327","address1":"Siliguri","address2":"","latitude":"26.723","longitude":"88.3806","accuracy":"3"},{"address3":"Matigara","state":"West Bengal","state_code":"28","district":"Darjiling","district_code":"327","address1":"Siliguri","address2":"","latitude":"26.723","longitude":"88.3806","accuracy":"4"}],"734011":[{"address3":"Kadamtala (Darjiling)","state":"West Bengal","state_code":"28","district":"Darjiling","district_code":"327","address1":"Naxalbari","address2":"","latitude":"26.7111","longitude":"88.3462","accuracy":"1"}],"734012":[{"address3":"Sushrut Nagar","state":"West Bengal","state_code":"28","district":"Darjiling","district_code":"327","address1":"Siliguri","address2":"","latitude":"26.7111","longitude":"88.3462","accuracy":"1"},{"address3":"Ranidanga","state":"West Bengal","state_code":"28","district":"Darjiling","district_code":"327","address1":"Siliguri","address2":"","latitude":"26.7111","longitude":"88.3462","accuracy":"1"}],"734013":[{"address3":"North Bengal University","state":"West Bengal","state_code":"28","district":"Darjiling","district_code":"327","address1":"Matigara","address2":"","latitude":"26.7111","longitude":"88.3462","accuracy":"1"},{"address3":"New Rangia","state":"West Bengal","state_code":"28","district":"Darjiling","district_code":"327","address1":"Matigara","address2":"","latitude":"26.7111","longitude":"88.3462","accuracy":"1"}],"734014":[{"address3":"Bagdogra","state":"West Bengal","state_code":"28","district":"Darjiling","district_code":"327","address1":"Phansidewa","address2":"","latitude":"26.6993","longitude":"88.3118","accuracy":"4"},{"address3":"Chowpukuria","state":"West Bengal","state_code":"28","district":"Darjiling","district_code":"327","address1":"Darjeeling","address2":"","latitude":"26.6993","longitude":"88.3118","accuracy":"3"},{"address3":"Tarbandha","state":"West Bengal","state_code":"28","district":"Darjiling","district_code":"327","address1":"Siliguri","address2":"","latitude":"26.6993","longitude":"88.3118","accuracy":"3"},{"address3":"Gossaipur","state":"West Bengal","state_code":"28","district":"Darjiling","district_code":"327","address1":"Matigara","address2":"","latitude":"26.6993","longitude":"88.3118","accuracy":"3"}],"734015":[{"address3":"Mahananda Project","state":"West Bengal","state_code":"28","district":"Jalpaiguri","district_code":"328","address1":"Rajganj","address2":"","latitude":"26.7111","longitude":"88.3462","accuracy":"1"},{"address3":"Fulbari Hat","state":"West Bengal","state_code":"28","district":"Jalpaiguri","district_code":"328","address1":"Rajganj","address2":"","latitude":"26.7111","longitude":"88.3462","accuracy":"1"},{"address3":"Satellite Township","state":"West Bengal","state_code":"28","district":"Jalpaiguri","district_code":"328","address1":"Rajganj","address2":"","latitude":"26.7111","longitude":"88.3462","accuracy":"1"}],"734101":[{"address3":"Darjeeling H.O","state":"West Bengal","state_code":"28","district":"Darjiling","district_code":"327","address1":"Darjeeling Pulbazar","address2":"","latitude":"27.051","longitude":"88.2618","accuracy":"1"},{"address3":"Bhanugram","state":"West Bengal","state_code":"28","district":"Darjiling","district_code":"327","address1":"Darjeeling Pulbazar","address2":"","latitude":"27.051","longitude":"88.2618","accuracy":"1"},{"address3":"Bhutia Busty","state":"West Bengal","state_code":"28","district":"Darjiling","district_code":"327","address1":"Darjeeling Pulbazar","address2":"","latitude":"27.051","longitude":"88.2618","accuracy":"1"},{"address3":"Darjeeling Court","state":"West Bengal","state_code":"28","district":"Darjiling","district_code":"327","address1":"Darjeeling Pulbazar","address2":"","latitude":"27.051","longitude":"88.2618","accuracy":"1"},{"address3":"Rose Bank","state":"West Bengal","state_code":"28","district":"Darjiling","district_code":"327","address1":"Darjeeling Pulbazar","address2":"","latitude":"27.051","longitude":"88.2618","accuracy":"1"},{"address3":"Darjeeling Bazar","state":"West Bengal","state_code":"28","district":"Darjiling","district_code":"327","address1":"Darjeeling Pulbazar","address2":"","latitude":"27.051","longitude":"88.2618","accuracy":"1"}],"734102":[{"address3":"Tamsang","state":"West Bengal","state_code":"28","district":"Darjiling","district_code":"327","address1":"Darjeeling","address2":"","latitude":"27.009","longitude":"88.2169","accuracy":"4"},{"address3":"Ghoom","state":"West Bengal","state_code":"28","district":"Darjiling","district_code":"327","address1":"Darjeeling","address2":"","latitude":"27.0069","longitude":"88.2577","accuracy":"4"},{"address3":"Lingia","state":"West Bengal","state_code":"28","district":"Darjiling","district_code":"327","address1":"Darjeeling","address2":"","latitude":"27.008","longitude":"88.2373","accuracy":"3"},{"address3":"Gumba","state":"West Bengal","state_code":"28","district":"Darjiling","district_code":"327","address1":"Darjeeling Pulbazar","address2":"","latitude":"27.008","longitude":"88.2373","accuracy":"3"},{"address3":"Lower Chongtong","state":"West Bengal","state_code":"28","district":"Darjiling","district_code":"327","address1":"Darjeeling","address2":"","latitude":"27.008","longitude":"88.2373","accuracy":"3"},{"address3":"Risheehat","state":"West Bengal","state_code":"28","district":"Darjiling","district_code":"327","address1":"Darjeeling","address2":"","latitude":"27.008","longitude":"88.2373","accuracy":"3"},{"address3":"Marybong","state":"West Bengal","state_code":"28","district":"Darjiling","district_code":"327","address1":"Darjeeling","address2":"","latitude":"27.008","longitude":"88.2373","accuracy":"3"},{"address3":"Chhotapubong","state":"West Bengal","state_code":"28","district":"Darjiling","district_code":"327","address1":"Darjeeling","address2":"","latitude":"27.008","longitude":"88.2373","accuracy":"3"},{"address3":"Simkuna","state":"West Bengal","state_code":"28","district":"Darjiling","district_code":"327","address1":"Jorebunglow Sukiapokhri","address2":"","latitude":"27.008","longitude":"88.2373","accuracy":"3"},{"address3":"Pussimbing","state":"West Bengal","state_code":"28","district":"Darjiling","district_code":"327","address1":"Darjeeling","address2":"","latitude":"27.008","longitude":"88.2373","accuracy":"3"},{"address3":"Bloom Field","state":"West Bengal","state_code":"28","district":"Darjiling","district_code":"327","address1":"Darjeeling Pulbazar","address2":"","latitude":"27.008","longitude":"88.2373","accuracy":"3"}],"734103":[{"address3":"Rajbari","state":"West Bengal","state_code":"28","district":"Darjiling","district_code":"327","address1":"Darjeeling Pulbazar","address2":"","latitude":"26.9135","longitude":"88.3947","accuracy":"1"},{"address3":"Jalpahar","state":"West Bengal","state_code":"28","district":"Darjiling","district_code":"327","address1":"Darjeeling Pulbazar","address2":"","latitude":"27.051","longitude":"88.2618","accuracy":"1"}],"734104":[{"address3":"Singla","state":"West Bengal","state_code":"28","district":"Darjiling","district_code":"327","address1":"Darjeeling","address2":"","latitude":"27.1256","longitude":"88.2896","accuracy":"4"},{"address3":"Udaigram","state":"West Bengal","state_code":"28","district":"Darjiling","district_code":"327","address1":"Darjeeling Pulbazar","address2":"","latitude":"27.1256","longitude":"88.2896","accuracy":"3"},{"address3":"North Point","state":"West Bengal","state_code":"28","district":"Darjiling","district_code":"327","address1":"Darjeeling Pulbazar","address2":"","latitude":"27.1256","longitude":"88.2896","accuracy":"3"},{"address3":"Singtam","state":"West Bengal","state_code":"28","district":"Darjiling","district_code":"327","address1":"Darjeeling","address2":"","latitude":"27.1256","longitude":"88.2896","accuracy":"3"},{"address3":"Soom","state":"West Bengal","state_code":"28","district":"Darjiling","district_code":"327","address1":"Darjeeling","address2":"","latitude":"27.1256","longitude":"88.2896","accuracy":"3"},{"address3":"Bannersberg","state":"West Bengal","state_code":"28","district":"Darjiling","district_code":"327","address1":"Darjeeling","address2":"","latitude":"27.1256","longitude":"88.2896","accuracy":"3"}],"734105":[{"address3":"Lebong","state":"West Bengal","state_code":"28","district":"Darjiling","district_code":"327","address1":"Darjeeling Pulbazar","address2":"","latitude":"27.0623","longitude":"88.2829","accuracy":"4"},{"address3":"Mineral Spring","state":"West Bengal","state_code":"28","district":"Darjiling","district_code":"327","address1":"Darjeeling","address2":"","latitude":"27.0623","longitude":"88.2829","accuracy":"3"},{"address3":"Badamtam","state":"West Bengal","state_code":"28","district":"Darjiling","district_code":"327","address1":"Darjeeling","address2":"","latitude":"27.0623","longitude":"88.2829","accuracy":"3"}],"734121":[{"address3":"Dooteriah","state":"West Bengal","state_code":"28","district":"Darjiling","district_code":"327","address1":"Darjeeling","address2":"","latitude":"27.051","longitude":"88.2618","accuracy":"1"}],"734123":[{"address3":"Rangbull","state":"West Bengal","state_code":"28","district":"Darjiling","district_code":"327","address1":"Darjeeling","address2":"","latitude":"27.051","longitude":"88.2618","accuracy":"1"}],"734124":[{"address3":"Tukvar","state":"West Bengal","state_code":"28","district":"Darjiling","district_code":"327","address1":"Darjeeling Pulbazar","address2":"","latitude":"27.051","longitude":"88.2618","accuracy":"1"}],"734201":[{"address3":"Bijanbari","state":"West Bengal","state_code":"28","district":"Darjiling","district_code":"327","address1":"Darjeeling","address2":"","latitude":"27.0677","longitude":"88.1952","accuracy":"4"},{"address3":"Kolbong","state":"West Bengal","state_code":"28","district":"Darjiling","district_code":"327","address1":"Darjeeling Pulbazar","address2":"","latitude":"27.1059","longitude":"88.1755","accuracy":"4"},{"address3":"Dara Goan","state":"West Bengal","state_code":"28","district":"Darjiling","district_code":"327","address1":"Kalimpong - II","address2":"","latitude":"27.0824","longitude":"88.175","accuracy":"3"},{"address3":"Tumbayok","state":"West Bengal","state_code":"28","district":"Darjiling","district_code":"327","address1":"Darjeeling","address2":"","latitude":"27.0824","longitude":"88.175","accuracy":"3"},{"address3":"Lama Goan","state":"West Bengal","state_code":"28","district":"Darjiling","district_code":"327","address1":"Kurseong","address2":"","latitude":"27.0824","longitude":"88.175","accuracy":"3"},{"address3":"Jhepi","state":"West Bengal","state_code":"28","district":"Darjiling","district_code":"327","address1":"Kurseong","address2":"","latitude":"27.0798","longitude":"88.1587","accuracy":"4"},{"address3":"Lodhomahat","state":"West Bengal","state_code":"28","district":"Darjiling","district_code":"327","address1":"Kurseong","address2":"","latitude":"27.0824","longitude":"88.175","accuracy":"3"},{"address3":"Pulbazar","state":"West Bengal","state_code":"28","district":"Darjiling","district_code":"327","address1":"Darjeeling","address2":"","latitude":"27.0824","longitude":"88.175","accuracy":"3"},{"address3":"Rimbick","state":"West Bengal","state_code":"28","district":"Darjiling","district_code":"327","address1":"Kurseong","address2":"","latitude":"27.0824","longitude":"88.175","accuracy":"3"},{"address3":"Kaijalia","state":"West Bengal","state_code":"28","district":"Darjiling","district_code":"327","address1":"Kurseong","address2":"","latitude":"27.0764","longitude":"88.1706","accuracy":"4"},{"address3":"Goke Bazar","state":"West Bengal","state_code":"28","district":"Darjiling","district_code":"327","address1":"Kurseong","address2":"","latitude":"27.0824","longitude":"88.175","accuracy":"3"},{"address3":"Bansbotey","state":"West Bengal","state_code":"28","district":"Darjiling","district_code":"327","address1":"Darjeeling Pulbazar","address2":"","latitude":"27.0824","longitude":"88.175","accuracy":"3"},{"address3":"Relling","state":"West Bengal","state_code":"28","district":"Darjiling","district_code":"327","address1":"Kurseong","address2":"","latitude":"27.0824","longitude":"88.175","accuracy":"3"}],"734203":[{"address3":"Ambootia","state":"West Bengal","state_code":"28","district":"Darjiling","district_code":"327","address1":"Kurseong","address2":"","latitude":"26.8743","longitude":"88.2412","accuracy":"4"},{"address3":"Mahanadi","state":"West Bengal","state_code":"28","district":"Darjiling","district_code":"327","address1":"Kurseong","address2":"","latitude":"26.8784","longitude":"88.2593","accuracy":"3"},{"address3":"Kurseong","state":"West Bengal","state_code":"28","district":"Darjiling","district_code":"327","address1":"Kurseong","address2":"","latitude":"26.8825","longitude":"88.2773","accuracy":"4"},{"address3":"Dumaram Busty","state":"West Bengal","state_code":"28","district":"Darjiling","district_code":"327","address1":"Kurseong","address2":"","latitude":"26.8784","longitude":"88.2593","accuracy":"3"}],"734204":[{"address3":"Dowhill","state":"West Bengal","state_code":"28","district":"Darjiling","district_code":"327","address1":"Kurseong","address2":"","latitude":"27.0144","longitude":"88.2031","accuracy":"1"}],"734213":[{"address3":"School Dhura","state":"West Bengal","state_code":"28","district":"Darjiling","district_code":"327","address1":"Kurseong","address2":"","latitude":"26.9083","longitude":"88.2224","accuracy":"1"},{"address3":"Singritam","state":"West Bengal","state_code":"28","district":"Darjiling","district_code":"327","address1":"Kurseong","address2":"","latitude":"26.9083","longitude":"88.2224","accuracy":"1"},{"address3":"Lopchu","state":"West Bengal","state_code":"28","district":"Darjiling","district_code":"327","address1":"Kurseong","address2":"","latitude":"26.9083","longitude":"88.2224","accuracy":"1"},{"address3":"Maney Dara","state":"West Bengal","state_code":"28","district":"Darjiling","district_code":"327","address1":"Kurseong","address2":"","latitude":"26.9083","longitude":"88.2224","accuracy":"1"},{"address3":"Lamahatta","state":"West Bengal","state_code":"28","district":"Darjiling","district_code":"327","address1":"Rangli Rangliot","address2":"","latitude":"26.9083","longitude":"88.2224","accuracy":"1"}],"734214":[{"address3":"Mirik","state":"West Bengal","state_code":"28","district":"Darjiling","district_code":"327","address1":"Kurseong","address2":"","latitude":"26.8882","longitude":"88.1901","accuracy":"4"},{"address3":"Lower Soureni","state":"West Bengal","state_code":"28","district":"Darjiling","district_code":"327","address1":"Kurseong","address2":"","latitude":"26.8882","longitude":"88.1901","accuracy":"3"},{"address3":"Ookayati","state":"West Bengal","state_code":"28","district":"Darjiling","district_code":"327","address1":"Kurseong","address2":"","latitude":"26.8882","longitude":"88.1901","accuracy":"3"},{"address3":"Thurbo","state":"West Bengal","state_code":"28","district":"Darjiling","district_code":"327","address1":"Kurseong","address2":"","latitude":"26.8882","longitude":"88.1901","accuracy":"3"},{"address3":"Gopal Dhara","state":"West Bengal","state_code":"28","district":"Darjiling","district_code":"327","address1":"Kurseong","address2":"","latitude":"26.8882","longitude":"88.1901","accuracy":"3"},{"address3":"Seeyok","state":"West Bengal","state_code":"28","district":"Darjiling","district_code":"327","address1":"Kurseong","address2":"","latitude":"26.8882","longitude":"88.1901","accuracy":"3"},{"address3":"Duptin-10","state":"West Bengal","state_code":"28","district":"Darjiling","district_code":"327","address1":"Kurseong","address2":"","latitude":"26.8882","longitude":"88.1901","accuracy":"3"}],"734215":[{"address3":"Mangarjung","state":"West Bengal","state_code":"28","district":"Darjiling","district_code":"327","address1":"Kalimpong","address2":"","latitude":"26.9083","longitude":"88.2224","accuracy":"1"},{"address3":"Malat Bazar","state":"West Bengal","state_code":"28","district":"Darjiling","district_code":"327","address1":"Jorebunglow Sukiapokhri","address2":"","latitude":"26.9083","longitude":"88.2224","accuracy":"1"},{"address3":"Dhajea","state":"West Bengal","state_code":"28","district":"Darjiling","district_code":"327","address1":"Kalimpong","address2":"","latitude":"26.9083","longitude":"88.2224","accuracy":"1"},{"address3":"Nagrispur","state":"West Bengal","state_code":"28","district":"Darjiling","district_code":"327","address1":"Kurseong","address2":"","latitude":"26.9083","longitude":"88.2224","accuracy":"1"}],"734216":[{"address3":"Pokhriabong","state":"West Bengal","state_code":"28","district":"Darjiling","district_code":"327","address1":"Kurseong","address2":"","latitude":"26.9571","longitude":"88.1668","accuracy":"4"},{"address3":"Selimbong","state":"West Bengal","state_code":"28","district":"Darjiling","district_code":"327","address1":"Jorebunglow Sukiapokhri","address2":"","latitude":"26.9571","longitude":"88.1668","accuracy":"3"},{"address3":"Rangbang","state":"West Bengal","state_code":"28","district":"Darjiling","district_code":"327","address1":"Kurseong","address2":"","latitude":"26.9571","longitude":"88.1668","accuracy":"3"}],"734217":[{"address3":"Pankhabari","state":"West Bengal","state_code":"28","district":"Darjiling","district_code":"327","address1":"Kurseong","address2":"","latitude":"26.8304","longitude":"88.2625","accuracy":"4"},{"address3":"Jamdar Vitta","state":"West Bengal","state_code":"28","district":"Darjiling","district_code":"327","address1":"Kurseong","address2":"","latitude":"26.8304","longitude":"88.2625","accuracy":"3"}],"734218":[{"address3":"Singbulli","state":"West Bengal","state_code":"28","district":"Darjiling","district_code":"327","address1":"Kurseong","address2":"","latitude":"26.9083","longitude":"88.2224","accuracy":"1"},{"address3":"Phuguri","state":"West Bengal","state_code":"28","district":"Darjiling","district_code":"327","address1":"Mirik","address2":"","latitude":"26.9083","longitude":"88.2224","accuracy":"1"}],"734219":[{"address3":"Sonada","state":"West Bengal","state_code":"28","district":"Darjiling","district_code":"327","address1":"Kurseong","address2":"","latitude":"26.9575","longitude":"88.27","accuracy":"4"},{"address3":"Moonda Koti","state":"West Bengal","state_code":"28","district":"Darjiling","district_code":"327","address1":"Kurseong","address2":"","latitude":"26.9575","longitude":"88.27","accuracy":"3"},{"address3":"Tamsing Dhura","state":"West Bengal","state_code":"28","district":"Darjiling","district_code":"327","address1":"Jorebunglow Sukiapokhri","address2":"","latitude":"26.9575","longitude":"88.27","accuracy":"3"},{"address3":"Balasun","state":"West Bengal","state_code":"28","district":"Darjiling","district_code":"327","address1":"Kurseong","address2":"","latitude":"26.9575","longitude":"88.27","accuracy":"3"},{"address3":"Ringtong","state":"West Bengal","state_code":"28","district":"Darjiling","district_code":"327","address1":"Kurseong","address2":"","latitude":"26.9575","longitude":"88.27","accuracy":"3"},{"address3":"Nalichor","state":"West Bengal","state_code":"28","district":"Darjiling","district_code":"327","address1":"Jorebunglow Sukiapokhri","address2":"","latitude":"26.9575","longitude":"88.27","accuracy":"3"},{"address3":"Rangmook","state":"West Bengal","state_code":"28","district":"Darjiling","district_code":"327","address1":"Kurseong","address2":"","latitude":"26.9575","longitude":"88.27","accuracy":"3"}],"734220":[{"address3":"Deorali","state":"West Bengal","state_code":"28","district":"Darjiling","district_code":"327","address1":"Kurseong","address2":"","latitude":"26.9051","longitude":"88.3002","accuracy":"4"},{"address3":"St.Mary's Hill","state":"West Bengal","state_code":"28","district":"Darjiling","district_code":"327","address1":"Kurseong","address2":"","latitude":"26.9051","longitude":"88.3002","accuracy":"3"}],"734221":[{"address3":"Plungdung","state":"West Bengal","state_code":"28","district":"Darjiling","district_code":"327","address1":"Kurseong","address2":"","latitude":"26.9709","longitude":"88.3462","accuracy":"1"},{"address3":"Mim","state":"West Bengal","state_code":"28","district":"Darjiling","district_code":"327","address1":"Kurseong","address2":"","latitude":"26.9709","longitude":"88.3462","accuracy":"1"},{"address3":"Batasia","state":"West Bengal","state_code":"28","district":"Darjiling","district_code":"327","address1":"Jorebunglow Sukiapokhri","address2":"","latitude":"26.9709","longitude":"88.3462","accuracy":"1"},{"address3":"Maneybhanjeng","state":"West Bengal","state_code":"28","district":"Darjiling","district_code":"327","address1":"Jorebunglow Sukiapokhri","address2":"","latitude":"26.9709","longitude":"88.3462","accuracy":"1"},{"address3":"Sukhiapokhari","state":"West Bengal","state_code":"28","district":"Darjiling","district_code":"327","address1":"Kurseong","address2":"","latitude":"26.9709","longitude":"88.3462","accuracy":"1"}],"734222":[{"address3":"Tinchuley","state":"West Bengal","state_code":"28","district":"Darjiling","district_code":"327","address1":"Rangli Rangliot","address2":"","latitude":"27.0565","longitude":"88.3313","accuracy":"3"},{"address3":"Takdah","state":"West Bengal","state_code":"28","district":"Darjiling","district_code":"327","address1":"Kurseong","address2":"","latitude":"27.0565","longitude":"88.3313","accuracy":"4"}],"734223":[{"address3":"Gayabari","state":"West Bengal","state_code":"28","district":"Darjiling","district_code":"327","address1":"Kurseong","address2":"","latitude":"26.8547","longitude":"88.3436","accuracy":"3"},{"address3":"Tindharia","state":"West Bengal","state_code":"28","district":"Darjiling","district_code":"327","address1":"Kurseong","address2":"","latitude":"26.8547","longitude":"88.3436","accuracy":"4"},{"address3":"Norbung","state":"West Bengal","state_code":"28","district":"Darjiling","district_code":"327","address1":"Kurseong","address2":"","latitude":"26.8547","longitude":"88.3436","accuracy":"3"},{"address3":"Chunbhati","state":"West Bengal","state_code":"28","district":"Darjiling","district_code":"327","address1":"Kurseong","address2":"","latitude":"26.8547","longitude":"88.3436","accuracy":"3"}],"734224":[{"address3":"Margarets Hope","state":"West Bengal","state_code":"28","district":"Darjiling","district_code":"327","address1":"Kurseong","address2":"","latitude":"26.9709","longitude":"88.3462","accuracy":"1"},{"address3":"Tung","state":"West Bengal","state_code":"28","district":"Darjiling","district_code":"327","address1":"Kurseong","address2":"","latitude":"26.9709","longitude":"88.3462","accuracy":"1"},{"address3":"Bagora","state":"West Bengal","state_code":"28","district":"Darjiling","district_code":"327","address1":"Kurseong","address2":"","latitude":"26.9709","longitude":"88.3462","accuracy":"1"}],"734226":[{"address3":"Teesta Valley","state":"West Bengal","state_code":"28","district":"Darjiling","district_code":"327","address1":"Darjeeling","address2":"","latitude":"27.0086","longitude":"88.3992","accuracy":"4"},{"address3":"Rangli Rangliot","state":"West Bengal","state_code":"28","district":"Darjiling","district_code":"327","address1":"Darjeeling","address2":"","latitude":"27.0295","longitude":"88.3569","accuracy":"4"},{"address3":"Geile Banjyang","state":"West Bengal","state_code":"28","district":"Darjiling","district_code":"327","address1":"Darjeeling","address2":"","latitude":"27.019","longitude":"88.378","accuracy":"3"}],"734227":[{"address3":"Soureni Bazar","state":"West Bengal","state_code":"28","district":"Darjiling","district_code":"327","address1":"Mirik","address2":"","latitude":"26.9709","longitude":"88.3462","accuracy":"1"}],"734301":[{"address3":"Sinji","state":"West Bengal","state_code":"28","district":"Kalimpong","district_code":"702","address1":"kalimpong","address2":"","latitude":"27.0051","longitude":"88.4985","accuracy":"4"},{"address3":"Lolay","state":"West Bengal","state_code":"28","district":"Kalimpong","district_code":"702","address1":"Kalimpong","address2":"","latitude":"27.0277","longitude":"88.5003","accuracy":"3"},{"address3":"Kalimpong","state":"West Bengal","state_code":"28","district":"Kalimpong","district_code":"702","address1":"Kalimpong","address2":"","latitude":"27.0562","longitude":"88.4621","accuracy":"4"},{"address3":"Bankim Park","state":"West Bengal","state_code":"28","district":"Kalimpong","district_code":"702","address1":"Kalimpong","address2":"","latitude":"27.0277","longitude":"88.5003","accuracy":"3"},{"address3":"Pudung","state":"West Bengal","state_code":"28","district":"Kalimpong","district_code":"702","address1":"Kalimpong","address2":"","latitude":"27.0615","longitude":"88.5207","accuracy":"4"},{"address3":"Tashiding","state":"West Bengal","state_code":"28","district":"Kalimpong","district_code":"702","address1":"Kalimpong","address2":"","latitude":"27.0277","longitude":"88.5003","accuracy":"3"},{"address3":"Samthar","state":"West Bengal","state_code":"28","district":"Kalimpong","district_code":"702","address1":"Kalimpong","address2":"","latitude":"26.9881","longitude":"88.5197","accuracy":"4"},{"address3":"Bong Busty","state":"West Bengal","state_code":"28","district":"Kalimpong","district_code":"702","address1":"Kalimpong","address2":"","latitude":"27.0277","longitude":"88.5003","accuracy":"3"},{"address3":"Seokbir","state":"West Bengal","state_code":"28","district":"Kalimpong","district_code":"702","address1":"Kalimpong","address2":"","latitude":"27.0277","longitude":"88.5003","accuracy":"3"},{"address3":"Kalimpong Bazar","state":"West Bengal","state_code":"28","district":"Kalimpong","district_code":"702","address1":"Kalimpong","address2":"","latitude":"27.0277","longitude":"88.5003","accuracy":"3"},{"address3":"7th Mile Kalimpong","state":"West Bengal","state_code":"28","district":"Kalimpong","district_code":"702","address1":"Kalimpong","address2":"","latitude":"27.0277","longitude":"88.5003","accuracy":"3"},{"address3":"Echhey","state":"West Bengal","state_code":"28","district":"Kalimpong","district_code":"702","address1":"Kalimpong","address2":"","latitude":"27.0277","longitude":"88.5003","accuracy":"3"},{"address3":"Yangmakum Pambu","state":"West Bengal","state_code":"28","district":"Kalimpong","district_code":"702","address1":"Kalimpong","address2":"","latitude":"27.0277","longitude":"88.5003","accuracy":"3"},{"address3":"Suruk","state":"West Bengal","state_code":"28","district":"Kalimpong","district_code":"702","address1":"Kalimpong","address2":"","latitude":"27.0277","longitude":"88.5003","accuracy":"3"},{"address3":"Chibo Busty","state":"West Bengal","state_code":"28","district":"Kalimpong","district_code":"702","address1":"Kalimpong","address2":"","latitude":"27.0277","longitude":"88.5003","accuracy":"3"}],"734311":[{"address3":"Pedong","state":"West Bengal","state_code":"28","district":"Kalimpong","district_code":"702","address1":"Kalimpong","address2":"","latitude":"27.1539","longitude":"88.6145","accuracy":"4"},{"address3":"Sakyong","state":"West Bengal","state_code":"28","district":"Kalimpong","district_code":"702","address1":"Kalimpong","address2":"","latitude":"27.1539","longitude":"88.6145","accuracy":"3"},{"address3":"Kagay Bazar","state":"West Bengal","state_code":"28","district":"Kalimpong","district_code":"702","address1":"Kalimpong","address2":"","latitude":"27.1539","longitude":"88.6145","accuracy":"3"}],"734312":[{"address3":"Takling","state":"West Bengal","state_code":"28","district":"Darjiling","district_code":"327","address1":"Kalimpong","address2":"","latitude":"27.0507","longitude":"88.4126","accuracy":"4"},{"address3":"Peshok","state":"West Bengal","state_code":"28","district":"Darjiling","district_code":"327","address1":"Kalimpong","address2":"","latitude":"27.0573","longitude":"88.4193","accuracy":"3"},{"address3":"Bar Dara","state":"West Bengal","state_code":"28","district":"Darjiling","district_code":"327","address1":"Kalimpong","address2":"","latitude":"27.0573","longitude":"88.4193","accuracy":"3"},{"address3":"Tista Bridge","state":"West Bengal","state_code":"28","district":"Kalimpong","district_code":"702","address1":"Kalimpong","address2":"","latitude":"27.0639","longitude":"88.426","accuracy":"4"}],"734313":[{"address3":"Ranju Valley","state":"West Bengal","state_code":"28","district":"Darjiling","district_code":"327","address1":"Kurseong","address2":"","latitude":"27.0886","longitude":"88.5287","accuracy":"1"},{"address3":"Mungpoo","state":"West Bengal","state_code":"28","district":"Darjiling","district_code":"327","address1":"Kalimpong","address2":"","latitude":"27.0886","longitude":"88.5287","accuracy":"1"},{"address3":"School Dhura","state":"West Bengal","state_code":"28","district":"Darjiling","district_code":"327","address1":"Rangli Rangliot","address2":"","latitude":"27.0886","longitude":"88.5287","accuracy":"1"}],"734314":[{"address3":"Lava","state":"West Bengal","state_code":"28","district":"Kalimpong","district_code":"702","address1":"Kalimpong","address2":"","latitude":"27.086","longitude":"88.6617","accuracy":"4"},{"address3":"Santook Mirik","state":"West Bengal","state_code":"28","district":"Kalimpong","district_code":"702","address1":"Kalimpong","address2":"","latitude":"27.086","longitude":"88.6617","accuracy":"3"},{"address3":"Algarah","state":"West Bengal","state_code":"28","district":"Kalimpong","district_code":"702","address1":"Kalimpong","address2":"","latitude":"27.086","longitude":"88.6617","accuracy":"3"},{"address3":"Gitdubling","state":"West Bengal","state_code":"28","district":"Kalimpong","district_code":"702","address1":"Kalimpong","address2":"","latitude":"27.086","longitude":"88.6617","accuracy":"3"},{"address3":"Pagag Gumpa","state":"West Bengal","state_code":"28","district":"Kalimpong","district_code":"702","address1":"Kalimpong","address2":"","latitude":"27.086","longitude":"88.6617","accuracy":"3"},{"address3":"Tendrabong","state":"West Bengal","state_code":"28","district":"Kalimpong","district_code":"702","address1":"Kalimpong","address2":"","latitude":"27.086","longitude":"88.6617","accuracy":"3"},{"address3":"Nimbong","state":"West Bengal","state_code":"28","district":"Kalimpong","district_code":"702","address1":"Kalimpong","address2":"","latitude":"27.086","longitude":"88.6617","accuracy":"3"},{"address3":"Chhumirchin Manchu","state":"West Bengal","state_code":"28","district":"Kalimpong","district_code":"702","address1":"Kalimpong","address2":"","latitude":"27.086","longitude":"88.6617","accuracy":"3"},{"address3":"Kafer","state":"West Bengal","state_code":"28","district":"Kalimpong","district_code":"702","address1":"Kalimpong","address2":"","latitude":"27.086","longitude":"88.6617","accuracy":"3"},{"address3":"Pabring Tar","state":"West Bengal","state_code":"28","district":"Kalimpong","district_code":"702","address1":"Kalimpong","address2":"","latitude":"27.086","longitude":"88.6617","accuracy":"3"}],"734315":[{"address3":"Munsong","state":"West Bengal","state_code":"28","district":"Kalimpong","district_code":"702","address1":"Kalimpong","address2":"","latitude":"27.0886","longitude":"88.5287","accuracy":"1"},{"address3":"Burmeck","state":"West Bengal","state_code":"28","district":"Kalimpong","district_code":"702","address1":"Kalimpong","address2":"","latitude":"27.0886","longitude":"88.5287","accuracy":"1"}],"734316":[{"address3":"Upper Dalapchand","state":"West Bengal","state_code":"28","district":"Kalimpong","district_code":"702","address1":"Kalimpong","address2":"","latitude":"27.0886","longitude":"88.5287","accuracy":"1"},{"address3":"Swansay","state":"West Bengal","state_code":"28","district":"Kalimpong","district_code":"702","address1":"Kalimpong - II","address2":"","latitude":"27.0886","longitude":"88.5287","accuracy":"1"},{"address3":"Sindebong","state":"West Bengal","state_code":"28","district":"Kalimpong","district_code":"702","address1":"Kalimpong","address2":"","latitude":"27.0886","longitude":"88.5287","accuracy":"1"},{"address3":"Rousay Bazar","state":"West Bengal","state_code":"28","district":"Kalimpong","district_code":"702","address1":"Kalimpong","address2":"","latitude":"27.0886","longitude":"88.5287","accuracy":"1"},{"address3":"Mahakaldara","state":"West Bengal","state_code":"28","district":"Kalimpong","district_code":"702","address1":"Kalimpong","address2":"","latitude":"27.0886","longitude":"88.5287","accuracy":"1"},{"address3":"Topkhana","state":"West Bengal","state_code":"28","district":"Kalimpong","district_code":"702","address1":"Kalimpong","address2":"","latitude":"27.0886","longitude":"88.5287","accuracy":"1"}],"734317":[{"address3":"Echhey","state":"West Bengal","state_code":"28","district":"Darjiling","district_code":"327","address1":"Kalimpong","address2":"","latitude":"27.0886","longitude":"88.5287","accuracy":"1"}],"734320":[{"address3":"Kalijhora","state":"West Bengal","state_code":"28","district":"Darjiling","district_code":"327","address1":"Kalimpong -I","address2":"","latitude":"26.9319","longitude":"88.4504","accuracy":"4"}],"734321":[{"address3":"Reang","state":"West Bengal","state_code":"28","district":"Darjiling","district_code":"327","address1":"Kalimpong","address2":"","latitude":"26.9319","longitude":"88.4504","accuracy":"1"}],"734421":[{"address3":"Bagdogra Air Port","state":"West Bengal","state_code":"28","district":"Darjiling","district_code":"327","address1":"Phansidewa","address2":"","latitude":"26.6827","longitude":"88.22","accuracy":"1"}],"734423":[{"address3":"Pani Ghatta","state":"West Bengal","state_code":"28","district":"Darjiling","district_code":"327","address1":"Siliguri","address2":"","latitude":"26.6827","longitude":"88.22","accuracy":"1"},{"address3":"Belgachi","state":"West Bengal","state_code":"28","district":"Darjiling","district_code":"327","address1":"Siliguri","address2":"","latitude":"26.6827","longitude":"88.22","accuracy":"1"},{"address3":"Putung","state":"West Bengal","state_code":"28","district":"Darjiling","district_code":"327","address1":"Siliguri","address2":"","latitude":"26.6827","longitude":"88.22","accuracy":"1"}],"734424":[{"address3":"Bendubi","state":"West Bengal","state_code":"28","district":"Darjiling","district_code":"327","address1":"Phansidewa","address2":"","latitude":"26.6827","longitude":"88.22","accuracy":"1"}],"734425":[{"address3":"Kalachandgach","state":"West Bengal","state_code":"28","district":"Darjiling","district_code":"327","address1":"Naxalbari","address2":"","latitude":"26.6827","longitude":"88.22","accuracy":"1"},{"address3":"Bidhan Nagar","state":"West Bengal","state_code":"28","district":"Darjiling","district_code":"327","address1":"Siligur","address2":"","latitude":"26.6827","longitude":"88.22","accuracy":"1"},{"address3":"Madati","state":"West Bengal","state_code":"28","district":"Darjiling","district_code":"327","address1":"Siliguri","address2":"","latitude":"26.6827","longitude":"88.22","accuracy":"1"},{"address3":"Chital Ghata","state":"West Bengal","state_code":"28","district":"Darjiling","district_code":"327","address1":"Phansidewa","address2":"","latitude":"26.6827","longitude":"88.22","accuracy":"1"}],"734426":[{"address3":"Kamala Bagan","state":"West Bengal","state_code":"28","district":"Darjiling","district_code":"327","address1":"Naxalbari","address2":"","latitude":"26.6827","longitude":"88.22","accuracy":"1"},{"address3":"Rangali","state":"West Bengal","state_code":"28","district":"Darjiling","district_code":"327","address1":"Siliguri","address2":"","latitude":"26.6827","longitude":"88.22","accuracy":"1"},{"address3":"Buraganj","state":"West Bengal","state_code":"28","district":"Darjiling","district_code":"327","address1":"Siliguri","address2":"","latitude":"26.6827","longitude":"88.22","accuracy":"1"},{"address3":"Gayanganga","state":"West Bengal","state_code":"28","district":"Darjiling","district_code":"327","address1":"Phansidewa","address2":"","latitude":"26.6827","longitude":"88.22","accuracy":"1"}],"734427":[{"address3":"Khoribari","state":"West Bengal","state_code":"28","district":"Darjiling","district_code":"327","address1":"Siliguri","address2":"","latitude":"26.6827","longitude":"88.22","accuracy":"1"},{"address3":"Bilaksu","state":"West Bengal","state_code":"28","district":"Darjiling","district_code":"327","address1":"Siliguri","address2":"","latitude":"26.6827","longitude":"88.22","accuracy":"1"},{"address3":"Bhajanpur Jote","state":"West Bengal","state_code":"28","district":"Darjiling","district_code":"327","address1":"Siliguri","address2":"","latitude":"26.6827","longitude":"88.22","accuracy":"1"},{"address3":"Tharjhorabagan","state":"West Bengal","state_code":"28","district":"Darjiling","district_code":"327","address1":"Naxalbari","address2":"","latitude":"26.6827","longitude":"88.22","accuracy":"1"},{"address3":"Adhikari","state":"West Bengal","state_code":"28","district":"Darjiling","district_code":"327","address1":"Kharibari","address2":"","latitude":"26.6827","longitude":"88.22","accuracy":"1"}],"734429":[{"address3":"Dulal Jote","state":"West Bengal","state_code":"28","district":"Darjiling","district_code":"327","address1":"Kharibari","address2":"","latitude":"26.6827","longitude":"88.22","accuracy":"3"},{"address3":"Naksalbari","state":"West Bengal","state_code":"28","district":"Darjiling","district_code":"327","address1":"Siliguri","address2":"","latitude":"26.6827","longitude":"88.22","accuracy":"4"},{"address3":"Badrajote","state":"West Bengal","state_code":"28","district":"Darjiling","district_code":"327","address1":"Rangli Rangliot","address2":"","latitude":"26.6827","longitude":"88.22","accuracy":"3"},{"address3":"Hatighisa","state":"West Bengal","state_code":"28","district":"Darjiling","district_code":"327","address1":"Naxalbari","address2":"","latitude":"26.6827","longitude":"88.22","accuracy":"3"}],"734431":[{"address3":"Sahabad","state":"West Bengal","state_code":"28","district":"Darjiling","district_code":"327","address1":"Naxalbari","address2":"","latitude":"26.5864","longitude":"88.368","accuracy":"1"}],"734434":[{"address3":"Hardigachh","state":"West Bengal","state_code":"28","district":"Darjiling","district_code":"327","address1":"Phansidewa","address2":"","latitude":"26.5864","longitude":"88.368","accuracy":"3"},{"address3":"Phansidewa","state":"West Bengal","state_code":"28","district":"Darjiling","district_code":"327","address1":"Siliguri","address2":"","latitude":"26.5864","longitude":"88.368","accuracy":"4"},{"address3":"Nijbari","state":"West Bengal","state_code":"28","district":"Darjiling","district_code":"327","address1":"Phansidewa","address2":"","latitude":"26.5864","longitude":"88.368","accuracy":"3"},{"address3":"Kantivitta","state":"West Bengal","state_code":"28","district":"Darjiling","district_code":"327","address1":"Siliguri","address2":"","latitude":"26.5864","longitude":"88.368","accuracy":"3"},{"address3":"Rangapani","state":"West Bengal","state_code":"28","district":"Darjiling","district_code":"327","address1":"Siliguri","address2":"","latitude":"26.5864","longitude":"88.368","accuracy":"3"},{"address3":"Lensipokhari","state":"West Bengal","state_code":"28","district":"Darjiling","district_code":"327","address1":"Siliguri","address2":"","latitude":"26.5864","longitude":"88.368","accuracy":"3"}],"734436":[{"address3":"Chathat","state":"West Bengal","state_code":"28","district":"Darjiling","district_code":"327","address1":"Phansidewa","address2":"","latitude":"26.5864","longitude":"88.368","accuracy":"1"}],"734501":[{"address3":"Bagrakote","state":"West Bengal","state_code":"28","district":"Jalpaiguri","district_code":"328","address1":"Mal","address2":"","latitude":"26.6605","longitude":"89.0844","accuracy":"4"},{"address3":"Chanda Company","state":"West Bengal","state_code":"28","district":"Jalpaiguri","district_code":"328","address1":"Mal","address2":"","latitude":"26.9251","longitude":"88.5689","accuracy":"3"}],"734503":[{"address3":"Todaygaon","state":"West Bengal","state_code":"28","district":"Darjiling","district_code":"327","address1":"Gorubathan","address2":"","latitude":"26.9251","longitude":"88.5689","accuracy":"1"},{"address3":"Jaldhaka Hydel Project","state":"West Bengal","state_code":"28","district":"Darjiling","district_code":"327","address1":"Gorubathan","address2":"","latitude":"26.9251","longitude":"88.5689","accuracy":"1"},{"address3":"Gairibas","state":"West Bengal","state_code":"28","district":"Darjiling","district_code":"327","address1":"Gorubathan","address2":"","latitude":"26.9251","longitude":"88.5689","accuracy":"1"}],"credits":[{"name":"geonames","url":"https://www.geonames.org"}],"last_update":"2019-03-01T09:01:36.085Z"}