{"737101":[{"address3":"Gangtok H.O","state":"Sikkim","state_code":"29","district":"East Sikkim","district_code":"","address1":"Gangtok","address2":"","latitude":"27.3218","longitude":"88.5884","accuracy":"1"},{"address3":"Sichey Gaon","state":"Sikkim","state_code":"29","district":"East Sikkim","district_code":"","address1":"Gangtok","address2":"","latitude":"27.3218","longitude":"88.5884","accuracy":"1"}],"737102":[{"address3":"Kyanglasha","state":"Sikkim","state_code":"29","district":"East Sikkim","district_code":"","address1":"Gangtok","address2":"","latitude":"27.3417","longitude":"88.7553","accuracy":"3"},{"address3":"Tadong","state":"Sikkim","state_code":"29","district":"East Sikkim","district_code":"","address1":"Gangtok","address2":"","latitude":"27.3025","longitude":"88.6022","accuracy":"4"},{"address3":"Sherathang","state":"Sikkim","state_code":"29","district":"East Sikkim","district_code":"","address1":"Gangtok","address2":"","latitude":"27.3801","longitude":"88.8198","accuracy":"4"},{"address3":"Kupup","state":"Sikkim","state_code":"29","district":"South Sikkim","district_code":"","address1":"Namchi","address2":"","latitude":"27.3424","longitude":"88.8438","accuracy":"4"},{"address3":"Lingdum","state":"Sikkim","state_code":"29","district":"East Sikkim","district_code":"","address1":"Gangtok","address2":"","latitude":"27.3417","longitude":"88.7553","accuracy":"3"},{"address3":"Deorali","state":"Sikkim","state_code":"29","district":"East Sikkim","district_code":"","address1":"Gangtok","address2":"","latitude":"27.3417","longitude":"88.7553","accuracy":"3"},{"address3":"Dhajey","state":"Sikkim","state_code":"29","district":"East Sikkim","district_code":"","address1":"Gangtok","address2":"","latitude":"27.3417","longitude":"88.7553","accuracy":"3"},{"address3":"SMU(Sikkim Manipal University)","state":"Sikkim","state_code":"29","district":"East Sikkim","district_code":"","address1":"East District","address2":"","latitude":"27.3417","longitude":"88.7553","accuracy":"3"},{"address3":"Samdur","state":"Sikkim","state_code":"29","district":"East Sikkim","district_code":"","address1":"Gangtok","address2":"","latitude":"27.3417","longitude":"88.7553","accuracy":"3"},{"address3":"Pabyiok","state":"Sikkim","state_code":"29","district":"East Sikkim","district_code":"","address1":"Gangtok","address2":"","latitude":"27.3417","longitude":"88.7553","accuracy":"3"}],"737103":[{"address3":"Tashiling","state":"Sikkim","state_code":"29","district":"East Sikkim","district_code":"","address1":"Gangtok","address2":"","latitude":"27.3218","longitude":"88.5884","accuracy":"1"},{"address3":"Lingdok","state":"Sikkim","state_code":"29","district":"East Sikkim","district_code":"","address1":"Gangtok","address2":"","latitude":"27.3218","longitude":"88.5884","accuracy":"1"},{"address3":"Rajbhawan (East Sikkim)","state":"Sikkim","state_code":"29","district":"East Sikkim","district_code":"","address1":"Gangtok","address2":"","latitude":"27.3218","longitude":"88.5884","accuracy":"1"},{"address3":"Luing","state":"Sikkim","state_code":"29","district":"East Sikkim","district_code":"","address1":"Gangtok","address2":"","latitude":"27.3218","longitude":"88.5884","accuracy":"1"},{"address3":"Chongey","state":"Sikkim","state_code":"29","district":"East Sikkim","district_code":"","address1":"Gangtok","address2":"","latitude":"27.3218","longitude":"88.5884","accuracy":"1"},{"address3":"Penlong","state":"Sikkim","state_code":"29","district":"East Sikkim","district_code":"","address1":"Gangtok","address2":"","latitude":"27.3218","longitude":"88.5884","accuracy":"1"},{"address3":"Bhusuk","state":"Sikkim","state_code":"29","district":"East Sikkim","district_code":"","address1":"Gangtok","address2":"","latitude":"27.3218","longitude":"88.5884","accuracy":"1"},{"address3":"Bojoghari","state":"Sikkim","state_code":"29","district":"East Sikkim","district_code":"","address1":"Gangtok","address2":"","latitude":"27.3218","longitude":"88.5884","accuracy":"1"}],"737106":[{"address3":"Karthok","state":"Sikkim","state_code":"29","district":"East Sikkim","district_code":"","address1":"Pakyong","address2":"","latitude":"27.2473","longitude":"88.2595","accuracy":"4"},{"address3":"Pakyong","state":"Sikkim","state_code":"29","district":"East Sikkim","district_code":"","address1":"Pakyong","address2":"","latitude":"27.2279","longitude":"88.5903","accuracy":"4"},{"address3":"Pacheykhani","state":"Sikkim","state_code":"29","district":"East Sikkim","district_code":"","address1":"Pakyong","address2":"","latitude":"27.2376","longitude":"88.4249","accuracy":"3"},{"address3":"Pachey Sansung","state":"Sikkim","state_code":"29","district":"East Sikkim","district_code":"","address1":"Pakyong","address2":"","latitude":"27.2376","longitude":"88.4249","accuracy":"3"},{"address3":"Namcheybong","state":"Sikkim","state_code":"29","district":"East Sikkim","district_code":"","address1":"Pakyong","address2":"","latitude":"27.2376","longitude":"88.4249","accuracy":"3"},{"address3":"Bering","state":"Sikkim","state_code":"29","district":"East Sikkim","district_code":"","address1":"Pakyong","address2":"","latitude":"27.2376","longitude":"88.4249","accuracy":"3"},{"address3":"Linkey","state":"Sikkim","state_code":"29","district":"East Sikkim","district_code":"","address1":"Pakyong","address2":"","latitude":"27.2376","longitude":"88.4249","accuracy":"3"},{"address3":"Tshalamthang","state":"Sikkim","state_code":"29","district":"East Sikkim","district_code":"","address1":"Pakyong","address2":"","latitude":"27.2376","longitude":"88.4249","accuracy":"3"},{"address3":"Changayshanti","state":"Sikkim","state_code":"29","district":"East Sikkim","district_code":"","address1":"Pakyong","address2":"","latitude":"27.2376","longitude":"88.4249","accuracy":"3"},{"address3":"Parkha","state":"Sikkim","state_code":"29","district":"East Sikkim","district_code":"","address1":"Pakyong","address2":"","latitude":"27.2376","longitude":"88.4249","accuracy":"3"}],"737107":[{"address3":"Gor","state":"Sikkim","state_code":"29","district":"East Sikkim","district_code":"","address1":"Dikchu","address2":"","latitude":"27.3761","longitude":"88.5015","accuracy":"3"},{"address3":"Samdong","state":"Sikkim","state_code":"29","district":"East Sikkim","district_code":"","address1":"Dikchu","address2":"","latitude":"27.3489","longitude":"88.5029","accuracy":"4"},{"address3":"Rakdong","state":"Sikkim","state_code":"29","district":"East Sikkim","district_code":"","address1":"Dikchu","address2":"","latitude":"27.3761","longitude":"88.5015","accuracy":"3"},{"address3":"Dikchu","state":"Sikkim","state_code":"29","district":"East Sikkim","district_code":"","address1":"Dikchu","address2":"","latitude":"27.4034","longitude":"88.5002","accuracy":"4"},{"address3":"Lumlingthyang","state":"Sikkim","state_code":"29","district":"East Sikkim","district_code":"","address1":"Dikchu","address2":"","latitude":"27.3761","longitude":"88.5015","accuracy":"3"},{"address3":"Raley Khesey","state":"Sikkim","state_code":"29","district":"East Sikkim","district_code":"","address1":"Dikchu","address2":"","latitude":"27.3761","longitude":"88.5015","accuracy":"3"}],"737111":[{"address3":"Yangthang","state":"Sikkim","state_code":"29","district":"West Sikkim","district_code":"242","address1":"Gayzing","address2":"","latitude":"27.2836","longitude":"88.2388","accuracy":"4"},{"address3":"Tashiding","state":"Sikkim","state_code":"29","district":"West Sikkim","district_code":"242","address1":"Gayzing","address2":"","latitude":"27.2635","longitude":"88.2548","accuracy":"3"},{"address3":"Bhaluthang","state":"Sikkim","state_code":"29","district":"West Sikkim","district_code":"242","address1":"Gayzing","address2":"","latitude":"27.2635","longitude":"88.2548","accuracy":"3"},{"address3":"Rinchenpong","state":"Sikkim","state_code":"29","district":"West Sikkim","district_code":"242","address1":"Gayzing","address2":"","latitude":"27.2433","longitude":"88.2709","accuracy":"4"},{"address3":"Gerathang","state":"Sikkim","state_code":"29","district":"West Sikkim","district_code":"242","address1":"Gayzing","address2":"","latitude":"27.2635","longitude":"88.2548","accuracy":"3"},{"address3":"Legship","state":"Sikkim","state_code":"29","district":"West Sikkim","district_code":"242","address1":"Gayzing","address2":"","latitude":"27.2635","longitude":"88.2548","accuracy":"3"},{"address3":"Arithang","state":"Sikkim","state_code":"29","district":"West Sikkim","district_code":"242","address1":"Gayzing","address2":"","latitude":"27.2635","longitude":"88.2548","accuracy":"3"},{"address3":"Karjee","state":"Sikkim","state_code":"29","district":"West Sikkim","district_code":"242","address1":"Gayzing","address2":"","latitude":"27.2635","longitude":"88.2548","accuracy":"3"},{"address3":"Sinek","state":"Sikkim","state_code":"29","district":"West Sikkim","district_code":"242","address1":"Gayzing","address2":"","latitude":"27.2635","longitude":"88.2548","accuracy":"3"},{"address3":"Rangship","state":"Sikkim","state_code":"29","district":"West Sikkim","district_code":"242","address1":"Gayzing","address2":"","latitude":"27.2635","longitude":"88.2548","accuracy":"3"},{"address3":"Chingthang","state":"Sikkim","state_code":"29","district":"West Sikkim","district_code":"242","address1":"Gayzing","address2":"","latitude":"27.2635","longitude":"88.2548","accuracy":"3"},{"address3":"Gayzing","state":"Sikkim","state_code":"29","district":"West Sikkim","district_code":"242","address1":"Gayzing","address2":"","latitude":"27.2635","longitude":"88.2548","accuracy":"3"},{"address3":"Yangtey","state":"Sikkim","state_code":"29","district":"West Sikkim","district_code":"242","address1":"Gayzing","address2":"","latitude":"27.2635","longitude":"88.2548","accuracy":"3"},{"address3":"Lingchom","state":"Sikkim","state_code":"29","district":"West Sikkim","district_code":"242","address1":"Gayzing","address2":"","latitude":"27.2635","longitude":"88.2548","accuracy":"3"}],"737113":[{"address3":"Kaluk","state":"Sikkim","state_code":"29","district":"West Sikkim","district_code":"242","address1":"Pelling","address2":"","latitude":"27.2313","longitude":"88.2538","accuracy":"4"},{"address3":"Yuksom","state":"Sikkim","state_code":"29","district":"West Sikkim","district_code":"242","address1":"Pelling","address2":"","latitude":"27.3692","longitude":"88.2222","accuracy":"4"},{"address3":"Radhu Khandu","state":"Sikkim","state_code":"29","district":"West Sikkim","district_code":"242","address1":"Pelling","address2":"","latitude":"27.2885","longitude":"88.2108","accuracy":"3"},{"address3":"Pelling","state":"Sikkim","state_code":"29","district":"West Sikkim","district_code":"242","address1":"Pelling","address2":"","latitude":"27.3016","longitude":"88.2327","accuracy":"4"},{"address3":"Dentam","state":"Sikkim","state_code":"29","district":"West Sikkim","district_code":"242","address1":"Pelling","address2":"","latitude":"27.2519","longitude":"88.1347","accuracy":"4"},{"address3":"Hee Gaon","state":"Sikkim","state_code":"29","district":"West Sikkim","district_code":"242","address1":"Pelling","address2":"","latitude":"27.2885","longitude":"88.2108","accuracy":"3"},{"address3":"Khechuperi","state":"Sikkim","state_code":"29","district":"West Sikkim","district_code":"242","address1":"Pelling","address2":"","latitude":"27.2885","longitude":"88.2108","accuracy":"3"},{"address3":"Rimbi","state":"Sikkim","state_code":"29","district":"West Sikkim","district_code":"242","address1":"Pelling","address2":"","latitude":"27.2885","longitude":"88.2108","accuracy":"3"},{"address3":"Uttarey","state":"Sikkim","state_code":"29","district":"West Sikkim","district_code":"242","address1":"Pelling","address2":"","latitude":"27.2885","longitude":"88.2108","accuracy":"3"},{"address3":"Mechi Aching","state":"Sikkim","state_code":"29","district":"West Sikkim","district_code":"242","address1":"Pelling","address2":"","latitude":"27.2885","longitude":"88.2108","accuracy":"3"},{"address3":"Namphu","state":"Sikkim","state_code":"29","district":"West Sikkim","district_code":"242","address1":"Pelling","address2":"","latitude":"27.2885","longitude":"88.2108","accuracy":"3"},{"address3":"Thingling","state":"Sikkim","state_code":"29","district":"West Sikkim","district_code":"242","address1":"Pelling","address2":"","latitude":"27.2885","longitude":"88.2108","accuracy":"3"},{"address3":"Darap","state":"Sikkim","state_code":"29","district":"West Sikkim","district_code":"242","address1":"Pelling","address2":"","latitude":"27.2885","longitude":"88.2108","accuracy":"3"},{"address3":"Karmatar","state":"Sikkim","state_code":"29","district":"West Sikkim","district_code":"242","address1":"Pelling","address2":"","latitude":"27.2885","longitude":"88.2108","accuracy":"3"},{"address3":"Bermiok","state":"Sikkim","state_code":"29","district":"East Sikkim","district_code":"","address1":"Pelling","address2":"","latitude":"27.2885","longitude":"88.2108","accuracy":"3"}],"737116":[{"address3":"Singhik","state":"Sikkim","state_code":"29","district":"North Sikkim","district_code":"","address1":"Mangan","address2":"","latitude":"27.5214","longitude":"88.5559","accuracy":"4"},{"address3":"Manul","state":"Sikkim","state_code":"29","district":"North Sikkim","district_code":"","address1":"Mangan","address2":"","latitude":"27.5167","longitude":"88.5833","accuracy":"4"},{"address3":"Ramthang","state":"Sikkim","state_code":"29","district":"North Sikkim","district_code":"","address1":"Mangan","address2":"","latitude":"27.5159","longitude":"88.5538","accuracy":"3"},{"address3":"Phudong","state":"Sikkim","state_code":"29","district":"North Sikkim","district_code":"","address1":"Mangan","address2":"","latitude":"27.5159","longitude":"88.5538","accuracy":"3"},{"address3":"Tingchim","state":"Sikkim","state_code":"29","district":"North Sikkim","district_code":"","address1":"Mangan","address2":"","latitude":"27.5159","longitude":"88.5538","accuracy":"3"},{"address3":"Mangan","state":"Sikkim","state_code":"29","district":"North Sikkim","district_code":"","address1":"Mangan","address2":"","latitude":"27.5097","longitude":"88.5221","accuracy":"4"},{"address3":"Pundong","state":"Sikkim","state_code":"29","district":"North Sikkim","district_code":"","address1":"Mangan","address2":"","latitude":"27.5159","longitude":"88.5538","accuracy":"3"},{"address3":"Phamtam","state":"Sikkim","state_code":"29","district":"North Sikkim","district_code":"","address1":"Mangan","address2":"","latitude":"27.5159","longitude":"88.5538","accuracy":"3"},{"address3":"Namok","state":"Sikkim","state_code":"29","district":"North Sikkim","district_code":"","address1":"Mangan","address2":"","latitude":"27.5159","longitude":"88.5538","accuracy":"3"},{"address3":"Tingvong","state":"Sikkim","state_code":"29","district":"North Sikkim","district_code":"","address1":"Mangan","address2":"","latitude":"27.5159","longitude":"88.5538","accuracy":"3"},{"address3":"Kabi","state":"Sikkim","state_code":"29","district":"North Sikkim","district_code":"","address1":"Mangan","address2":"","latitude":"27.5159","longitude":"88.5538","accuracy":"3"},{"address3":"Phensong","state":"Sikkim","state_code":"29","district":"North Sikkim","district_code":"","address1":"Mangan","address2":"","latitude":"27.5159","longitude":"88.5538","accuracy":"3"},{"address3":"Men Rong Rong","state":"Sikkim","state_code":"29","district":"North Sikkim","district_code":"","address1":"Mangan","address2":"","latitude":"27.5159","longitude":"88.5538","accuracy":"3"},{"address3":"Lower Dzongu","state":"Sikkim","state_code":"29","district":"North Sikkim","district_code":"","address1":"Mangan","address2":"","latitude":"27.5159","longitude":"88.5538","accuracy":"3"},{"address3":"Lingthem","state":"Sikkim","state_code":"29","district":"North Sikkim","district_code":"","address1":"Mangan","address2":"","latitude":"27.5159","longitude":"88.5538","accuracy":"3"},{"address3":"Lingdem","state":"Sikkim","state_code":"29","district":"North Sikkim","district_code":"","address1":"Mangan","address2":"","latitude":"27.5159","longitude":"88.5538","accuracy":"3"},{"address3":"Sangkalan","state":"Sikkim","state_code":"29","district":"North Sikkim","district_code":"","address1":"Mangan","address2":"","latitude":"27.5159","longitude":"88.5538","accuracy":"3"},{"address3":"Rangrang","state":"Sikkim","state_code":"29","district":"North Sikkim","district_code":"","address1":"Mangan","address2":"","latitude":"27.5159","longitude":"88.5538","accuracy":"3"}],"737120":[{"address3":"Naga","state":"Sikkim","state_code":"29","district":"North Sikkim","district_code":"","address1":"Chungthang","address2":"","latitude":"27.6766","longitude":"88.6463","accuracy":"3"},{"address3":"Lachung","state":"Sikkim","state_code":"29","district":"North Sikkim","district_code":"","address1":"Chungthang","address2":"","latitude":"27.6934","longitude":"88.7443","accuracy":"4"},{"address3":"Shipgyare","state":"Sikkim","state_code":"29","district":"North Sikkim","district_code":"","address1":"Chungthang","address2":"","latitude":"27.6766","longitude":"88.6463","accuracy":"3"},{"address3":"Chungthang","state":"Sikkim","state_code":"29","district":"North Sikkim","district_code":"","address1":"Chungthang","address2":"","latitude":"27.6059","longitude":"88.6447","accuracy":"4"},{"address3":"Lachen","state":"Sikkim","state_code":"29","district":"North Sikkim","district_code":"","address1":"Chungthang","address2":"","latitude":"27.7304","longitude":"88.55","accuracy":"4"}],"737121":[{"address3":"Naya Bazar (West Sikkim)","state":"Sikkim","state_code":"29","district":"West Sikkim","district_code":"242","address1":"Jorethang","address2":"","latitude":"27.1308","longitude":"88.2397","accuracy":"4"},{"address3":"Chakung","state":"Sikkim","state_code":"29","district":"West Sikkim","district_code":"242","address1":"Jorethang","address2":"","latitude":"27.1506","longitude":"88.244","accuracy":"4"},{"address3":"Budang","state":"Sikkim","state_code":"29","district":"West Sikkim","district_code":"242","address1":"Jorethang","address2":"","latitude":"27.3491","longitude":"88.1779","accuracy":"4"},{"address3":"Tharpu","state":"Sikkim","state_code":"29","district":"West Sikkim","district_code":"242","address1":"Jorethang","address2":"","latitude":"27.1422","longitude":"88.1926","accuracy":"4"},{"address3":"Zoom","state":"Sikkim","state_code":"29","district":"West Sikkim","district_code":"242","address1":"Jorethang","address2":"","latitude":"27.1569","longitude":"88.2608","accuracy":"3"},{"address3":"Tikpur","state":"Sikkim","state_code":"29","district":"West Sikkim","district_code":"242","address1":"Jorethang","address2":"","latitude":"27.1314","longitude":"88.1384","accuracy":"4"},{"address3":"Takuthang","state":"Sikkim","state_code":"29","district":"West Sikkim","district_code":"242","address1":"Jorethang","address2":"","latitude":"27.1569","longitude":"88.2608","accuracy":"3"},{"address3":"Buriakhop","state":"Sikkim","state_code":"29","district":"West Sikkim","district_code":"242","address1":"Jorethang","address2":"","latitude":"27.1569","longitude":"88.2608","accuracy":"3"},{"address3":"Malbasey","state":"Sikkim","state_code":"29","district":"West Sikkim","district_code":"242","address1":"Jorethang","address2":"","latitude":"27.1569","longitude":"88.2608","accuracy":"3"},{"address3":"Chumbong","state":"Sikkim","state_code":"29","district":"West Sikkim","district_code":"242","address1":"Jorethang","address2":"","latitude":"27.1569","longitude":"88.2608","accuracy":"3"},{"address3":"Sri Badam","state":"Sikkim","state_code":"29","district":"West Sikkim","district_code":"242","address1":"Jorethang","address2":"","latitude":"27.1569","longitude":"88.2608","accuracy":"3"},{"address3":"Suldung","state":"Sikkim","state_code":"29","district":"West Sikkim","district_code":"242","address1":"Jorethang","address2":"","latitude":"27.1569","longitude":"88.2608","accuracy":"3"},{"address3":"Majitar","state":"Sikkim","state_code":"29","district":"West Sikkim","district_code":"242","address1":"Jorethang","address2":"","latitude":"27.1569","longitude":"88.2608","accuracy":"3"},{"address3":"Arubotay","state":"Sikkim","state_code":"29","district":"West Sikkim","district_code":"242","address1":"Jorethang","address2":"","latitude":"27.1569","longitude":"88.2608","accuracy":"3"},{"address3":"Timburbong","state":"Sikkim","state_code":"29","district":"West Sikkim","district_code":"242","address1":"Jorethang","address2":"","latitude":"27.1569","longitude":"88.2608","accuracy":"3"},{"address3":"Soreng","state":"Sikkim","state_code":"29","district":"South Sikkim","district_code":"","address1":"Jorethang","address2":"","latitude":"27.169","longitude":"88.2026","accuracy":"4"},{"address3":"Okharey","state":"Sikkim","state_code":"29","district":"South Sikkim","district_code":"","address1":"Jorethang","address2":"","latitude":"27.1569","longitude":"88.2608","accuracy":"3"},{"address3":"Reshi","state":"Sikkim","state_code":"29","district":"South Sikkim","district_code":"","address1":"Jorethang","address2":"","latitude":"27.1569","longitude":"88.2608","accuracy":"3"},{"address3":"Pipalay","state":"Sikkim","state_code":"29","district":"South Sikkim","district_code":"","address1":"Jorethang","address2":"","latitude":"27.1569","longitude":"88.2608","accuracy":"3"},{"address3":"Sanganath","state":"Sikkim","state_code":"29","district":"South Sikkim","district_code":"","address1":"Jorethang","address2":"","latitude":"27.1569","longitude":"88.2608","accuracy":"3"},{"address3":"Sanchabarey Daramdim","state":"Sikkim","state_code":"29","district":"South Sikkim","district_code":"","address1":"Jorethang","address2":"","latitude":"27.1569","longitude":"88.2608","accuracy":"3"},{"address3":"Sombaria","state":"Sikkim","state_code":"29","district":"South Sikkim","district_code":"","address1":"Jorethang","address2":"","latitude":"27.1569","longitude":"88.2608","accuracy":"3"}],"737126":[{"address3":"Maniram","state":"Sikkim","state_code":"29","district":"South Sikkim","district_code":"","address1":"Namchi","address2":"","latitude":"27.1645","longitude":"88.4055","accuracy":"4"},{"address3":"Damthang","state":"Sikkim","state_code":"29","district":"South Sikkim","district_code":"","address1":"Namchi","address2":"","latitude":"27.2312","longitude":"88.3923","accuracy":"4"},{"address3":"Nandugaon","state":"Sikkim","state_code":"29","district":"South Sikkim","district_code":"","address1":"Namchi","address2":"","latitude":"27.1688","longitude":"88.3729","accuracy":"3"},{"address3":"Kitam","state":"Sikkim","state_code":"29","district":"South Sikkim","district_code":"","address1":"Namchi","address2":"","latitude":"27.121","longitude":"88.351","accuracy":"4"},{"address3":"Namchi","state":"Sikkim","state_code":"29","district":"South Sikkim","district_code":"","address1":"Namchi","address2":"","latitude":"27.1649","longitude":"88.3638","accuracy":"4"},{"address3":"Sorok","state":"Sikkim","state_code":"29","district":"South Sikkim","district_code":"","address1":"Namchi","address2":"","latitude":"27.1688","longitude":"88.3729","accuracy":"3"},{"address3":"Poklok","state":"Sikkim","state_code":"29","district":"South Sikkim","district_code":"","address1":"Namchi","address2":"","latitude":"27.1688","longitude":"88.3729","accuracy":"3"},{"address3":"Pabong","state":"Sikkim","state_code":"29","district":"South Sikkim","district_code":"","address1":"Namchi","address2":"","latitude":"27.2013","longitude":"88.3582","accuracy":"4"},{"address3":"Rong","state":"Sikkim","state_code":"29","district":"South Sikkim","district_code":"","address1":"Namchi","address2":"","latitude":"27.1296","longitude":"88.3663","accuracy":"4"},{"address3":"Shalghari","state":"Sikkim","state_code":"29","district":"South Sikkim","district_code":"","address1":"Namchi","address2":"","latitude":"27.1688","longitude":"88.3729","accuracy":"3"},{"address3":"Phalidara","state":"Sikkim","state_code":"29","district":"South Sikkim","district_code":"","address1":"Namchi","address2":"","latitude":"27.1688","longitude":"88.3729","accuracy":"3"},{"address3":"Mic Khola","state":"Sikkim","state_code":"29","district":"South Sikkim","district_code":"","address1":"Namchi","address2":"","latitude":"27.1688","longitude":"88.3729","accuracy":"3"},{"address3":"Perbing","state":"Sikkim","state_code":"29","district":"South Sikkim","district_code":"","address1":"Namchi","address2":"","latitude":"27.1688","longitude":"88.3729","accuracy":"3"},{"address3":"Singhithang","state":"Sikkim","state_code":"29","district":"South Sikkim","district_code":"","address1":"Namchi","address2":"","latitude":"27.1688","longitude":"88.3729","accuracy":"3"},{"address3":"Wok","state":"Sikkim","state_code":"29","district":"South Sikkim","district_code":"","address1":"Namchi","address2":"","latitude":"27.1688","longitude":"88.3729","accuracy":"3"},{"address3":"Assangthang","state":"Sikkim","state_code":"29","district":"South Sikkim","district_code":"","address1":"Namchi","address2":"","latitude":"27.1688","longitude":"88.3729","accuracy":"3"}],"737128":[{"address3":"Melli Bazar","state":"Sikkim","state_code":"29","district":"South Sikkim","district_code":"","address1":"Melli","address2":"","latitude":"27.0912","longitude":"88.4574","accuracy":"4"},{"address3":"Sumbuk","state":"Sikkim","state_code":"29","district":"South Sikkim","district_code":"","address1":"Melli","address2":"","latitude":"27.1179","longitude":"88.3723","accuracy":"4"},{"address3":"Rateypani","state":"Sikkim","state_code":"29","district":"South Sikkim","district_code":"","address1":"Melli","address2":"","latitude":"27.1002","longitude":"88.4199","accuracy":"3"},{"address3":"Payiong","state":"Sikkim","state_code":"29","district":"South Sikkim","district_code":"","address1":"Melli","address2":"","latitude":"27.1002","longitude":"88.4199","accuracy":"3"},{"address3":"Kerabari","state":"Sikkim","state_code":"29","district":"South Sikkim","district_code":"","address1":"Melli","address2":"","latitude":"27.0915","longitude":"88.4301","accuracy":"4"},{"address3":"Manpur","state":"Sikkim","state_code":"29","district":"South Sikkim","district_code":"","address1":"Melli","address2":"","latitude":"27.1002","longitude":"88.4199","accuracy":"3"},{"address3":"Lungchuk","state":"Sikkim","state_code":"29","district":"South Sikkim","district_code":"","address1":"Melli","address2":"","latitude":"27.1002","longitude":"88.4199","accuracy":"3"},{"address3":"Turuk","state":"Sikkim","state_code":"29","district":"South Sikkim","district_code":"","address1":"Melli","address2":"","latitude":"27.1002","longitude":"88.4199","accuracy":"3"},{"address3":"Melli Dara","state":"Sikkim","state_code":"29","district":"South Sikkim","district_code":"","address1":"Melli","address2":"","latitude":"27.1002","longitude":"88.4199","accuracy":"3"},{"address3":"Sadam","state":"Sikkim","state_code":"29","district":"South Sikkim","district_code":"","address1":"Melli","address2":"","latitude":"27.1002","longitude":"88.4199","accuracy":"3"}],"737131":[{"address3":"Dalapchand","state":"Sikkim","state_code":"29","district":"East Sikkim","district_code":"","address1":"Rangli","address2":"","latitude":"27.0911","longitude":"88.5641","accuracy":"4"},{"address3":"Rangli Bazar","state":"Sikkim","state_code":"29","district":"East Sikkim","district_code":"","address1":"Rangli","address2":"","latitude":"27.1728","longitude":"88.6384","accuracy":"3"},{"address3":"Lingtam","state":"Sikkim","state_code":"29","district":"East Sikkim","district_code":"","address1":"Rangli","address2":"","latitude":"27.2546","longitude":"88.7126","accuracy":"4"},{"address3":"South Regu","state":"Sikkim","state_code":"29","district":"East Sikkim","district_code":"","address1":"Rangli","address2":"","latitude":"27.1728","longitude":"88.6384","accuracy":"3"},{"address3":"North Regu","state":"Sikkim","state_code":"29","district":"East Sikkim","district_code":"","address1":"Rangli","address2":"","latitude":"27.1728","longitude":"88.6384","accuracy":"3"},{"address3":"Latuk","state":"Sikkim","state_code":"29","district":"East Sikkim","district_code":"","address1":"Rangli","address2":"","latitude":"27.1728","longitude":"88.6384","accuracy":"3"},{"address3":"Chujachen","state":"Sikkim","state_code":"29","district":"East Sikkim","district_code":"","address1":"Rangli","address2":"","latitude":"27.1728","longitude":"88.6384","accuracy":"3"},{"address3":"Rolep","state":"Sikkim","state_code":"29","district":"East Sikkim","district_code":"","address1":"Rangli","address2":"","latitude":"27.1728","longitude":"88.6384","accuracy":"3"},{"address3":"Phadamchen","state":"Sikkim","state_code":"29","district":"East Sikkim","district_code":"","address1":"Rangli","address2":"","latitude":"27.1728","longitude":"88.6384","accuracy":"3"}],"737132":[{"address3":"Mamring","state":"Sikkim","state_code":"29","district":"East Sikkim","district_code":"","address1":"Rangpo","address2":"","latitude":"27.2288","longitude":"88.6291","accuracy":"4"},{"address3":"Turung","state":"Sikkim","state_code":"29","district":"East Sikkim","district_code":"","address1":"Rangpo","address2":"","latitude":"27.1422","longitude":"88.5067","accuracy":"4"},{"address3":"Rangpo","state":"Sikkim","state_code":"29","district":"East Sikkim","district_code":"","address1":"Rangpo","address2":"","latitude":"27.1773","longitude":"88.5336","accuracy":"4"},{"address3":"East Pendam","state":"Sikkim","state_code":"29","district":"East Sikkim","district_code":"","address1":"Rangpo","address2":"","latitude":"27.2131","longitude":"88.5223","accuracy":"4"},{"address3":"Duga","state":"Sikkim","state_code":"29","district":"East Sikkim","district_code":"","address1":"Rangpo","address2":"","latitude":"27.1993","longitude":"88.5332","accuracy":"4"},{"address3":"Namthang","state":"Sikkim","state_code":"29","district":"East Sikkim","district_code":"","address1":"Rangpo","address2":"","latitude":"27.1629","longitude":"88.4775","accuracy":"4"},{"address3":"Upper Pendam","state":"Sikkim","state_code":"29","district":"East Sikkim","district_code":"","address1":"Rangpo","address2":"","latitude":"27.1873","longitude":"88.5337","accuracy":"3"},{"address3":"Kateng Bokrang","state":"Sikkim","state_code":"29","district":"East Sikkim","district_code":"","address1":"Rangpo","address2":"","latitude":"27.1873","longitude":"88.5337","accuracy":"3"},{"address3":"Maney Dara","state":"Sikkim","state_code":"29","district":"East Sikkim","district_code":"","address1":"Rangpo","address2":"","latitude":"27.1873","longitude":"88.5337","accuracy":"3"}],"737133":[{"address3":"Aritar","state":"Sikkim","state_code":"29","district":"East Sikkim","district_code":"","address1":"Rhenock","address2":"","latitude":"27.1852","longitude":"88.6653","accuracy":"4"},{"address3":"Amba","state":"Sikkim","state_code":"29","district":"East Sikkim","district_code":"","address1":"Rhenock","address2":"","latitude":"27.2101","longitude":"88.6262","accuracy":"4"},{"address3":"Rorathang","state":"Sikkim","state_code":"29","district":"East Sikkim","district_code":"","address1":"Rhenock","address2":"","latitude":"27.2021","longitude":"88.6217","accuracy":"4"},{"address3":"Sudunglakha","state":"Sikkim","state_code":"29","district":"East Sikkim","district_code":"","address1":"Rhenock","address2":"","latitude":"27.1974","longitude":"88.6357","accuracy":"3"},{"address3":"Rhenock","state":"Sikkim","state_code":"29","district":"East Sikkim","district_code":"","address1":"Rhenock","address2":"","latitude":"27.1782","longitude":"88.6467","accuracy":"4"},{"address3":"Taza","state":"Sikkim","state_code":"29","district":"East Sikkim","district_code":"","address1":"Rhenock","address2":"","latitude":"27.2114","longitude":"88.6187","accuracy":"4"},{"address3":"Shivalaya Mandir Lingsey","state":"Sikkim","state_code":"29","district":"East Sikkim","district_code":"","address1":"Rhenock","address2":"","latitude":"27.1974","longitude":"88.6357","accuracy":"3"},{"address3":"Upper Dalapchand","state":"Sikkim","state_code":"29","district":"East Sikkim","district_code":"","address1":"Rhenock","address2":"","latitude":"27.1974","longitude":"88.6357","accuracy":"3"},{"address3":"Upper Khamdong","state":"Sikkim","state_code":"29","district":"East Sikkim","district_code":"","address1":"Rhenock","address2":"","latitude":"27.1974","longitude":"88.6357","accuracy":"3"}],"737134":[{"address3":"Bermiok","state":"Sikkim","state_code":"29","district":"East Sikkim","district_code":"","address1":"Singtam","address2":"","latitude":"27.2385","longitude":"88.4887","accuracy":"3"},{"address3":"Singtam","state":"Sikkim","state_code":"29","district":"East Sikkim","district_code":"","address1":"Singtam","address2":"","latitude":"27.2347","longitude":"88.5017","accuracy":"4"},{"address3":"Tarku","state":"Sikkim","state_code":"29","district":"East Sikkim","district_code":"","address1":"Singtam","address2":"","latitude":"27.2471","longitude":"88.4372","accuracy":"4"},{"address3":"Makha","state":"Sikkim","state_code":"29","district":"East Sikkim","district_code":"","address1":"Singtam","address2":"","latitude":"27.2385","longitude":"88.4887","accuracy":"3"},{"address3":"Namphing","state":"Sikkim","state_code":"29","district":"East Sikkim","district_code":"","address1":"Singtam","address2":"","latitude":"27.2319","longitude":"88.4796","accuracy":"4"},{"address3":"Neya","state":"Sikkim","state_code":"29","district":"East Sikkim","district_code":"","address1":"Singtam","address2":"","latitude":"27.2385","longitude":"88.4887","accuracy":"3"},{"address3":"Sumin","state":"Sikkim","state_code":"29","district":"East Sikkim","district_code":"","address1":"Singtam","address2":"","latitude":"27.2405","longitude":"88.5361","accuracy":"4"},{"address3":"Tumin","state":"Sikkim","state_code":"29","district":"East Sikkim","district_code":"","address1":"Singtam","address2":"","latitude":"27.2385","longitude":"88.4887","accuracy":"3"},{"address3":"Bardang","state":"Sikkim","state_code":"29","district":"East Sikkim","district_code":"","address1":"Singtam","address2":"","latitude":"27.2385","longitude":"88.4887","accuracy":"3"},{"address3":"Sang","state":"Sikkim","state_code":"29","district":"East Sikkim","district_code":"","address1":"Singtam","address2":"","latitude":"27.2385","longitude":"88.4887","accuracy":"3"},{"address3":"Khamdong","state":"Sikkim","state_code":"29","district":"East Sikkim","district_code":"","address1":"Singtam","address2":"","latitude":"27.2385","longitude":"88.4887","accuracy":"3"},{"address3":"Kokalay","state":"Sikkim","state_code":"29","district":"East Sikkim","district_code":"","address1":"Singtam","address2":"","latitude":"27.2385","longitude":"88.4887","accuracy":"3"},{"address3":"Gangkha Busty","state":"Sikkim","state_code":"29","district":"East Sikkim","district_code":"","address1":"Singtam","address2":"","latitude":"27.2385","longitude":"88.4887","accuracy":"3"},{"address3":"Sakhu Busty","state":"Sikkim","state_code":"29","district":"East Sikkim","district_code":"","address1":"Singtam","address2":"","latitude":"27.2385","longitude":"88.4887","accuracy":"3"},{"address3":"Nazitam","state":"Sikkim","state_code":"29","district":"East Sikkim","district_code":"","address1":"Singtam","address2":"","latitude":"27.2385","longitude":"88.4887","accuracy":"3"},{"address3":"Yangyang","state":"Sikkim","state_code":"29","district":"East Sikkim","district_code":"","address1":"Singtam","address2":"","latitude":"27.2385","longitude":"88.4887","accuracy":"3"},{"address3":"Sangkhola","state":"Sikkim","state_code":"29","district":"East Sikkim","district_code":"","address1":"Singtam","address2":"","latitude":"27.2385","longitude":"88.4887","accuracy":"3"},{"address3":"Lingee","state":"Sikkim","state_code":"29","district":"East Sikkim","district_code":"","address1":"Singtam","address2":"","latitude":"27.2385","longitude":"88.4887","accuracy":"3"},{"address3":"Lingmoo","state":"Sikkim","state_code":"29","district":"East Sikkim","district_code":"","address1":"Singtam","address2":"","latitude":"27.2385","longitude":"88.4887","accuracy":"3"},{"address3":"Lingzey","state":"Sikkim","state_code":"29","district":"East Sikkim","district_code":"","address1":"Singtam","address2":"","latitude":"27.2385","longitude":"88.4887","accuracy":"3"},{"address3":"Sinchuthang","state":"Sikkim","state_code":"29","district":"East Sikkim","district_code":"","address1":"Singtam","address2":"","latitude":"27.2385","longitude":"88.4887","accuracy":"3"},{"address3":"Dipudara Nhpc Complex","state":"Sikkim","state_code":"29","district":"East Sikkim","district_code":"","address1":"Singtam","address2":"","latitude":"27.2385","longitude":"88.4887","accuracy":"3"},{"address3":"Temi Tarku","state":"Sikkim","state_code":"29","district":"East Sikkim","district_code":"","address1":"Singtam","address2":"","latitude":"27.2385","longitude":"88.4887","accuracy":"3"},{"address3":"West Pendam","state":"Sikkim","state_code":"29","district":"East Sikkim","district_code":"","address1":"Singtam","address2":"","latitude":"27.2385","longitude":"88.4887","accuracy":"3"},{"address3":"Beyong","state":"Sikkim","state_code":"29","district":"East Sikkim","district_code":"","address1":"Singtam","address2":"","latitude":"27.2385","longitude":"88.4887","accuracy":"3"}],"737135":[{"address3":"Rumtek","state":"Sikkim","state_code":"29","district":"East Sikkim","district_code":"","address1":"Ranipool","address2":"","latitude":"27.3319","longitude":"88.6019","accuracy":"4"},{"address3":"Upper Martam","state":"Sikkim","state_code":"29","district":"East Sikkim","district_code":"","address1":"Ranipool / Gangtok","address2":"","latitude":"27.3319","longitude":"88.6019","accuracy":"3"},{"address3":"Rautey-rumtek","state":"Sikkim","state_code":"29","district":"East Sikkim","district_code":"","address1":"Ranipool / Gangtok","address2":"","latitude":"27.3319","longitude":"88.6019","accuracy":"3"},{"address3":"Ahoo Busty","state":"Sikkim","state_code":"29","district":"East Sikkim","district_code":"","address1":"Ranipool","address2":"","latitude":"27.3319","longitude":"88.6019","accuracy":"3"},{"address3":"Nandok","state":"Sikkim","state_code":"29","district":"East Sikkim","district_code":"","address1":"Ranipool / Gangtok","address2":"","latitude":"27.3319","longitude":"88.6019","accuracy":"3"},{"address3":"Middle Camp","state":"Sikkim","state_code":"29","district":"East Sikkim","district_code":"","address1":"Ranipool","address2":"","latitude":"27.3319","longitude":"88.6019","accuracy":"3"},{"address3":"Samlick-marchak","state":"Sikkim","state_code":"29","district":"East Sikkim","district_code":"","address1":"Ranipool","address2":"","latitude":"27.3319","longitude":"88.6019","accuracy":"3"},{"address3":"Ranipool","state":"Sikkim","state_code":"29","district":"East Sikkim","district_code":"","address1":"Gangtok","address2":"","latitude":"27.3319","longitude":"88.6019","accuracy":"3"},{"address3":"Assam Lingzey","state":"Sikkim","state_code":"29","district":"East Sikkim","district_code":"","address1":"Ranipool","address2":"","latitude":"27.3319","longitude":"88.6019","accuracy":"3"},{"address3":"Ray-mindu","state":"Sikkim","state_code":"29","district":"East Sikkim","district_code":"","address1":"Ranipool","address2":"","latitude":"27.3319","longitude":"88.6019","accuracy":"3"}],"737136":[{"address3":"Majitar","state":"Sikkim","state_code":"29","district":"East Sikkim","district_code":"","address1":"Rangpo","address2":"","latitude":"27.2175","longitude":"88.5363","accuracy":"1"}],"737139":[{"address3":"Kewzing","state":"Sikkim","state_code":"29","district":"South Sikkim","district_code":"","address1":"Ravangla","address2":"","latitude":"27.2799","longitude":"88.3534","accuracy":"4"},{"address3":"Tinkitam","state":"Sikkim","state_code":"29","district":"South Sikkim","district_code":"","address1":"Ravangla","address2":"","latitude":"27.2392","longitude":"88.3302","accuracy":"4"},{"address3":"Ravangla","state":"Sikkim","state_code":"29","district":"South Sikkim","district_code":"","address1":"Ravangla","address2":"","latitude":"27.3059","longitude":"88.3636","accuracy":"4"},{"address3":"Ralang","state":"Sikkim","state_code":"29","district":"South Sikkim","district_code":"","address1":"Ravangla","address2":"","latitude":"27.275","longitude":"88.3491","accuracy":"3"},{"address3":"Sangmoo","state":"Sikkim","state_code":"29","district":"South Sikkim","district_code":"","address1":"Ravangla","address2":"","latitude":"27.275","longitude":"88.3491","accuracy":"3"},{"address3":"Lunsing","state":"Sikkim","state_code":"29","district":"South Sikkim","district_code":"","address1":"NAMCHI","address2":"","latitude":"27.275","longitude":"88.3491","accuracy":"3"},{"address3":"Tingmoo","state":"Sikkim","state_code":"29","district":"South Sikkim","district_code":"","address1":"Ravangla","address2":"","latitude":"27.275","longitude":"88.3491","accuracy":"3"},{"address3":"Barfung","state":"Sikkim","state_code":"29","district":"South Sikkim","district_code":"","address1":"Ravangla","address2":"","latitude":"27.275","longitude":"88.3491","accuracy":"3"},{"address3":"Ben","state":"Sikkim","state_code":"29","district":"South Sikkim","district_code":"","address1":"Ravangla","address2":"","latitude":"27.275","longitude":"88.3491","accuracy":"3"},{"address3":"Berang","state":"Sikkim","state_code":"29","district":"South Sikkim","district_code":"","address1":"Ravangla","address2":"","latitude":"27.275","longitude":"88.3491","accuracy":"3"},{"address3":"Phamtam","state":"Sikkim","state_code":"29","district":"South Sikkim","district_code":"","address1":"Ravangla","address2":"","latitude":"27.275","longitude":"88.3491","accuracy":"3"}],"credits":[{"name":"geonames","url":"https://www.geonames.org"}],"last_update":"2019-03-01T09:01:36.849Z"}