{"759001":[{"address3":"Dhenkanal College","state":"Odisha","state_code":"21","district":"Dhenkanal","district_code":"383","address1":"Dhenkanal Sadar","address2":"","latitude":"20.9578","longitude":"85.2872","accuracy":"1"},{"address3":"Dhenkanal H.O","state":"Odisha","state_code":"21","district":"Dhenkanal","district_code":"383","address1":"Dhenkanal","address2":"","latitude":"20.9578","longitude":"85.2872","accuracy":"1"},{"address3":"Jubuli Town","state":"Odisha","state_code":"21","district":"Dhenkanal","district_code":"383","address1":"Dhenkanal Sadar","address2":"","latitude":"20.9578","longitude":"85.2872","accuracy":"1"}],"759013":[{"address3":"Tarava","state":"Odisha","state_code":"21","district":"Dhenkanal","district_code":"383","address1":"Dhenkanal","address2":"","latitude":"20.8262","longitude":"85.5262","accuracy":"4"},{"address3":"Gengutia","state":"Odisha","state_code":"21","district":"Dhenkanal","district_code":"383","address1":"Dhenkanal","address2":"","latitude":"20.9981","longitude":"85.2603","accuracy":"4"},{"address3":"Shankarpur","state":"Odisha","state_code":"21","district":"Dhenkanal","district_code":"383","address1":"Dhenkanal Sadar","address2":"","latitude":"20.8262","longitude":"85.5262","accuracy":"4"},{"address3":"Barada","state":"Odisha","state_code":"21","district":"Dhenkanal","district_code":"383","address1":"Dhenkanal","address2":"","latitude":"21.0239","longitude":"85.1885","accuracy":"3"},{"address3":"Bajichowk","state":"Odisha","state_code":"21","district":"Dhenkanal","district_code":"383","address1":"Dhenkanal Sadar","address2":"","latitude":"21.0239","longitude":"85.1885","accuracy":"3"},{"address3":"Mahisapat","state":"Odisha","state_code":"21","district":"Dhenkanal","district_code":"383","address1":"Dhenkanal Sadar","address2":"","latitude":"21.0239","longitude":"85.1885","accuracy":"3"},{"address3":"Saptasajya","state":"Odisha","state_code":"21","district":"Dhenkanal","district_code":"383","address1":"Dhenkanal","address2":"","latitude":"21.0239","longitude":"85.1885","accuracy":"3"},{"address3":"Dhenkanal R S","state":"Odisha","state_code":"21","district":"Dhenkanal","district_code":"383","address1":"Dhenkanal Sadar","address2":"","latitude":"21.0239","longitude":"85.1885","accuracy":"3"},{"address3":"Chaulia","state":"Odisha","state_code":"21","district":"Dhenkanal","district_code":"383","address1":"Dhenkanal","address2":"","latitude":"21.0239","longitude":"85.1885","accuracy":"3"},{"address3":"Kankadpal","state":"Odisha","state_code":"21","district":"Dhenkanal","district_code":"383","address1":"Dhenkanal","address2":"","latitude":"21.0239","longitude":"85.1885","accuracy":"3"},{"address3":"Korian","state":"Odisha","state_code":"21","district":"Dhenkanal","district_code":"383","address1":"Dhenkanal","address2":"","latitude":"21.0239","longitude":"85.1885","accuracy":"3"}],"759014":[{"address3":"Radhadeipur","state":"Odisha","state_code":"21","district":"Dhenkanal","district_code":"383","address1":"Dhenkanal","address2":"","latitude":"20.8662","longitude":"85.2129","accuracy":"1"},{"address3":"Mahimagadi","state":"Odisha","state_code":"21","district":"Dhenkanal","district_code":"383","address1":"Gandia","address2":"","latitude":"20.8662","longitude":"85.2129","accuracy":"1"},{"address3":"Neulpoi","state":"Odisha","state_code":"21","district":"Dhenkanal","district_code":"383","address1":"Dhenkanal","address2":"","latitude":"20.8662","longitude":"85.2129","accuracy":"1"},{"address3":"Mahapada","state":"Odisha","state_code":"21","district":"Dhenkanal","district_code":"383","address1":"Dhenkanal","address2":"","latitude":"20.8662","longitude":"85.2129","accuracy":"1"},{"address3":"Khankar","state":"Odisha","state_code":"21","district":"Dhenkanal","district_code":"383","address1":"Dhenkanal","address2":"","latitude":"20.8662","longitude":"85.2129","accuracy":"1"},{"address3":"Badanagena","state":"Odisha","state_code":"21","district":"Dhenkanal","district_code":"383","address1":"Dhenkanal","address2":"","latitude":"20.8662","longitude":"85.2129","accuracy":"1"},{"address3":"Kendupada","state":"Odisha","state_code":"21","district":"Dhenkanal","district_code":"383","address1":"Dhenkanal","address2":"","latitude":"20.8662","longitude":"85.2129","accuracy":"1"},{"address3":"Karamul","state":"Odisha","state_code":"21","district":"Dhenkanal","district_code":"383","address1":"Gandia","address2":"","latitude":"20.8662","longitude":"85.2129","accuracy":"1"},{"address3":"Kaluria","state":"Odisha","state_code":"21","district":"Dhenkanal","district_code":"383","address1":"Gandia","address2":"","latitude":"20.8662","longitude":"85.2129","accuracy":"1"},{"address3":"Kabera Madhapur","state":"Odisha","state_code":"21","district":"Dhenkanal","district_code":"383","address1":"Dhenkanal","address2":"","latitude":"20.8662","longitude":"85.2129","accuracy":"1"},{"address3":"Chirulei","state":"Odisha","state_code":"21","district":"Dhenkanal","district_code":"383","address1":"Dhenkanal","address2":"","latitude":"20.8662","longitude":"85.2129","accuracy":"1"},{"address3":"Banasingh","state":"Odisha","state_code":"21","district":"Dhenkanal","district_code":"383","address1":"Dhenkanal","address2":"","latitude":"20.8662","longitude":"85.2129","accuracy":"1"},{"address3":"Bainsia","state":"Odisha","state_code":"21","district":"Dhenkanal","district_code":"383","address1":"Dhenkanal","address2":"","latitude":"20.8662","longitude":"85.2129","accuracy":"1"}],"759015":[{"address3":"Mangalpur","state":"Odisha","state_code":"21","district":"Dhenkanal","district_code":"383","address1":"Dhenkanal","address2":"","latitude":"20.8464","longitude":"85.2875","accuracy":"4"},{"address3":"Kalikaprasad","state":"Odisha","state_code":"21","district":"Dhenkanal","district_code":"383","address1":"Dhenkanal","address2":"","latitude":"20.8262","longitude":"85.5262","accuracy":"4"},{"address3":"Govindprasad","state":"Odisha","state_code":"21","district":"Dhenkanal","district_code":"383","address1":"Dhenkanal","address2":"","latitude":"20.4657","longitude":"85.2154","accuracy":"3"},{"address3":"Kottam","state":"Odisha","state_code":"21","district":"Dhenkanal","district_code":"383","address1":"Dhenkanal","address2":"","latitude":"20.4657","longitude":"85.2154","accuracy":"3"},{"address3":"Chandrasekharaprasad","state":"Odisha","state_code":"21","district":"Dhenkanal","district_code":"383","address1":"Dhenkanal","address2":"","latitude":"20.4657","longitude":"85.2154","accuracy":"3"},{"address3":"Sarakpatana","state":"Odisha","state_code":"21","district":"Dhenkanal","district_code":"383","address1":"Dhenkanal","address2":"","latitude":"20.4657","longitude":"85.2154","accuracy":"3"},{"address3":"Bhaliabolkateni","state":"Odisha","state_code":"21","district":"Dhenkanal","district_code":"383","address1":"Dhenkanal","address2":"","latitude":"20.4657","longitude":"85.2154","accuracy":"3"},{"address3":"Bhapur (Dhenkanal)","state":"Odisha","state_code":"21","district":"Dhenkanal","district_code":"383","address1":"Dhenkanal","address2":"","latitude":"20.4657","longitude":"85.2154","accuracy":"3"},{"address3":"Kankadahad Sadar","state":"Odisha","state_code":"21","district":"Dhenkanal","district_code":"383","address1":"Dhenkanal","address2":"","latitude":"20.4657","longitude":"85.2154","accuracy":"3"},{"address3":"Dhirapatna","state":"Odisha","state_code":"21","district":"Dhenkanal","district_code":"383","address1":"Dhenkanal","address2":"","latitude":"20.4657","longitude":"85.2154","accuracy":"3"},{"address3":"Ghatipiri","state":"Odisha","state_code":"21","district":"Dhenkanal","district_code":"383","address1":"Dhenkanal","address2":"","latitude":"20.4657","longitude":"85.2154","accuracy":"3"},{"address3":"Kamadhenukote","state":"Odisha","state_code":"21","district":"Dhenkanal","district_code":"383","address1":"Dhenkanal","address2":"","latitude":"20.4657","longitude":"85.2154","accuracy":"3"},{"address3":"Kalanga","state":"Odisha","state_code":"21","district":"Dhenkanal","district_code":"383","address1":"Dhenkanal","address2":"","latitude":"20.4657","longitude":"85.2154","accuracy":"3"},{"address3":"Kakudibhag","state":"Odisha","state_code":"21","district":"Dhenkanal","district_code":"383","address1":"Dhenkanal","address2":"","latitude":"20.4657","longitude":"85.2154","accuracy":"3"}],"759016":[{"address3":"Kashipur","state":"Odisha","state_code":"21","district":"Dhenkanal","district_code":"383","address1":"Dhenkanal","address2":"","latitude":"20.8262","longitude":"85.5262","accuracy":"4"},{"address3":"Nuagarh","state":"Odisha","state_code":"21","district":"Dhenkanal","district_code":"383","address1":"Dhenkanal","address2":"","latitude":"20.8262","longitude":"85.5262","accuracy":"4"},{"address3":"Sadangi","state":"Odisha","state_code":"21","district":"Dhenkanal","district_code":"383","address1":"Gandia","address2":"","latitude":"20.0642","longitude":"83.8359","accuracy":"3"},{"address3":"Sorisiapada","state":"Odisha","state_code":"21","district":"Dhenkanal","district_code":"383","address1":"Dhenkanal","address2":"","latitude":"20.0642","longitude":"83.8359","accuracy":"3"},{"address3":"Raitala","state":"Odisha","state_code":"21","district":"Dhenkanal","district_code":"383","address1":"Dhenkanal","address2":"","latitude":"20.0642","longitude":"83.8359","accuracy":"3"},{"address3":"Santhapur","state":"Odisha","state_code":"21","district":"Dhenkanal","district_code":"383","address1":"Dhenkanal","address2":"","latitude":"20.0642","longitude":"83.8359","accuracy":"3"},{"address3":"Gondiapatna","state":"Odisha","state_code":"21","district":"Dhenkanal","district_code":"383","address1":"Dhenkanal","address2":"","latitude":"20.0642","longitude":"83.8359","accuracy":"3"},{"address3":"Barada","state":"Odisha","state_code":"21","district":"Dhenkanal","district_code":"383","address1":"Dhenkanal","address2":"","latitude":"20.0642","longitude":"83.8359","accuracy":"3"},{"address3":"Bidharpur","state":"Odisha","state_code":"21","district":"Dhenkanal","district_code":"383","address1":"Dhenkanal","address2":"","latitude":"20.0642","longitude":"83.8359","accuracy":"3"},{"address3":"Kalunigoda","state":"Odisha","state_code":"21","district":"Dhenkanal","district_code":"383","address1":"Dhenkanal","address2":"","latitude":"20.0642","longitude":"83.8359","accuracy":"3"},{"address3":"Kapilash","state":"Odisha","state_code":"21","district":"Dhenkanal","district_code":"383","address1":"Gandia","address2":"","latitude":"20.0642","longitude":"83.8359","accuracy":"3"},{"address3":"Khankira","state":"Odisha","state_code":"21","district":"Dhenkanal","district_code":"383","address1":"Gandia","address2":"","latitude":"20.0642","longitude":"83.8359","accuracy":"3"},{"address3":"Lauloi","state":"Odisha","state_code":"21","district":"Dhenkanal","district_code":"383","address1":"Dhenkanal","address2":"","latitude":"20.0642","longitude":"83.8359","accuracy":"3"},{"address3":"Pingua","state":"Odisha","state_code":"21","district":"Dhenkanal","district_code":"383","address1":"Dhenkanal","address2":"","latitude":"20.0642","longitude":"83.8359","accuracy":"3"},{"address3":"Letheka","state":"Odisha","state_code":"21","district":"Dhenkanal","district_code":"383","address1":"Dhenkanal","address2":"","latitude":"20.0642","longitude":"83.8359","accuracy":"3"},{"address3":"Mandar","state":"Odisha","state_code":"21","district":"Dhenkanal","district_code":"383","address1":"Gandia","address2":"","latitude":"20.0642","longitude":"83.8359","accuracy":"3"},{"address3":"Mathatentulia","state":"Odisha","state_code":"21","district":"Dhenkanal","district_code":"383","address1":"Dhenkanal","address2":"","latitude":"20.0642","longitude":"83.8359","accuracy":"3"},{"address3":"Nihalprasad","state":"Odisha","state_code":"21","district":"Dhenkanal","district_code":"383","address1":"Dhenkanal","address2":"","latitude":"20.0642","longitude":"83.8359","accuracy":"3"}],"759017":[{"address3":"Bhuban","state":"Odisha","state_code":"21","district":"Dhenkanal","district_code":"383","address1":"Kamakhyanagar","address2":"","latitude":"20.882","longitude":"85.8333","accuracy":"4"},{"address3":"Chandipal","state":"Odisha","state_code":"21","district":"Dhenkanal","district_code":"383","address1":"Gandia","address2":"","latitude":"20.8667","longitude":"85.3048","accuracy":"3"},{"address3":"Anantapur","state":"Odisha","state_code":"21","district":"Dhenkanal","district_code":"383","address1":"Kamakhyanagar","address2":"","latitude":"20.8262","longitude":"85.5262","accuracy":"4"},{"address3":"Rendapatana","state":"Odisha","state_code":"21","district":"Dhenkanal","district_code":"383","address1":"Kamakhyanagar","address2":"","latitude":"20.8667","longitude":"85.3048","accuracy":"3"},{"address3":"Ekatali","state":"Odisha","state_code":"21","district":"Dhenkanal","district_code":"383","address1":"Kamakhyanagar","address2":"","latitude":"20.8262","longitude":"85.5262","accuracy":"4"},{"address3":"Anlajhari","state":"Odisha","state_code":"21","district":"Dhenkanal","district_code":"383","address1":"Kamakhyanagar","address2":"","latitude":"20.8667","longitude":"85.3048","accuracy":"3"},{"address3":"Ramakrishnapur","state":"Odisha","state_code":"21","district":"Dhenkanal","district_code":"383","address1":"Kamakhyanagar","address2":"","latitude":"20.8262","longitude":"85.5262","accuracy":"4"},{"address3":"Bhusal","state":"Odisha","state_code":"21","district":"Dhenkanal","district_code":"383","address1":"Kamakhyanagar","address2":"","latitude":"20.8667","longitude":"85.3048","accuracy":"3"},{"address3":"Balibo","state":"Odisha","state_code":"21","district":"Dhenkanal","district_code":"383","address1":"Kamakhyanagar","address2":"","latitude":"20.8667","longitude":"85.3048","accuracy":"3"},{"address3":"Mahulapal","state":"Odisha","state_code":"21","district":"Dhenkanal","district_code":"383","address1":"Bhuban","address2":"","latitude":"20.8667","longitude":"85.3048","accuracy":"3"},{"address3":"Dhalapada","state":"Odisha","state_code":"21","district":"Dhenkanal","district_code":"383","address1":"Kamakhyanagar","address2":"","latitude":"20.8667","longitude":"85.3048","accuracy":"3"}],"759018":[{"address3":"Kamakhyanagar","state":"Odisha","state_code":"21","district":"Dhenkanal","district_code":"383","address1":"Kamakhyanagar","address2":"","latitude":"20.9338","longitude":"85.5449","accuracy":"4"},{"address3":"Khajuria","state":"Odisha","state_code":"21","district":"Dhenkanal","district_code":"383","address1":"Kamakhyanagar","address2":"","latitude":"20.8262","longitude":"85.5262","accuracy":"4"},{"address3":"Samatangi","state":"Odisha","state_code":"21","district":"Dhenkanal","district_code":"383","address1":"Kamakshyanagar","address2":"","latitude":"20.8971","longitude":"85.4917","accuracy":"4"},{"address3":"Saruali","state":"Odisha","state_code":"21","district":"Dhenkanal","district_code":"383","address1":"Kamakhyanagar","address2":"","latitude":"20.8262","longitude":"85.5262","accuracy":"4"},{"address3":"Mahulpal","state":"Odisha","state_code":"21","district":"Dhenkanal","district_code":"383","address1":"Kamakhyanagar","address2":"","latitude":"21.111","longitude":"85.408","accuracy":"3"},{"address3":"Bhagirathipur","state":"Odisha","state_code":"21","district":"Dhenkanal","district_code":"383","address1":"Kamakhyanagar","address2":"","latitude":"20.8262","longitude":"85.5262","accuracy":"4"},{"address3":"Batagaon","state":"Odisha","state_code":"21","district":"Dhenkanal","district_code":"383","address1":"Kamakhyanagar","address2":"","latitude":"21.0048","longitude":"85.5903","accuracy":"4"},{"address3":"Baunsapal","state":"Odisha","state_code":"21","district":"Dhenkanal","district_code":"383","address1":"Kamakhyanagar","address2":"","latitude":"20.8262","longitude":"85.5262","accuracy":"4"},{"address3":"Jayapurakateni","state":"Odisha","state_code":"21","district":"Dhenkanal","district_code":"383","address1":"Kamakhyanagar","address2":"","latitude":"21.111","longitude":"85.408","accuracy":"3"},{"address3":"Malapura","state":"Odisha","state_code":"21","district":"Dhenkanal","district_code":"383","address1":"Kamakhyanagar","address2":"","latitude":"21.111","longitude":"85.408","accuracy":"3"},{"address3":"Kamarda","state":"Odisha","state_code":"21","district":"Dhenkanal","district_code":"383","address1":"Kamakhyanagar","address2":"","latitude":"20.9779","longitude":"85.4081","accuracy":"4"},{"address3":"Sibulapasi","state":"Odisha","state_code":"21","district":"Dhenkanal","district_code":"383","address1":"Kamakhyanagar","address2":"","latitude":"21.111","longitude":"85.408","accuracy":"3"},{"address3":"Kanapura","state":"Odisha","state_code":"21","district":"Dhenkanal","district_code":"383","address1":"Kamakhyanagar","address2":"","latitude":"21.111","longitude":"85.408","accuracy":"3"},{"address3":"Motta","state":"Odisha","state_code":"21","district":"Dhenkanal","district_code":"383","address1":"Kamakhyanagar","address2":"","latitude":"21.111","longitude":"85.408","accuracy":"3"},{"address3":"Muktapasi","state":"Odisha","state_code":"21","district":"Dhenkanal","district_code":"383","address1":"Kamakhyanagar","address2":"","latitude":"21.111","longitude":"85.408","accuracy":"3"},{"address3":"Pipala","state":"Odisha","state_code":"21","district":"Dhenkanal","district_code":"383","address1":"Kamakhyanagar","address2":"","latitude":"21.111","longitude":"85.408","accuracy":"3"}],"759019":[{"address3":"Dhalpur","state":"Odisha","state_code":"21","district":"Dhenkanal","district_code":"383","address1":"Dhenkanal","address2":"","latitude":"21.0413","longitude":"85.236","accuracy":"4"},{"address3":"Hindol Road R.S.","state":"Odisha","state_code":"21","district":"Dhenkanal","district_code":"383","address1":"Motunga","address2":"","latitude":"20.8615","longitude":"85.362","accuracy":"3"},{"address3":"Chandpur","state":"Odisha","state_code":"21","district":"Dhenkanal","district_code":"383","address1":"Parajang","address2":"","latitude":"20.9428","longitude":"85.3528","accuracy":"4"},{"address3":"Bedapada","state":"Odisha","state_code":"21","district":"Dhenkanal","district_code":"383","address1":"Hindol","address2":"","latitude":"20.8615","longitude":"85.362","accuracy":"3"},{"address3":"Bangursinga","state":"Odisha","state_code":"21","district":"Dhenkanal","district_code":"383","address1":"Hindol","address2":"","latitude":"20.7785","longitude":"85.4172","accuracy":"4"},{"address3":"Saanda","state":"Odisha","state_code":"21","district":"Dhenkanal","district_code":"383","address1":"Hindol","address2":"","latitude":"20.8615","longitude":"85.362","accuracy":"3"},{"address3":"Nadhara","state":"Odisha","state_code":"21","district":"Dhenkanal","district_code":"383","address1":"Hindol","address2":"","latitude":"20.788","longitude":"85.392","accuracy":"4"},{"address3":"Babandha","state":"Odisha","state_code":"21","district":"Dhenkanal","district_code":"383","address1":"Hindol","address2":"","latitude":"20.8615","longitude":"85.362","accuracy":"3"},{"address3":"Kumusi","state":"Odisha","state_code":"21","district":"Dhenkanal","district_code":"383","address1":"Hindol","address2":"","latitude":"20.8473","longitude":"85.3692","accuracy":"4"},{"address3":"Dhalapur","state":"Odisha","state_code":"21","district":"Dhenkanal","district_code":"383","address1":"Hindol","address2":"","latitude":"20.8615","longitude":"85.362","accuracy":"3"},{"address3":"Balaramprasad","state":"Odisha","state_code":"21","district":"Dhenkanal","district_code":"383","address1":"Hindol","address2":"","latitude":"20.7711","longitude":"85.4046","accuracy":"4"}],"759020":[{"address3":"Krishnachandrapur","state":"Odisha","state_code":"21","district":"Dhenkanal","district_code":"383","address1":"Hindol","address2":"","latitude":"20.7013","longitude":"85.2412","accuracy":"4"},{"address3":"Kalanda","state":"Odisha","state_code":"21","district":"Dhenkanal","district_code":"383","address1":"Hindol","address2":"","latitude":"20.6727","longitude":"85.2381","accuracy":"4"},{"address3":"Balimi","state":"Odisha","state_code":"21","district":"Dhenkanal","district_code":"383","address1":"Hindol","address2":"","latitude":"20.6906","longitude":"85.2308","accuracy":"3"},{"address3":"Hatura","state":"Odisha","state_code":"21","district":"Dhenkanal","district_code":"383","address1":"Hindol","address2":"","latitude":"20.6978","longitude":"85.213","accuracy":"4"},{"address3":"Badalo","state":"Odisha","state_code":"21","district":"Dhenkanal","district_code":"383","address1":"Hindol","address2":"","latitude":"20.6906","longitude":"85.2308","accuracy":"3"},{"address3":"Chitalpur","state":"Odisha","state_code":"21","district":"Dhenkanal","district_code":"383","address1":"Hindol","address2":"","latitude":"20.6906","longitude":"85.2308","accuracy":"3"},{"address3":"Dudurkote","state":"Odisha","state_code":"21","district":"Dhenkanal","district_code":"383","address1":"Hindol","address2":"","latitude":"20.6906","longitude":"85.2308","accuracy":"3"},{"address3":"Giridharaprasad","state":"Odisha","state_code":"21","district":"Dhenkanal","district_code":"383","address1":"Hindol","address2":"","latitude":"20.6906","longitude":"85.2308","accuracy":"3"},{"address3":"Panchapada","state":"Odisha","state_code":"21","district":"Dhenkanal","district_code":"383","address1":"Hindol","address2":"","latitude":"20.6906","longitude":"85.2308","accuracy":"3"},{"address3":"Ranjagol","state":"Odisha","state_code":"21","district":"Dhenkanal","district_code":"383","address1":"Hindol","address2":"","latitude":"20.6906","longitude":"85.2308","accuracy":"3"},{"address3":"Thokar","state":"Odisha","state_code":"21","district":"Dhenkanal","district_code":"383","address1":"Hindol","address2":"","latitude":"20.6906","longitude":"85.2308","accuracy":"3"},{"address3":"Karanda","state":"Odisha","state_code":"21","district":"Dhenkanal","district_code":"383","address1":"Hindol","address2":"","latitude":"20.6906","longitude":"85.2308","accuracy":"3"}],"759021":[{"address3":"Buhalipal","state":"Odisha","state_code":"21","district":"Dhenkanal","district_code":"383","address1":"Hindol","address2":"","latitude":"20.6298","longitude":"85.3126","accuracy":"3"},{"address3":"Rasol","state":"Odisha","state_code":"21","district":"Dhenkanal","district_code":"383","address1":"Hindol","address2":"","latitude":"20.6298","longitude":"85.3126","accuracy":"4"},{"address3":"Nuabag","state":"Odisha","state_code":"21","district":"Dhenkanal","district_code":"383","address1":"Hindol","address2":"","latitude":"20.6298","longitude":"85.3126","accuracy":"3"},{"address3":"Kunua","state":"Odisha","state_code":"21","district":"Dhenkanal","district_code":"383","address1":"Hindol","address2":"","latitude":"20.6298","longitude":"85.3126","accuracy":"3"},{"address3":"Khaliborei","state":"Odisha","state_code":"21","district":"Dhenkanal","district_code":"383","address1":"Hindol","address2":"","latitude":"20.6298","longitude":"85.3126","accuracy":"3"},{"address3":"Kalingapal","state":"Odisha","state_code":"21","district":"Dhenkanal","district_code":"383","address1":"Rasol","address2":"","latitude":"20.6298","longitude":"85.3126","accuracy":"3"},{"address3":"Gandanali","state":"Odisha","state_code":"21","district":"Dhenkanal","district_code":"383","address1":"Hindol","address2":"","latitude":"20.6298","longitude":"85.3126","accuracy":"3"},{"address3":"Chhotapada","state":"Odisha","state_code":"21","district":"Dhenkanal","district_code":"383","address1":"Hindol","address2":"","latitude":"20.6298","longitude":"85.3126","accuracy":"3"}],"759022":[{"address3":"Hindol","state":"Odisha","state_code":"21","district":"Dhenkanal","district_code":"383","address1":"Hindol","address2":"","latitude":"20.6078","longitude":"85.1986","accuracy":"4"},{"address3":"Kansara","state":"Odisha","state_code":"21","district":"Dhenkanal","district_code":"383","address1":"Hindol","address2":"","latitude":"20.7171","longitude":"85.1468","accuracy":"4"},{"address3":"Baunsapokhari","state":"Odisha","state_code":"21","district":"Dhenkanal","district_code":"383","address1":"Hindol","address2":"","latitude":"20.6624","longitude":"85.1727","accuracy":"3"},{"address3":"Maidharpur","state":"Odisha","state_code":"21","district":"Dhenkanal","district_code":"383","address1":"Hindol","address2":"","latitude":"20.6624","longitude":"85.1727","accuracy":"3"},{"address3":"Phulapada","state":"Odisha","state_code":"21","district":"Dhenkanal","district_code":"383","address1":"Hindol","address2":"","latitude":"20.6624","longitude":"85.1727","accuracy":"3"}],"759023":[{"address3":"Marthapur","state":"Odisha","state_code":"21","district":"Dhenkanal","district_code":"383","address1":"Kamakhyanagar","address2":"","latitude":"20.5995","longitude":"85.1972","accuracy":"3"},{"address3":"Bankual","state":"Odisha","state_code":"21","district":"Dhenkanal","district_code":"383","address1":"Kamakhyanagar","address2":"","latitude":"20.5995","longitude":"85.1972","accuracy":"4"},{"address3":"Khurusia","state":"Odisha","state_code":"21","district":"Dhenkanal","district_code":"383","address1":"Kamakhyanagar","address2":"","latitude":"20.5995","longitude":"85.1972","accuracy":"3"},{"address3":"Gobinda Bidyadharpur","state":"Odisha","state_code":"21","district":"Dhenkanal","district_code":"383","address1":"Kamakhyanagar","address2":"","latitude":"20.5995","longitude":"85.1972","accuracy":"3"},{"address3":"Jiral","state":"Odisha","state_code":"21","district":"Dhenkanal","district_code":"383","address1":"Kamakhyanagar","address2":"","latitude":"20.5995","longitude":"85.1972","accuracy":"3"},{"address3":"Bhairpur","state":"Odisha","state_code":"21","district":"Dhenkanal","district_code":"383","address1":"Kamakhyanagar","address2":"","latitude":"20.5995","longitude":"85.1972","accuracy":"3"},{"address3":"Jineilo","state":"Odisha","state_code":"21","district":"Dhenkanal","district_code":"383","address1":"Kamakhyanagar","address2":"","latitude":"20.5995","longitude":"85.1972","accuracy":"3"},{"address3":"Dighi","state":"Odisha","state_code":"21","district":"Dhenkanal","district_code":"383","address1":"Kamakhyanagar","address2":"","latitude":"20.5995","longitude":"85.1972","accuracy":"3"},{"address3":"Guneibil","state":"Odisha","state_code":"21","district":"Dhenkanal","district_code":"383","address1":"Kamakhyanagar","address2":"","latitude":"20.5995","longitude":"85.1972","accuracy":"3"},{"address3":"Gorodia","state":"Odisha","state_code":"21","district":"Dhenkanal","district_code":"383","address1":"Kamakhyanagar","address2":"","latitude":"20.5995","longitude":"85.1972","accuracy":"3"}],"759024":[{"address3":"Baruan","state":"Odisha","state_code":"21","district":"Dhenkanal","district_code":"383","address1":"Kamakhyanagar","address2":"","latitude":"20.8262","longitude":"85.5262","accuracy":"4"},{"address3":"Anal","state":"Odisha","state_code":"21","district":"Dhenkanal","district_code":"383","address1":"Kamakhyanagar","address2":"","latitude":"21.0945","longitude":"85.1157","accuracy":"3"},{"address3":"Surapratapapur","state":"Odisha","state_code":"21","district":"Dhenkanal","district_code":"383","address1":"Kamakhyanagar","address2":"","latitude":"21.0945","longitude":"85.1157","accuracy":"3"},{"address3":"Jamunakote","state":"Odisha","state_code":"21","district":"Dhenkanal","district_code":"383","address1":"Kamakhyanagar","address2":"","latitude":"21.0945","longitude":"85.1157","accuracy":"3"},{"address3":"Mathakargola","state":"Odisha","state_code":"21","district":"Dhenkanal","district_code":"383","address1":"Kamakhyanagar","address2":"","latitude":"21.0945","longitude":"85.1157","accuracy":"3"},{"address3":"Garh Nrusinghaprasad","state":"Odisha","state_code":"21","district":"Dhenkanal","district_code":"383","address1":"Kamakhyanagar","address2":"","latitude":"21.0945","longitude":"85.1157","accuracy":"3"},{"address3":"Odisha","state":"Odisha","state_code":"21","district":"Dhenkanal","district_code":"383","address1":"Kamakhyanagar","address2":"","latitude":"21.0945","longitude":"85.1157","accuracy":"3"}],"759025":[{"address3":"Gadasila","state":"Odisha","state_code":"21","district":"Dhenkanal","district_code":"383","address1":"Dhenkanal","address2":"","latitude":"20.8262","longitude":"85.5262","accuracy":"4"},{"address3":"Sadasivapur","state":"Odisha","state_code":"21","district":"Dhenkanal","district_code":"383","address1":"Dhenkanal","address2":"","latitude":"21.2731","longitude":"85.2819","accuracy":"3"},{"address3":"Indipur","state":"Odisha","state_code":"21","district":"Dhenkanal","district_code":"383","address1":"Dhenkanal","address2":"","latitude":"20.8262","longitude":"85.5262","accuracy":"4"},{"address3":"Siminai","state":"Odisha","state_code":"21","district":"Dhenkanal","district_code":"383","address1":"Dhenkanal","address2":"","latitude":"21.2731","longitude":"85.2819","accuracy":"3"},{"address3":"Belapada","state":"Odisha","state_code":"21","district":"Dhenkanal","district_code":"383","address1":"Dhenkanal","address2":"","latitude":"20.8262","longitude":"85.5262","accuracy":"4"},{"address3":"Kandabindha","state":"Odisha","state_code":"21","district":"Dhenkanal","district_code":"383","address1":"Dhenkanal","address2":"","latitude":"21.2731","longitude":"85.2819","accuracy":"3"},{"address3":"Balarampur","state":"Odisha","state_code":"21","district":"Dhenkanal","district_code":"383","address1":"Dhenkanal","address2":"","latitude":"20.8262","longitude":"85.5262","accuracy":"4"},{"address3":"Kasiadihi","state":"Odisha","state_code":"21","district":"Dhenkanal","district_code":"383","address1":"Dhenkanal","address2":"","latitude":"21.2731","longitude":"85.2819","accuracy":"3"},{"address3":"Bampa","state":"Odisha","state_code":"21","district":"Dhenkanal","district_code":"383","address1":"Dhenkanal","address2":"","latitude":"21.2731","longitude":"85.2819","accuracy":"3"},{"address3":"Baulpur","state":"Odisha","state_code":"21","district":"Dhenkanal","district_code":"383","address1":"Dhenkanal","address2":"","latitude":"21.2731","longitude":"85.2819","accuracy":"3"},{"address3":"Gundichapada","state":"Odisha","state_code":"21","district":"Dhenkanal","district_code":"383","address1":"Dhenkanal","address2":"","latitude":"21.2731","longitude":"85.2819","accuracy":"3"},{"address3":"Gunadei","state":"Odisha","state_code":"21","district":"Dhenkanal","district_code":"383","address1":"Dhenkanal","address2":"","latitude":"21.2731","longitude":"85.2819","accuracy":"3"},{"address3":"Brahmaniapal","state":"Odisha","state_code":"21","district":"Dhenkanal","district_code":"383","address1":"Dhenkanal","address2":"","latitude":"21.2731","longitude":"85.2819","accuracy":"3"}],"759026":[{"address3":"Kantapal","state":"Odisha","state_code":"21","district":"Dhenkanal","district_code":"383","address1":"Kamakhyanagar","address2":"","latitude":"21.0647","longitude":"85.5221","accuracy":"4"},{"address3":"Tumusinga","state":"Odisha","state_code":"21","district":"Dhenkanal","district_code":"383","address1":"Kamakhyanagar","address2":"","latitude":"21.0647","longitude":"85.5221","accuracy":"3"},{"address3":"Rainrusinghpur","state":"Odisha","state_code":"21","district":"Dhenkanal","district_code":"383","address1":"Tumusingha","address2":"","latitude":"21.0647","longitude":"85.5221","accuracy":"3"},{"address3":"Kantiokateni","state":"Odisha","state_code":"21","district":"Dhenkanal","district_code":"383","address1":"Kamakhyanagar","address2":"","latitude":"21.0647","longitude":"85.5221","accuracy":"3"},{"address3":"Sogar","state":"Odisha","state_code":"21","district":"Dhenkanal","district_code":"383","address1":"Kamakhyanagar","address2":"","latitude":"21.0647","longitude":"85.5221","accuracy":"3"},{"address3":"Anlabereni","state":"Odisha","state_code":"21","district":"Dhenkanal","district_code":"383","address1":"Kamakhyanagar","address2":"","latitude":"21.0647","longitude":"85.5221","accuracy":"3"},{"address3":"Bamuan","state":"Odisha","state_code":"21","district":"Dhenkanal","district_code":"383","address1":"Bhuban","address2":"","latitude":"21.0647","longitude":"85.5221","accuracy":"3"},{"address3":"Aluajharan","state":"Odisha","state_code":"21","district":"Dhenkanal","district_code":"383","address1":"Kamakhyanagar","address2":"","latitude":"21.0647","longitude":"85.5221","accuracy":"3"},{"address3":"Gangijodi","state":"Odisha","state_code":"21","district":"Dhenkanal","district_code":"383","address1":"Kamakhyanagar","address2":"","latitude":"21.0647","longitude":"85.5221","accuracy":"3"},{"address3":"Ichhabatipur","state":"Odisha","state_code":"21","district":"Dhenkanal","district_code":"383","address1":"Kamakhyanagar","address2":"","latitude":"21.0647","longitude":"85.5221","accuracy":"3"},{"address3":"Kantioputasahi","state":"Odisha","state_code":"21","district":"Dhenkanal","district_code":"383","address1":"Kamakhyanagar","address2":"","latitude":"21.0647","longitude":"85.5221","accuracy":"3"},{"address3":"Kotagara","state":"Odisha","state_code":"21","district":"Dhenkanal","district_code":"383","address1":"Kamakhyanagar","address2":"","latitude":"21.0647","longitude":"85.5221","accuracy":"3"},{"address3":"Kusumjodi","state":"Odisha","state_code":"21","district":"Dhenkanal","district_code":"383","address1":"Kamakhyanagar","address2":"","latitude":"21.0647","longitude":"85.5221","accuracy":"3"}],"759027":[{"address3":"Mahulapada","state":"Odisha","state_code":"21","district":"Dhenkanal","district_code":"383","address1":"Dhenkanal","address2":"","latitude":"20.8262","longitude":"85.5262","accuracy":"4"},{"address3":"Baladiabandha","state":"Odisha","state_code":"21","district":"Dhenkanal","district_code":"383","address1":"Dhenkanal","address2":"","latitude":"21.5259","longitude":"85.3617","accuracy":"3"},{"address3":"Manipur","state":"Odisha","state_code":"21","district":"Dhenkanal","district_code":"383","address1":"Dhenkanal","address2":"","latitude":"20.8262","longitude":"85.5262","accuracy":"4"},{"address3":"Govindpur (Dhenkanal)","state":"Odisha","state_code":"21","district":"Dhenkanal","district_code":"383","address1":"Dhenkanal","address2":"","latitude":"21.5259","longitude":"85.3617","accuracy":"3"},{"address3":"Belatikiri","state":"Odisha","state_code":"21","district":"Dhenkanal","district_code":"383","address1":"Dhenkanal","address2":"","latitude":"21.5259","longitude":"85.3617","accuracy":"3"},{"address3":"Gahamkhunti","state":"Odisha","state_code":"21","district":"Dhenkanal","district_code":"383","address1":"Dhenkanal","address2":"","latitude":"21.5259","longitude":"85.3617","accuracy":"3"},{"address3":"Kaimati","state":"Odisha","state_code":"21","district":"Dhenkanal","district_code":"383","address1":"Dhenkanal","address2":"","latitude":"21.5259","longitude":"85.3617","accuracy":"3"},{"address3":"Nadiali","state":"Odisha","state_code":"21","district":"Dhenkanal","district_code":"383","address1":"Dhenkanal","address2":"","latitude":"21.5259","longitude":"85.3617","accuracy":"3"},{"address3":"Talabarkote","state":"Odisha","state_code":"21","district":"Dhenkanal","district_code":"383","address1":"Dhenkanal","address2":"","latitude":"21.5259","longitude":"85.3617","accuracy":"3"}],"759028":[{"address3":"Kankadahad","state":"Odisha","state_code":"21","district":"Dhenkanal","district_code":"383","address1":"Kamakhyanagar","address2":"","latitude":"21.071","longitude":"85.5704","accuracy":"4"},{"address3":"Bam","state":"Odisha","state_code":"21","district":"Dhenkanal","district_code":"383","address1":"Kamakhyanagar","address2":"","latitude":"21.0844","longitude":"85.465","accuracy":"4"},{"address3":"Kantapal","state":"Odisha","state_code":"21","district":"Dhenkanal","district_code":"383","address1":"Kamakhyanagar","address2":"","latitude":"21.0647","longitude":"85.5221","accuracy":"4"},{"address3":"Kantol","state":"Odisha","state_code":"21","district":"Dhenkanal","district_code":"383","address1":"Kamakhyanagar","address2":"","latitude":"21.1204","longitude":"85.6315","accuracy":"4"},{"address3":"Kandhara","state":"Odisha","state_code":"21","district":"Dhenkanal","district_code":"383","address1":"Kamakhyanagar","address2":"","latitude":"21.0459","longitude":"85.5444","accuracy":"4"},{"address3":"Karagola","state":"Odisha","state_code":"21","district":"Dhenkanal","district_code":"383","address1":"Kamakshyanagar","address2":"","latitude":"21.0773","longitude":"85.5467","accuracy":"3"},{"address3":"Kerjoli","state":"Odisha","state_code":"21","district":"Dhenkanal","district_code":"383","address1":"Kamakshyanagar","address2":"","latitude":"21.0773","longitude":"85.5467","accuracy":"3"},{"address3":"Tariniposi","state":"Odisha","state_code":"21","district":"Dhenkanal","district_code":"383","address1":"Kamakhyanagar","address2":"","latitude":"21.0773","longitude":"85.5467","accuracy":"3"}],"759029":[{"address3":"Mahabirod","state":"Odisha","state_code":"21","district":"Dhenkanal","district_code":"383","address1":"Kamakhyanagar","address2":"","latitude":"21.0797","longitude":"85.3722","accuracy":"4"},{"address3":"Ambapalas","state":"Odisha","state_code":"21","district":"Dhenkanal","district_code":"383","address1":"Kamakhyanagar","address2":"","latitude":"20.982","longitude":"85.3393","accuracy":"4"},{"address3":"Garh Palasuni","state":"Odisha","state_code":"21","district":"Dhenkanal","district_code":"383","address1":"Kamakhyanagar","address2":"","latitude":"21.0727","longitude":"85.3458","accuracy":"3"},{"address3":"Pangatira","state":"Odisha","state_code":"21","district":"Dhenkanal","district_code":"383","address1":"Kamakhyanagar","address2":"","latitude":"21.1353","longitude":"85.3539","accuracy":"4"},{"address3":"Chandapur","state":"Odisha","state_code":"21","district":"Dhenkanal","district_code":"383","address1":"Kamakhyanagar","address2":"","latitude":"21.0727","longitude":"85.3458","accuracy":"3"},{"address3":"Jhili","state":"Odisha","state_code":"21","district":"Dhenkanal","district_code":"383","address1":"Kamakhyanagar","address2":"","latitude":"21.0883","longitude":"85.393","accuracy":"4"},{"address3":"Ghagarmunda","state":"Odisha","state_code":"21","district":"Dhenkanal","district_code":"383","address1":"Kamakhyanagar","address2":"","latitude":"21.0727","longitude":"85.3458","accuracy":"3"},{"address3":"Bhejia","state":"Odisha","state_code":"21","district":"Dhenkanal","district_code":"383","address1":"Kamakhyanagar","address2":"","latitude":"21.0905","longitude":"85.2858","accuracy":"4"},{"address3":"Dashipur","state":"Odisha","state_code":"21","district":"Dhenkanal","district_code":"383","address1":"Kamakhyanagar","address2":"","latitude":"21.0727","longitude":"85.3458","accuracy":"3"},{"address3":"Kuturia","state":"Odisha","state_code":"21","district":"Dhenkanal","district_code":"383","address1":"Kamakhyanagar","address2":"","latitude":"21.0264","longitude":"85.368","accuracy":"4"},{"address3":"Biribolei","state":"Odisha","state_code":"21","district":"Dhenkanal","district_code":"383","address1":"Kamakhyanagar","address2":"","latitude":"21.1064","longitude":"85.3085","accuracy":"4"}],"759037":[{"address3":"Samal Barrage Township","state":"Odisha","state_code":"21","district":"Angul","district_code":"","address1":"Talcher","address2":"","latitude":"21.1202","longitude":"85.4978","accuracy":"1"}],"759039":[{"address3":"Maruabil","state":"Odisha","state_code":"21","district":"Dhenkanal","district_code":"383","address1":"Kamakhyanagar","address2":"","latitude":"21.0343","longitude":"85.712","accuracy":"4"},{"address3":"Jagannathpur","state":"Odisha","state_code":"21","district":"Dhenkanal","district_code":"383","address1":"Kamakshyanagar","address2":"","latitude":"20.8262","longitude":"85.5262","accuracy":"4"},{"address3":"Khatakhura","state":"Odisha","state_code":"21","district":"Dhenkanal","district_code":"383","address1":"Kamakhyanagar","address2":"","latitude":"21.1202","longitude":"85.4978","accuracy":"3"},{"address3":"Kanheipal","state":"Odisha","state_code":"21","district":"Dhenkanal","district_code":"383","address1":"Kamakhyanagar","address2":"","latitude":"21.1202","longitude":"85.4978","accuracy":"3"},{"address3":"Makuakateni","state":"Odisha","state_code":"21","district":"Dhenkanal","district_code":"383","address1":"Kamakhyanagar","address2":"","latitude":"21.1202","longitude":"85.4978","accuracy":"3"},{"address3":"Birasal","state":"Odisha","state_code":"21","district":"Dhenkanal","district_code":"383","address1":"Kamakhyanagar","address2":"","latitude":"21.1202","longitude":"85.4978","accuracy":"3"},{"address3":"Baligoroda","state":"Odisha","state_code":"21","district":"Dhenkanal","district_code":"383","address1":"Kamakhyanagar","address2":"","latitude":"21.1202","longitude":"85.4978","accuracy":"3"},{"address3":"Baisingha","state":"Odisha","state_code":"21","district":"Dhenkanal","district_code":"383","address1":"Kamakhyanagar","address2":"","latitude":"21.1202","longitude":"85.4978","accuracy":"3"},{"address3":"Badasuanlo","state":"Odisha","state_code":"21","district":"Dhenkanal","district_code":"383","address1":"Kamakhyanagar","address2":"","latitude":"21.1202","longitude":"85.4978","accuracy":"3"},{"address3":"Raibol","state":"Odisha","state_code":"21","district":"Dhenkanal","district_code":"383","address1":"Kamakhyanagar","address2":"","latitude":"21.1202","longitude":"85.4978","accuracy":"3"}],"759040":[{"address3":"Talmul","state":"Odisha","state_code":"21","district":"Angul","district_code":"","address1":"Banarpal","address2":"","latitude":"20.9578","longitude":"85.2872","accuracy":"1"}],"759100":[{"address3":"Samal","state":"Odisha","state_code":"21","district":"Angul","district_code":"","address1":"Samal Barrage","address2":"","latitude":"21.0733","longitude":"85.1384","accuracy":"4"},{"address3":"Burukuna","state":"Odisha","state_code":"21","district":"Angul","district_code":"","address1":"Talcher","address2":"","latitude":"21.1412","longitude":"85.2079","accuracy":"4"},{"address3":"Saradhapur","state":"Odisha","state_code":"21","district":"Angul","district_code":"","address1":"Talcher","address2":"","latitude":"20.7887","longitude":"84.9261","accuracy":"4"},{"address3":"Durgapur","state":"Odisha","state_code":"21","district":"Angul","district_code":"","address1":"Talcher","address2":"","latitude":"20.9198","longitude":"84.8827","accuracy":"4"},{"address3":"Seepur","state":"Odisha","state_code":"21","district":"Angul","district_code":"","address1":"Talcher","address2":"","latitude":"21.0446","longitude":"85.066","accuracy":"3"},{"address3":"Gaham","state":"Odisha","state_code":"21","district":"Angul","district_code":"","address1":"Talcher","address2":"","latitude":"21.1217","longitude":"85.1412","accuracy":"4"},{"address3":"Kantiapasi","state":"Odisha","state_code":"21","district":"Angul","district_code":"","address1":"Khamar","address2":"","latitude":"21.0446","longitude":"85.066","accuracy":"3"},{"address3":"Parabil","state":"Odisha","state_code":"21","district":"Angul","district_code":"","address1":"Talcher","address2":"","latitude":"21.1355","longitude":"85.1754","accuracy":"4"},{"address3":"Radharamanpur","state":"Odisha","state_code":"21","district":"Angul","district_code":"","address1":"Talcher","address2":"","latitude":"21.0446","longitude":"85.066","accuracy":"3"},{"address3":"Gurujang","state":"Odisha","state_code":"21","district":"Angul","district_code":"","address1":"Talcher","address2":"","latitude":"20.9932","longitude":"84.551","accuracy":"4"},{"address3":"Dharampur","state":"Odisha","state_code":"21","district":"Angul","district_code":"","address1":"Talcher","address2":"","latitude":"21.0446","longitude":"85.066","accuracy":"3"},{"address3":"Talcher R.S.","state":"Odisha","state_code":"21","district":"Angul","district_code":"","address1":"Talcher Sadar","address2":"","latitude":"21.0446","longitude":"85.066","accuracy":"3"},{"address3":"Kankili","state":"Odisha","state_code":"21","district":"Angul","district_code":"","address1":"Talcher","address2":"","latitude":"21.0446","longitude":"85.066","accuracy":"3"},{"address3":"Ekagharia","state":"Odisha","state_code":"21","district":"Angul","district_code":"","address1":"Talcher","address2":"","latitude":"21.0498","longitude":"85.1649","accuracy":"4"},{"address3":"Kandhalo","state":"Odisha","state_code":"21","district":"Angul","district_code":"","address1":"Talcher","address2":"","latitude":"21.0446","longitude":"85.066","accuracy":"3"},{"address3":"Handidhua","state":"Odisha","state_code":"21","district":"Angul","district_code":"","address1":"Talcher Sadar","address2":"","latitude":"21.0446","longitude":"85.066","accuracy":"3"},{"address3":"Biru","state":"Odisha","state_code":"21","district":"Angul","district_code":"","address1":"Talcher","address2":"","latitude":"21.1294","longitude":"85.177","accuracy":"4"},{"address3":"Arkil","state":"Odisha","state_code":"21","district":"Angul","district_code":"","address1":"Rengali Damsite","address2":"","latitude":"21.1891","longitude":"85.1277","accuracy":"4"},{"address3":"Talcher","state":"Odisha","state_code":"21","district":"Angul","district_code":"","address1":"Talcher","address2":"","latitude":"20.9493","longitude":"85.2335","accuracy":"4"}],"759101":[{"address3":"Talcher Thermal","state":"Odisha","state_code":"21","district":"Angul","district_code":"","address1":"Talcher","address2":"","latitude":"21.0079","longitude":"84.9798","accuracy":"1"}],"759102":[{"address3":"Deulbera Colliery","state":"Odisha","state_code":"21","district":"Angul","district_code":"","address1":"Talcher","address2":"","latitude":"21.0079","longitude":"84.9798","accuracy":"1"}],"759103":[{"address3":"Gopalprasad","state":"Odisha","state_code":"21","district":"Angul","district_code":"","address1":"Talcher","address2":"","latitude":"20.3897","longitude":"85.0825","accuracy":"4"},{"address3":"Ghantapada","state":"Odisha","state_code":"21","district":"Angul","district_code":"","address1":"Talcher","address2":"","latitude":"20.4791","longitude":"85.0435","accuracy":"4"},{"address3":"Padmabatipur","state":"Odisha","state_code":"21","district":"Angul","district_code":"","address1":"Talcher","address2":"","latitude":"20.8558","longitude":"84.7414","accuracy":"3"},{"address3":"Karnapur","state":"Odisha","state_code":"21","district":"Angul","district_code":"","address1":"Talcher","address2":"","latitude":"21.0959","longitude":"84.7309","accuracy":"4"},{"address3":"Dera","state":"Odisha","state_code":"21","district":"Angul","district_code":"","address1":"Talcher","address2":"","latitude":"21.4586","longitude":"84.1086","accuracy":"4"},{"address3":"Solada","state":"Odisha","state_code":"21","district":"Angul","district_code":"","address1":"Talcher","address2":"","latitude":"20.8558","longitude":"84.7414","accuracy":"3"},{"address3":"Badajarada","state":"Odisha","state_code":"21","district":"Angul","district_code":"","address1":"Talcher","address2":"","latitude":"20.8558","longitude":"84.7414","accuracy":"3"},{"address3":"Gobara","state":"Odisha","state_code":"21","district":"Angul","district_code":"","address1":"Talcher","address2":"","latitude":"20.8558","longitude":"84.7414","accuracy":"3"},{"address3":"Kumunda","state":"Odisha","state_code":"21","district":"Angul","district_code":"","address1":"Kaniha","address2":"","latitude":"20.8558","longitude":"84.7414","accuracy":"3"},{"address3":"Tentulei","state":"Odisha","state_code":"21","district":"Angul","district_code":"","address1":"Talcher","address2":"","latitude":"20.8558","longitude":"84.7414","accuracy":"3"},{"address3":"Kalamchhuin","state":"Odisha","state_code":"21","district":"Angul","district_code":"","address1":"Talcher","address2":"","latitude":"20.8558","longitude":"84.7414","accuracy":"3"},{"address3":"Danra","state":"Odisha","state_code":"21","district":"Angul","district_code":"","address1":"Talcher","address2":"","latitude":"20.8558","longitude":"84.7414","accuracy":"3"},{"address3":"Hensamul","state":"Odisha","state_code":"21","district":"Angul","district_code":"","address1":"Talcher","address2":"","latitude":"20.8558","longitude":"84.7414","accuracy":"3"}],"759104":[{"address3":"Santhapada","state":"Odisha","state_code":"21","district":"Angul","district_code":"","address1":"Talcher","address2":"","latitude":"20.7259","longitude":"84.8658","accuracy":"3"},{"address3":"Jagannathpur","state":"Odisha","state_code":"21","district":"Angul","district_code":"","address1":"Colliery","address2":"","latitude":"20.7259","longitude":"84.8658","accuracy":"4"},{"address3":"Chainpal Colony","state":"Odisha","state_code":"21","district":"Angul","district_code":"","address1":"Talcher","address2":"","latitude":"20.7259","longitude":"84.8658","accuracy":"3"},{"address3":"Ballahar Chhak","state":"Odisha","state_code":"21","district":"Angul","district_code":"","address1":"Talcher","address2":"","latitude":"20.7259","longitude":"84.8658","accuracy":"3"}],"759105":[{"address3":"Podagarh","state":"Odisha","state_code":"21","district":"Angul","district_code":"","address1":"Talcher","address2":"","latitude":"21.2468","longitude":"85.0465","accuracy":"4"},{"address3":"Rengali","state":"Odisha","state_code":"21","district":"Angul","district_code":"","address1":"Rengali Damsite","address2":"","latitude":"21.2544","longitude":"85.033","accuracy":"4"},{"address3":"Balipasi","state":"Odisha","state_code":"21","district":"Angul","district_code":"","address1":"Talcher","address2":"","latitude":"21.2506","longitude":"85.0397","accuracy":"3"},{"address3":"Gandamala","state":"Odisha","state_code":"21","district":"Angul","district_code":"","address1":"Talcher","address2":"","latitude":"21.2506","longitude":"85.0397","accuracy":"3"},{"address3":"Rengali Dam Site","state":"Odisha","state_code":"21","district":"Angul","district_code":"","address1":"Rengali Damsite","address2":"","latitude":"21.2506","longitude":"85.0397","accuracy":"3"},{"address3":"Kuluma","state":"Odisha","state_code":"21","district":"Angul","district_code":"","address1":"Talcher","address2":"","latitude":"21.2506","longitude":"85.0397","accuracy":"3"},{"address3":"Bajrakote","state":"Odisha","state_code":"21","district":"Angul","district_code":"","address1":"Talcher","address2":"","latitude":"21.2506","longitude":"85.0397","accuracy":"3"}],"759106":[{"address3":"Vikrampur","state":"Odisha","state_code":"21","district":"Angul","district_code":"","address1":"Talcher","address2":"","latitude":"21.0079","longitude":"84.9798","accuracy":"1"}],"759107":[{"address3":"Talcher Town","state":"Odisha","state_code":"21","district":"Angul","district_code":"","address1":"Talcher Sadar","address2":"","latitude":"21.0079","longitude":"84.9798","accuracy":"1"}],"759111":[{"address3":"Jindal Nagar","state":"Odisha","state_code":"21","district":"Angul","district_code":"","address1":"Chhendipada","address2":"","latitude":"21.198","longitude":"85.1262","accuracy":"1"}],"759116":[{"address3":"Balanda","state":"Odisha","state_code":"21","district":"Angul","district_code":"","address1":"Talcher","address2":"","latitude":"20.6284","longitude":"84.4526","accuracy":"4"}],"759117":[{"address3":"Kakudia","state":"Odisha","state_code":"21","district":"Angul","district_code":"","address1":"Talcher","address2":"","latitude":"21.0723","longitude":"85.0656","accuracy":"3"},{"address3":"Badagundari","state":"Odisha","state_code":"21","district":"Angul","district_code":"","address1":"Talcher","address2":"","latitude":"21.0723","longitude":"85.0656","accuracy":"3"},{"address3":"Poipal","state":"Odisha","state_code":"21","district":"Angul","district_code":"","address1":"Talcher","address2":"","latitude":"21.1601","longitude":"85.1358","accuracy":"4"},{"address3":"Nalam","state":"Odisha","state_code":"21","district":"Angul","district_code":"","address1":"Talcher","address2":"","latitude":"21.1844","longitude":"85.1138","accuracy":"4"},{"address3":"Kaniha","state":"Odisha","state_code":"21","district":"Angul","district_code":"","address1":"Talcher","address2":"","latitude":"21.0723","longitude":"85.0656","accuracy":"3"},{"address3":"Derang","state":"Odisha","state_code":"21","district":"Angul","district_code":"","address1":"Talcher","address2":"","latitude":"21.0723","longitude":"85.0656","accuracy":"3"},{"address3":"Jarada","state":"Odisha","state_code":"21","district":"Angul","district_code":"","address1":"Talcher","address2":"","latitude":"20.8504","longitude":"84.9526","accuracy":"4"},{"address3":"Kansamunda","state":"Odisha","state_code":"21","district":"Angul","district_code":"","address1":"Talcher","address2":"","latitude":"21.0854","longitude":"85.027","accuracy":"4"},{"address3":"Sanatribida","state":"Odisha","state_code":"21","district":"Angul","district_code":"","address1":"Talcher","address2":"","latitude":"21.0723","longitude":"85.0656","accuracy":"3"},{"address3":"Badatribida","state":"Odisha","state_code":"21","district":"Angul","district_code":"","address1":"Talcher","address2":"","latitude":"21.0723","longitude":"85.0656","accuracy":"3"},{"address3":"Bijigol","state":"Odisha","state_code":"21","district":"Angul","district_code":"","address1":"Talcher","address2":"","latitude":"21.0812","longitude":"85.0986","accuracy":"4"}],"759118":[{"address3":"Sankhamur","state":"Odisha","state_code":"21","district":"Angul","district_code":"","address1":"Pallahara","address2":"","latitude":"21.2585","longitude":"85.1535","accuracy":"4"},{"address3":"Kunjam","state":"Odisha","state_code":"21","district":"Angul","district_code":"","address1":"Pallahara","address2":"","latitude":"21.2107","longitude":"85.2468","accuracy":"4"},{"address3":"Injidi","state":"Odisha","state_code":"21","district":"Angul","district_code":"","address1":"Pallahara","address2":"","latitude":"21.1981","longitude":"85.2941","accuracy":"4"},{"address3":"Khamar","state":"Odisha","state_code":"21","district":"Angul","district_code":"","address1":"Pallahara","address2":"","latitude":"21.2673","longitude":"85.1978","accuracy":"4"},{"address3":"Badasada","state":"Odisha","state_code":"21","district":"Angul","district_code":"","address1":"Pallahara","address2":"","latitude":"21.2481","longitude":"85.2138","accuracy":"3"},{"address3":"Barkotia","state":"Odisha","state_code":"21","district":"Angul","district_code":"","address1":"Pallahara","address2":"","latitude":"21.306","longitude":"85.1767","accuracy":"4"},{"address3":"Rajdang","state":"Odisha","state_code":"21","district":"Angul","district_code":"","address1":"Pallahara","address2":"","latitude":"21.2481","longitude":"85.2138","accuracy":"3"},{"address3":"Munduribeda","state":"Odisha","state_code":"21","district":"Angul","district_code":"","address1":"Khamar","address2":"","latitude":"21.2481","longitude":"85.2138","accuracy":"3"},{"address3":"Odasha","state":"Odisha","state_code":"21","district":"Angul","district_code":"","address1":"Pallahara","address2":"","latitude":"21.2481","longitude":"85.2138","accuracy":"3"}],"759119":[{"address3":"Saida","state":"Odisha","state_code":"21","district":"Angul","district_code":"","address1":"Pallahara","address2":"","latitude":"21.4821","longitude":"85.277","accuracy":"4"},{"address3":"Bandhabhuin","state":"Odisha","state_code":"21","district":"Angul","district_code":"","address1":"Pallahara","address2":"","latitude":"20.6275","longitude":"85.1466","accuracy":"4"},{"address3":"Siarimalia","state":"Odisha","state_code":"21","district":"Angul","district_code":"","address1":"Pallahara","address2":"","latitude":"21.2326","longitude":"85.2409","accuracy":"4"},{"address3":"Pallahara","state":"Odisha","state_code":"21","district":"Angul","district_code":"","address1":"Pallahara","address2":"","latitude":"21.4333","longitude":"85.2167","accuracy":"4"},{"address3":"Jharabeda","state":"Odisha","state_code":"21","district":"Angul","district_code":"","address1":"Pallahara","address2":"","latitude":"21.3032","longitude":"85.186","accuracy":"3"},{"address3":"Nagira","state":"Odisha","state_code":"21","district":"Angul","district_code":"","address1":"Pallahara","address2":"","latitude":"21.5727","longitude":"85.2631","accuracy":"4"},{"address3":"Karadapal","state":"Odisha","state_code":"21","district":"Angul","district_code":"","address1":"Pallahara","address2":"","latitude":"21.3493","longitude":"85.153","accuracy":"4"},{"address3":"Khemla","state":"Odisha","state_code":"21","district":"Angul","district_code":"","address1":"Pallahara","address2":"","latitude":"21.3075","longitude":"85.0499","accuracy":"4"},{"address3":"Phapanda","state":"Odisha","state_code":"21","district":"Angul","district_code":"","address1":"Pallahara","address2":"","latitude":"21.4517","longitude":"85.1433","accuracy":"4"},{"address3":"Dimiria","state":"Odisha","state_code":"21","district":"Angul","district_code":"","address1":"Pallahara","address2":"","latitude":"21.2725","longitude":"85.1833","accuracy":"4"},{"address3":"Sahara Gurjang","state":"Odisha","state_code":"21","district":"Angul","district_code":"","address1":"Pallahara","address2":"","latitude":"21.3032","longitude":"85.186","accuracy":"3"},{"address3":"Seegarh","state":"Odisha","state_code":"21","district":"Angul","district_code":"","address1":"Pallahara","address2":"","latitude":"21.3032","longitude":"85.186","accuracy":"3"},{"address3":"Jamardihi","state":"Odisha","state_code":"21","district":"Angul","district_code":"","address1":"Pallahara","address2":"","latitude":"21.3032","longitude":"85.186","accuracy":"3"},{"address3":"Chasagurjang","state":"Odisha","state_code":"21","district":"Angul","district_code":"","address1":"Pallahara","address2":"","latitude":"21.3032","longitude":"85.186","accuracy":"3"}],"759120":[{"address3":"Barihapur","state":"Odisha","state_code":"21","district":"Dhenkanal","district_code":"383","address1":"Kamakhyanagar","address2":"","latitude":"20.9255","longitude":"85.3484","accuracy":"4"},{"address3":"Parjang","state":"Odisha","state_code":"21","district":"Dhenkanal","district_code":"383","address1":"Kamakhyanagar","address2":"","latitude":"20.9224","longitude":"85.3166","accuracy":"4"},{"address3":"Kantor","state":"Odisha","state_code":"21","district":"Dhenkanal","district_code":"383","address1":"Kamakhyanagar","address2":"","latitude":"20.9474","longitude":"85.3378","accuracy":"4"},{"address3":"Roda","state":"Odisha","state_code":"21","district":"Dhenkanal","district_code":"383","address1":"Kamakhyanagar","address2":"","latitude":"20.9243","longitude":"85.3471","accuracy":"3"},{"address3":"Basoi","state":"Odisha","state_code":"21","district":"Dhenkanal","district_code":"383","address1":"Kamakhyanagar","address2":"","latitude":"20.902","longitude":"85.3855","accuracy":"4"},{"address3":"Mundeilo","state":"Odisha","state_code":"21","district":"Dhenkanal","district_code":"383","address1":"Parajang","address2":"","latitude":"20.9243","longitude":"85.3471","accuracy":"3"},{"address3":"Kandarsinga","state":"Odisha","state_code":"21","district":"Dhenkanal","district_code":"383","address1":"Kamakhyanagar","address2":"","latitude":"20.9243","longitude":"85.3471","accuracy":"3"},{"address3":"Kuanlo","state":"Odisha","state_code":"21","district":"Dhenkanal","district_code":"383","address1":"Kamakhyanagar","address2":"","latitude":"20.9243","longitude":"85.3471","accuracy":"3"},{"address3":"Lodhani","state":"Odisha","state_code":"21","district":"Dhenkanal","district_code":"383","address1":"Kamakhyanagar","address2":"","latitude":"20.9243","longitude":"85.3471","accuracy":"3"},{"address3":"Badajhara","state":"Odisha","state_code":"21","district":"Dhenkanal","district_code":"383","address1":"Kamakhyanagar","address2":"","latitude":"20.9243","longitude":"85.3471","accuracy":"3"},{"address3":"Damal","state":"Odisha","state_code":"21","district":"Dhenkanal","district_code":"383","address1":"Kamakhyanagar","address2":"","latitude":"20.9243","longitude":"85.3471","accuracy":"3"},{"address3":"Pitiri","state":"Odisha","state_code":"21","district":"Dhenkanal","district_code":"383","address1":"Kamakhyanagar","address2":"","latitude":"20.9243","longitude":"85.3471","accuracy":"3"},{"address3":"Kankadasoda","state":"Odisha","state_code":"21","district":"Dhenkanal","district_code":"383","address1":"Kamakhyanagar","address2":"","latitude":"20.9243","longitude":"85.3471","accuracy":"3"},{"address3":"Patamandir","state":"Odisha","state_code":"21","district":"Dhenkanal","district_code":"383","address1":"Kamakhyanagar","address2":"","latitude":"20.9243","longitude":"85.3471","accuracy":"3"},{"address3":"Badakamar","state":"Odisha","state_code":"21","district":"Dhenkanal","district_code":"383","address1":"Kamakhyanagar","address2":"","latitude":"20.9243","longitude":"85.3471","accuracy":"3"},{"address3":"Kankili","state":"Odisha","state_code":"21","district":"Dhenkanal","district_code":"383","address1":"Kamakhyanagar","address2":"","latitude":"20.9243","longitude":"85.3471","accuracy":"3"}],"759121":[{"address3":"Beruanpal","state":"Odisha","state_code":"21","district":"Dhenkanal","district_code":"383","address1":"Hindol","address2":"","latitude":"20.7702","longitude":"85.2782","accuracy":"4"},{"address3":"Kharagprasad","state":"Odisha","state_code":"21","district":"Dhenkanal","district_code":"383","address1":"Hindol","address2":"","latitude":"20.8218","longitude":"85.3198","accuracy":"4"},{"address3":"Kadala","state":"Odisha","state_code":"21","district":"Dhenkanal","district_code":"383","address1":"Hindol","address2":"","latitude":"20.7508","longitude":"85.273","accuracy":"4"},{"address3":"Meramandali","state":"Odisha","state_code":"21","district":"Dhenkanal","district_code":"383","address1":"Hindol","address2":"","latitude":"20.7833","longitude":"85.3369","accuracy":"4"},{"address3":"Kantimili","state":"Odisha","state_code":"21","district":"Dhenkanal","district_code":"383","address1":"Hindol","address2":"","latitude":"20.734","longitude":"85.2748","accuracy":"4"},{"address3":"Kamalanga","state":"Odisha","state_code":"21","district":"Dhenkanal","district_code":"383","address1":"Hindol","address2":"","latitude":"20.7766","longitude":"85.3045","accuracy":"3"},{"address3":"Nimabahali","state":"Odisha","state_code":"21","district":"Dhenkanal","district_code":"383","address1":"Hindol","address2":"","latitude":"20.7834","longitude":"85.3115","accuracy":"4"},{"address3":"Kusupanga","state":"Odisha","state_code":"21","district":"Dhenkanal","district_code":"383","address1":"Hindol","address2":"","latitude":"20.7766","longitude":"85.3045","accuracy":"3"},{"address3":"Chintapokhari","state":"Odisha","state_code":"21","district":"Dhenkanal","district_code":"383","address1":"Hindol","address2":"","latitude":"20.7925","longitude":"85.3371","accuracy":"4"},{"address3":"Paikapurunakote","state":"Odisha","state_code":"21","district":"Dhenkanal","district_code":"383","address1":"Hindol","address2":"","latitude":"20.7766","longitude":"85.3045","accuracy":"3"},{"address3":"Sibapur","state":"Odisha","state_code":"21","district":"Dhenkanal","district_code":"383","address1":"Hindol","address2":"","latitude":"20.7766","longitude":"85.3045","accuracy":"3"},{"address3":"Patala","state":"Odisha","state_code":"21","district":"Dhenkanal","district_code":"383","address1":"Balimi","address2":"","latitude":"20.7766","longitude":"85.3045","accuracy":"3"},{"address3":"Kankalu","state":"Odisha","state_code":"21","district":"Dhenkanal","district_code":"383","address1":"Hindol","address2":"","latitude":"20.7766","longitude":"85.3045","accuracy":"3"},{"address3":"Haladiabahal","state":"Odisha","state_code":"21","district":"Dhenkanal","district_code":"383","address1":"Hindol","address2":"","latitude":"20.7766","longitude":"85.3045","accuracy":"3"},{"address3":"Bido","state":"Odisha","state_code":"21","district":"Dhenkanal","district_code":"383","address1":"Hindol","address2":"","latitude":"20.7766","longitude":"85.3045","accuracy":"3"}],"759122":[{"address3":"Angul H.O","state":"Odisha","state_code":"21","district":"Angul","district_code":"","address1":"Angul","address2":"","latitude":"20.7961","longitude":"84.996","accuracy":"3"},{"address3":"Angul Bazar","state":"Odisha","state_code":"21","district":"Angul","district_code":"","address1":"Angul","address2":"","latitude":"20.7961","longitude":"84.996","accuracy":"4"}],"759123":[{"address3":"P.T.C.,Angul","state":"Odisha","state_code":"21","district":"Angul","district_code":"","address1":"Anugul","address2":"","latitude":"21.1745","longitude":"84.5067","accuracy":"3"},{"address3":"Kuio","state":"Odisha","state_code":"21","district":"Angul","district_code":"","address1":"Angul","address2":"","latitude":"21.1745","longitude":"84.5067","accuracy":"3"},{"address3":"Turang","state":"Odisha","state_code":"21","district":"Angul","district_code":"","address1":"Angul","address2":"","latitude":"21.4328","longitude":"84.471","accuracy":"4"},{"address3":"Natada","state":"Odisha","state_code":"21","district":"Angul","district_code":"","address1":"Angul","address2":"","latitude":"20.9161","longitude":"84.5424","accuracy":"4"},{"address3":"Sakasingha","state":"Odisha","state_code":"21","district":"Angul","district_code":"","address1":"Angul","address2":"","latitude":"21.1745","longitude":"84.5067","accuracy":"3"},{"address3":"RANIGODA","state":"Odisha","state_code":"21","district":"Angul","district_code":"","address1":"Anugul","address2":"","latitude":"21.1745","longitude":"84.5067","accuracy":"3"},{"address3":"Kukudang","state":"Odisha","state_code":"21","district":"Angul","district_code":"","address1":"Angul","address2":"","latitude":"21.1745","longitude":"84.5067","accuracy":"3"},{"address3":"Kurudol","state":"Odisha","state_code":"21","district":"Angul","district_code":"","address1":"Angul","address2":"","latitude":"21.1745","longitude":"84.5067","accuracy":"3"}],"759124":[{"address3":"Tentuloi","state":"Odisha","state_code":"21","district":"Angul","district_code":"","address1":"Angul","address2":"","latitude":"21.2615","longitude":"84.9657","accuracy":"3"},{"address3":"Podapada","state":"Odisha","state_code":"21","district":"Angul","district_code":"","address1":"Angul","address2":"","latitude":"21.4282","longitude":"84.848","accuracy":"4"},{"address3":"Nuapada","state":"Odisha","state_code":"21","district":"Angul","district_code":"","address1":"Angul","address2":"","latitude":"21.2711","longitude":"85.1772","accuracy":"4"},{"address3":"Balipatta","state":"Odisha","state_code":"21","district":"Angul","district_code":"","address1":"Angul","address2":"","latitude":"21.2615","longitude":"84.9657","accuracy":"3"},{"address3":"Chhendipada","state":"Odisha","state_code":"21","district":"Angul","district_code":"","address1":"Chhendipada","address2":"","latitude":"21.0852","longitude":"84.872","accuracy":"4"},{"address3":"Kukurpeta","state":"Odisha","state_code":"21","district":"Angul","district_code":"","address1":"Angul","address2":"","latitude":"21.2615","longitude":"84.9657","accuracy":"3"},{"address3":"Machhakuta","state":"Odisha","state_code":"21","district":"Angul","district_code":"","address1":"Angul","address2":"","latitude":"21.2615","longitude":"84.9657","accuracy":"3"}],"759125":[{"address3":"Madhapur","state":"Odisha","state_code":"21","district":"Angul","district_code":"","address1":"Athamallik","address2":"","latitude":"20.4469","longitude":"84.5099","accuracy":"4"},{"address3":"Paiksahi","state":"Odisha","state_code":"21","district":"Angul","district_code":"","address1":"Athamallik","address2":"","latitude":"20.8252","longitude":"84.7561","accuracy":"4"},{"address3":"Nagaon","state":"Odisha","state_code":"21","district":"Angul","district_code":"","address1":"Athamallik","address2":"","latitude":"20.7017","longitude":"84.5776","accuracy":"4"},{"address3":"Lunahandi","state":"Odisha","state_code":"21","district":"Angul","district_code":"","address1":"Athamallik","address2":"","latitude":"20.7444","longitude":"84.6287","accuracy":"3"},{"address3":"Ambasarmunda","state":"Odisha","state_code":"21","district":"Angul","district_code":"","address1":"Athamallik","address2":"","latitude":"20.8623","longitude":"84.5846","accuracy":"4"},{"address3":"Athamallik","state":"Odisha","state_code":"21","district":"Angul","district_code":"","address1":"Athamallik","address2":"","latitude":"20.7197","longitude":"84.53","accuracy":"4"},{"address3":"Sanahulla","state":"Odisha","state_code":"21","district":"Angul","district_code":"","address1":"Athamallik","address2":"","latitude":"20.7444","longitude":"84.6287","accuracy":"3"},{"address3":"Luhasinga","state":"Odisha","state_code":"21","district":"Angul","district_code":"","address1":"Athamallik","address2":"","latitude":"20.7444","longitude":"84.6287","accuracy":"3"},{"address3":"Kudugaon","state":"Odisha","state_code":"21","district":"Angul","district_code":"","address1":"Athmallik","address2":"","latitude":"20.7444","longitude":"84.6287","accuracy":"3"},{"address3":"Thakurgarh","state":"Odisha","state_code":"21","district":"Angul","district_code":"","address1":"Athamallik","address2":"","latitude":"20.8135","longitude":"84.6315","accuracy":"4"},{"address3":"Maimura","state":"Odisha","state_code":"21","district":"Angul","district_code":"","address1":"Athamallik","address2":"","latitude":"20.7726","longitude":"84.6967","accuracy":"4"},{"address3":"Krutibaspur","state":"Odisha","state_code":"21","district":"Angul","district_code":"","address1":"Athamallik","address2":"","latitude":"20.7444","longitude":"84.6287","accuracy":"3"},{"address3":"Kantapada","state":"Odisha","state_code":"21","district":"Angul","district_code":"","address1":"Athamallik","address2":"","latitude":"20.7738","longitude":"84.7507","accuracy":"4"},{"address3":"Jamudoli","state":"Odisha","state_code":"21","district":"Angul","district_code":"","address1":"Athamallik","address2":"","latitude":"20.6254","longitude":"84.706","accuracy":"4"},{"address3":"Rainali","state":"Odisha","state_code":"21","district":"Angul","district_code":"","address1":"Thakurgarh","address2":"","latitude":"20.863","longitude":"84.786","accuracy":"4"},{"address3":"Kandhapada","state":"Odisha","state_code":"21","district":"Angul","district_code":"","address1":"Athamallik","address2":"","latitude":"20.7444","longitude":"84.6287","accuracy":"3"},{"address3":"Kampala","state":"Odisha","state_code":"21","district":"Angul","district_code":"","address1":"Athamallik","address2":"","latitude":"20.7844","longitude":"84.3859","accuracy":"4"},{"address3":"Bileinali","state":"Odisha","state_code":"21","district":"Angul","district_code":"","address1":"Athamallik","address2":"","latitude":"20.7444","longitude":"84.6287","accuracy":"3"},{"address3":"Puruna Manitiri","state":"Odisha","state_code":"21","district":"Angul","district_code":"","address1":"Athamallik","address2":"","latitude":"20.7444","longitude":"84.6287","accuracy":"3"},{"address3":"Bhejigotha","state":"Odisha","state_code":"21","district":"Angul","district_code":"","address1":"Athamallik","address2":"","latitude":"20.7444","longitude":"84.6287","accuracy":"3"},{"address3":"Aida","state":"Odisha","state_code":"21","district":"Angul","district_code":"","address1":"Athamallik","address2":"","latitude":"20.7444","longitude":"84.6287","accuracy":"3"}],"759126":[{"address3":"Sanjamura","state":"Odisha","state_code":"21","district":"Angul","district_code":"","address1":"Athamallik","address2":"","latitude":"20.8872","longitude":"84.5019","accuracy":"4"},{"address3":"Kiakata","state":"Odisha","state_code":"21","district":"Angul","district_code":"","address1":"Athamallik","address2":"","latitude":"20.8675","longitude":"84.3232","accuracy":"4"},{"address3":"Kadalimunda","state":"Odisha","state_code":"21","district":"Angul","district_code":"","address1":"Athamallik","address2":"","latitude":"20.9241","longitude":"84.7592","accuracy":"4"},{"address3":"Rajkishorenagar","state":"Odisha","state_code":"21","district":"Angul","district_code":"","address1":"Athamallik","address2":"","latitude":"20.8147","longitude":"84.5703","accuracy":"3"},{"address3":"Ghosar","state":"Odisha","state_code":"21","district":"Angul","district_code":"","address1":"Athamallik","address2":"","latitude":"20.9525","longitude":"84.4849","accuracy":"4"},{"address3":"Raniakata","state":"Odisha","state_code":"21","district":"Angul","district_code":"","address1":"Athamallik","address2":"","latitude":"20.8902","longitude":"84.4442","accuracy":"4"},{"address3":"Tusar","state":"Odisha","state_code":"21","district":"Angul","district_code":"","address1":"Athamallik","address2":"","latitude":"20.8147","longitude":"84.5703","accuracy":"3"},{"address3":"Kalyanpur","state":"Odisha","state_code":"21","district":"Angul","district_code":"","address1":"Athamallik","address2":"","latitude":"20.059","longitude":"85.0824","accuracy":"4"},{"address3":"Himitira","state":"Odisha","state_code":"21","district":"Angul","district_code":"","address1":"Athamallik","address2":"","latitude":"20.9238","longitude":"84.4833","accuracy":"4"},{"address3":"Urukela","state":"Odisha","state_code":"21","district":"Angul","district_code":"","address1":"Athamallik","address2":"","latitude":"20.8147","longitude":"84.5703","accuracy":"3"},{"address3":"Bamur","state":"Odisha","state_code":"21","district":"Angul","district_code":"","address1":"Athamallik","address2":"","latitude":"21.013","longitude":"84.4833","accuracy":"4"},{"address3":"Oskapalli","state":"Odisha","state_code":"21","district":"Angul","district_code":"","address1":"Athamallik","address2":"","latitude":"20.8147","longitude":"84.5703","accuracy":"3"},{"address3":"Nakchi","state":"Odisha","state_code":"21","district":"Angul","district_code":"","address1":"Athamallik","address2":"","latitude":"20.8147","longitude":"84.5703","accuracy":"3"},{"address3":"Angapada","state":"Odisha","state_code":"21","district":"Angul","district_code":"","address1":"Athamallik","address2":"","latitude":"20.8147","longitude":"84.5703","accuracy":"3"},{"address3":"Amabapal","state":"Odisha","state_code":"21","district":"Angul","district_code":"","address1":"Athamallik","address2":"","latitude":"20.8147","longitude":"84.5703","accuracy":"3"}],"759127":[{"address3":"Tapdhol","state":"Odisha","state_code":"21","district":"Angul","district_code":"","address1":"Athamallik","address2":"","latitude":"20.8101","longitude":"84.7933","accuracy":"4"},{"address3":"Korada","state":"Odisha","state_code":"21","district":"Angul","district_code":"","address1":"Athamallik","address2":"","latitude":"20.2709","longitude":"84.9572","accuracy":"4"},{"address3":"Handapa","state":"Odisha","state_code":"21","district":"Angul","district_code":"","address1":"Athamallik","address2":"","latitude":"20.9553","longitude":"84.6877","accuracy":"4"},{"address3":"Pedipathar","state":"Odisha","state_code":"21","district":"Angul","district_code":"","address1":"Athamallik","address2":"","latitude":"20.8852","longitude":"84.7003","accuracy":"4"},{"address3":"Tainsi","state":"Odisha","state_code":"21","district":"Angul","district_code":"","address1":"Athamallik","address2":"","latitude":"20.7538","longitude":"84.8181","accuracy":"4"},{"address3":"Dandasinga","state":"Odisha","state_code":"21","district":"Angul","district_code":"","address1":"Athamallik","address2":"","latitude":"21.0542","longitude":"85.085","accuracy":"4"},{"address3":"Para","state":"Odisha","state_code":"21","district":"Angul","district_code":"","address1":"Athamallik","address2":"","latitude":"20.8578","longitude":"84.8796","accuracy":"4"},{"address3":"Jarada","state":"Odisha","state_code":"21","district":"Angul","district_code":"","address1":"Athamallik","address2":"","latitude":"20.8504","longitude":"84.9526","accuracy":"4"},{"address3":"Katada","state":"Odisha","state_code":"21","district":"Angul","district_code":"","address1":"Athamallik","address2":"","latitude":"20.9157","longitude":"84.5288","accuracy":"4"},{"address3":"Tukuda","state":"Odisha","state_code":"21","district":"Angul","district_code":"","address1":"Athamallik","address2":"","latitude":"20.2527","longitude":"84.8779","accuracy":"4"},{"address3":"Durgapur","state":"Odisha","state_code":"21","district":"Angul","district_code":"","address1":"Athamallik","address2":"","latitude":"20.9198","longitude":"84.8827","accuracy":"4"},{"address3":"Ugi","state":"Odisha","state_code":"21","district":"Angul","district_code":"","address1":"Athamallik","address2":"","latitude":"20.847","longitude":"84.8804","accuracy":"4"},{"address3":"Luhamunda","state":"Odisha","state_code":"21","district":"Angul","district_code":"","address1":"Athamallik","address2":"","latitude":"20.9432","longitude":"84.7199","accuracy":"4"},{"address3":"Papsara","state":"Odisha","state_code":"21","district":"Angul","district_code":"","address1":"Athamallik","address2":"","latitude":"20.7935","longitude":"84.828","accuracy":"3"},{"address3":"Jarapada","state":"Odisha","state_code":"21","district":"Angul","district_code":"","address1":"Athamallik","address2":"","latitude":"20.7935","longitude":"84.828","accuracy":"3"},{"address3":"Kishoreganj","state":"Odisha","state_code":"21","district":"Angul","district_code":"","address1":"Athamallik","address2":"","latitude":"20.7935","longitude":"84.828","accuracy":"3"},{"address3":"Kothabhuin","state":"Odisha","state_code":"21","district":"Angul","district_code":"","address1":"Athamallik","address2":"","latitude":"20.7935","longitude":"84.828","accuracy":"3"},{"address3":"Kanteikolia","state":"Odisha","state_code":"21","district":"Angul","district_code":"","address1":"Athamallik","address2":"","latitude":"20.7935","longitude":"84.828","accuracy":"3"},{"address3":"Jeranga Dehuri Sahi","state":"Odisha","state_code":"21","district":"Angul","district_code":"","address1":"Athamallik","address2":"","latitude":"20.7935","longitude":"84.828","accuracy":"3"},{"address3":"Bimalabeda","state":"Odisha","state_code":"21","district":"Angul","district_code":"","address1":"Athamallik","address2":"","latitude":"20.7935","longitude":"84.828","accuracy":"3"}],"759128":[{"address3":"Sanjapada","state":"Odisha","state_code":"21","district":"Dhenkanal","district_code":"383","address1":"Balimi","address2":"","latitude":"20.9729","longitude":"84.6678","accuracy":"3"},{"address3":"Arahat","state":"Odisha","state_code":"21","district":"Angul","district_code":"","address1":"Angul","address2":"","latitude":"20.9729","longitude":"84.6678","accuracy":"3"},{"address3":"Bonda","state":"Odisha","state_code":"21","district":"Angul","district_code":"","address1":"Angul","address2":"","latitude":"21.3381","longitude":"83.0515","accuracy":"4"},{"address3":"Banarpal","state":"Odisha","state_code":"21","district":"Angul","district_code":"","address1":"Angul","address2":"","latitude":"20.8498","longitude":"85.2142","accuracy":"4"},{"address3":"Balaramprasad","state":"Odisha","state_code":"21","district":"Angul","district_code":"","address1":"Angul","address2":"","latitude":"20.8679","longitude":"85.1713","accuracy":"4"},{"address3":"Nuahata","state":"Odisha","state_code":"21","district":"Angul","district_code":"","address1":"Angul","address2":"","latitude":"20.8359","longitude":"85.2341","accuracy":"4"},{"address3":"Tulasipal","state":"Odisha","state_code":"21","district":"Angul","district_code":"","address1":"Angul","address2":"","latitude":"20.9729","longitude":"84.6678","accuracy":"3"},{"address3":"Gotamara","state":"Odisha","state_code":"21","district":"Angul","district_code":"","address1":"Angul","address2":"","latitude":"20.9729","longitude":"84.6678","accuracy":"3"},{"address3":"Budhapanka","state":"Odisha","state_code":"21","district":"Angul","district_code":"","address1":"Angul","address2":"","latitude":"20.9729","longitude":"84.6678","accuracy":"3"},{"address3":"Khalibereni","state":"Odisha","state_code":"21","district":"Angul","district_code":"","address1":"Angul","address2":"","latitude":"20.9729","longitude":"84.6678","accuracy":"3"},{"address3":"Kalandapal","state":"Odisha","state_code":"21","district":"Angul","district_code":"","address1":"Angul","address2":"","latitude":"20.9729","longitude":"84.6678","accuracy":"3"},{"address3":"Garh Santiri","state":"Odisha","state_code":"21","district":"Angul","district_code":"","address1":"Angul","address2":"","latitude":"20.9729","longitude":"84.6678","accuracy":"3"},{"address3":"Badakhali","state":"Odisha","state_code":"21","district":"Angul","district_code":"","address1":"Angul","address2":"","latitude":"20.9729","longitude":"84.6678","accuracy":"3"}],"759129":[{"address3":"Bantala","state":"Odisha","state_code":"21","district":"Angul","district_code":"","address1":"Angul","address2":"","latitude":"20.741","longitude":"85.0677","accuracy":"4"},{"address3":"Khinda","state":"Odisha","state_code":"21","district":"Angul","district_code":"","address1":"Angul","address2":"","latitude":"20.7044","longitude":"85.0815","accuracy":"4"},{"address3":"Nuakheta","state":"Odisha","state_code":"21","district":"Angul","district_code":"","address1":"Angul","address2":"","latitude":"20.6609","longitude":"85.0575","accuracy":"4"},{"address3":"Baragounia","state":"Odisha","state_code":"21","district":"Angul","district_code":"","address1":"Angul","address2":"","latitude":"20.6564","longitude":"85.1008","accuracy":"3"},{"address3":"Manapur","state":"Odisha","state_code":"21","district":"Angul","district_code":"","address1":"Angul","address2":"","latitude":"20.3969","longitude":"85.1794","accuracy":"4"},{"address3":"Bedasasan","state":"Odisha","state_code":"21","district":"Angul","district_code":"","address1":"Angul","address2":"","latitude":"20.6564","longitude":"85.1008","accuracy":"3"},{"address3":"Dhokuta","state":"Odisha","state_code":"21","district":"Angul","district_code":"","address1":"Angul","address2":"","latitude":"20.6564","longitude":"85.1008","accuracy":"3"},{"address3":"Badakantakul","state":"Odisha","state_code":"21","district":"Angul","district_code":"","address1":"Angul","address2":"","latitude":"20.6564","longitude":"85.1008","accuracy":"3"},{"address3":"Basala","state":"Odisha","state_code":"21","district":"Angul","district_code":"","address1":"Angul","address2":"","latitude":"20.7296","longitude":"85.1084","accuracy":"4"},{"address3":"Garh Taras","state":"Odisha","state_code":"21","district":"Angul","district_code":"","address1":"Angul","address2":"","latitude":"20.6564","longitude":"85.1008","accuracy":"3"},{"address3":"Hamamira","state":"Odisha","state_code":"21","district":"Angul","district_code":"","address1":"Angul","address2":"","latitude":"20.7054","longitude":"85.1106","accuracy":"4"},{"address3":"Balasinga","state":"Odisha","state_code":"21","district":"Angul","district_code":"","address1":"Angul","address2":"","latitude":"20.6564","longitude":"85.1008","accuracy":"3"},{"address3":"Inkarabandha","state":"Odisha","state_code":"21","district":"Angul","district_code":"","address1":"Angul","address2":"","latitude":"20.6564","longitude":"85.1008","accuracy":"3"},{"address3":"Kumursinga","state":"Odisha","state_code":"21","district":"Angul","district_code":"","address1":"Angul","address2":"","latitude":"20.6564","longitude":"85.1008","accuracy":"3"},{"address3":"Pokatunga","state":"Odisha","state_code":"21","district":"Angul","district_code":"","address1":"Angul","address2":"","latitude":"20.6564","longitude":"85.1008","accuracy":"3"},{"address3":"Talagarh","state":"Odisha","state_code":"21","district":"Angul","district_code":"","address1":"Angul","address2":"","latitude":"20.6564","longitude":"85.1008","accuracy":"3"},{"address3":"Sankapur","state":"Odisha","state_code":"21","district":"Angul","district_code":"","address1":"NA","address2":"","latitude":"20.6564","longitude":"85.1008","accuracy":"3"},{"address3":"Baluakata","state":"Odisha","state_code":"21","district":"Angul","district_code":"","address1":"Angul","address2":"","latitude":"20.6564","longitude":"85.1008","accuracy":"3"}],"759130":[{"address3":"Changudia","state":"Odisha","state_code":"21","district":"Angul","district_code":"","address1":"Angul","address2":"","latitude":"20.9907","longitude":"84.9568","accuracy":"3"},{"address3":"Brahmanbil","state":"Odisha","state_code":"21","district":"Angul","district_code":"","address1":"Angul","address2":"","latitude":"21.0601","longitude":"84.9447","accuracy":"4"},{"address3":"Kosala","state":"Odisha","state_code":"21","district":"Angul","district_code":"","address1":"Angul","address2":"","latitude":"21.0214","longitude":"84.9107","accuracy":"4"},{"address3":"Santarabandha","state":"Odisha","state_code":"21","district":"Angul","district_code":"","address1":"Angul","address2":"","latitude":"20.9907","longitude":"84.9568","accuracy":"3"},{"address3":"Raijharan","state":"Odisha","state_code":"21","district":"Angul","district_code":"","address1":"Angul","address2":"","latitude":"20.9563","longitude":"84.9701","accuracy":"4"},{"address3":"Kampsala","state":"Odisha","state_code":"21","district":"Angul","district_code":"","address1":"Angul","address2":"","latitude":"20.9907","longitude":"84.9568","accuracy":"3"},{"address3":"Nisha","state":"Odisha","state_code":"21","district":"Angul","district_code":"","address1":"Angul","address2":"","latitude":"20.925","longitude":"85.0017","accuracy":"4"}],"759132":[{"address3":"Balanga","state":"Odisha","state_code":"21","district":"Angul","district_code":"","address1":"Angul","address2":"","latitude":"20.0347","longitude":"85.8799","accuracy":"4"},{"address3":"Tubey","state":"Odisha","state_code":"21","district":"Angul","district_code":"","address1":"Angul","address2":"","latitude":"20.5375","longitude":"85.1397","accuracy":"3"},{"address3":"Ankula","state":"Odisha","state_code":"21","district":"Angul","district_code":"","address1":"Angul","address2":"","latitude":"20.5375","longitude":"85.1397","accuracy":"3"},{"address3":"Purunagarh","state":"Odisha","state_code":"21","district":"Angul","district_code":"","address1":"Angul","address2":"","latitude":"20.791","longitude":"84.9816","accuracy":"4"},{"address3":"Jagannathpur","state":"Odisha","state_code":"21","district":"Angul","district_code":"","address1":"Angul","address2":"","latitude":"20.7259","longitude":"84.8658","accuracy":"4"},{"address3":"Saradhapur","state":"Odisha","state_code":"21","district":"Angul","district_code":"","address1":"Angul","address2":"","latitude":"20.7887","longitude":"84.9261","accuracy":"4"},{"address3":"Champatimunda","state":"Odisha","state_code":"21","district":"Angul","district_code":"","address1":"Angul","address2":"","latitude":"20.7828","longitude":"85.015","accuracy":"4"},{"address3":"Khandahatta","state":"Odisha","state_code":"21","district":"Angul","district_code":"","address1":"Angul","address2":"","latitude":"20.5375","longitude":"85.1397","accuracy":"3"},{"address3":"Hulurisinga","state":"Odisha","state_code":"21","district":"Angul","district_code":"","address1":"Anugul","address2":"","latitude":"20.5375","longitude":"85.1397","accuracy":"3"},{"address3":"Kangula","state":"Odisha","state_code":"21","district":"Angul","district_code":"","address1":"Banarpal","address2":"","latitude":"20.5375","longitude":"85.1397","accuracy":"3"},{"address3":"Paratara","state":"Odisha","state_code":"21","district":"Angul","district_code":"","address1":"Angul","address2":"","latitude":"20.5375","longitude":"85.1397","accuracy":"3"},{"address3":"Nandapur","state":"Odisha","state_code":"21","district":"Angul","district_code":"","address1":"Angul","address2":"","latitude":"20.1021","longitude":"85.17","accuracy":"4"},{"address3":"Khalari","state":"Odisha","state_code":"21","district":"Angul","district_code":"","address1":"Angul","address2":"","latitude":"20.5375","longitude":"85.1397","accuracy":"3"},{"address3":"Purunakote","state":"Odisha","state_code":"21","district":"Angul","district_code":"","address1":"Angul","address2":"","latitude":"20.5375","longitude":"85.1397","accuracy":"3"},{"address3":"Badakera","state":"Odisha","state_code":"21","district":"Angul","district_code":"","address1":"Angul","address2":"","latitude":"20.5375","longitude":"85.1397","accuracy":"3"},{"address3":"Rantalei","state":"Odisha","state_code":"21","district":"Angul","district_code":"","address1":"Angul","address2":"","latitude":"20.5375","longitude":"85.1397","accuracy":"3"},{"address3":"Tikarapada","state":"Odisha","state_code":"21","district":"Angul","district_code":"","address1":"Angul","address2":"","latitude":"20.5375","longitude":"85.1397","accuracy":"3"},{"address3":"Karadagadia","state":"Odisha","state_code":"21","district":"Angul","district_code":"","address1":"Angul","address2":"","latitude":"20.5375","longitude":"85.1397","accuracy":"3"}],"759141":[{"address3":"Nuagaon","state":"Odisha","state_code":"21","district":"Angul","district_code":"","address1":"Angul","address2":"","latitude":"20.5445","longitude":"84.8881","accuracy":"4"},{"address3":"Tangiri","state":"Odisha","state_code":"21","district":"Angul","district_code":"","address1":"Angul","address2":"","latitude":"21.2053","longitude":"85.455","accuracy":"4"},{"address3":"Basantapur","state":"Odisha","state_code":"21","district":"Angul","district_code":"","address1":"Angul","address2":"","latitude":"20.4162","longitude":"84.8637","accuracy":"4"},{"address3":"Barasahi","state":"Odisha","state_code":"21","district":"Angul","district_code":"","address1":"Angul","address2":"","latitude":"21.1243","longitude":"84.7968","accuracy":"4"},{"address3":"Bagedia","state":"Odisha","state_code":"21","district":"Angul","district_code":"","address1":"Angul","address2":"","latitude":"20.8226","longitude":"85.0009","accuracy":"3"},{"address3":"Sapoinali","state":"Odisha","state_code":"21","district":"Angul","district_code":"","address1":"Angul","address2":"","latitude":"20.8226","longitude":"85.0009","accuracy":"3"},{"address3":"Kanaloi","state":"Odisha","state_code":"21","district":"Angul","district_code":"","address1":"Angul","address2":"","latitude":"20.8226","longitude":"85.0009","accuracy":"3"},{"address3":"Patakumunda","state":"Odisha","state_code":"21","district":"Angul","district_code":"","address1":"Angul","address2":"","latitude":"20.8226","longitude":"85.0009","accuracy":"3"},{"address3":"Patrapada","state":"Odisha","state_code":"21","district":"Angul","district_code":"","address1":"Angul","address2":"","latitude":"20.8226","longitude":"85.0009","accuracy":"3"},{"address3":"Pipalabahal","state":"Odisha","state_code":"21","district":"Angul","district_code":"","address1":"Angul","address2":"","latitude":"20.8226","longitude":"85.0009","accuracy":"3"}],"759143":[{"address3":"Kumanda","state":"Odisha","state_code":"21","district":"Angul","district_code":"","address1":"Angul","address2":"","latitude":"20.6511","longitude":"84.3112","accuracy":"3"},{"address3":"Golabandha","state":"Odisha","state_code":"21","district":"Angul","district_code":"","address1":"Angul","address2":"","latitude":"20.1132","longitude":"84.5672","accuracy":"4"},{"address3":"Hakimpada","state":"Odisha","state_code":"21","district":"Angul","district_code":"","address1":"Anugul","address2":"","latitude":"20.6511","longitude":"84.3112","accuracy":"3"},{"address3":"Jarasingha","state":"Odisha","state_code":"21","district":"Angul","district_code":"","address1":"Angul","address2":"","latitude":"21.189","longitude":"84.0552","accuracy":"4"},{"address3":"Badkerjang","state":"Odisha","state_code":"21","district":"Angul","district_code":"","address1":"Angul","address2":"","latitude":"20.6511","longitude":"84.3112","accuracy":"3"},{"address3":"Parang","state":"Odisha","state_code":"21","district":"Angul","district_code":"","address1":"Angul","address2":"","latitude":"20.6511","longitude":"84.3112","accuracy":"3"}],"759145":[{"address3":"Kulad","state":"Odisha","state_code":"21","district":"Angul","district_code":"","address1":"Angul","address2":"","latitude":"20.8573","longitude":"84.9125","accuracy":"1"},{"address3":"Nalconagar","state":"Odisha","state_code":"21","district":"Angul","district_code":"","address1":"Angul","address2":"","latitude":"20.8573","longitude":"84.9125","accuracy":"1"},{"address3":"Kandasar","state":"Odisha","state_code":"21","district":"Angul","district_code":"","address1":"Angul","address2":"","latitude":"20.8573","longitude":"84.9125","accuracy":"1"}],"759146":[{"address3":"Gengutia","state":"Odisha","state_code":"21","district":"Dhenkanal","district_code":"383","address1":"Kamakhyanagar","address2":"","latitude":"20.9981","longitude":"85.2603","accuracy":"4"},{"address3":"Saranga","state":"Odisha","state_code":"21","district":"Dhenkanal","district_code":"383","address1":"Kamakhyanagar","address2":"","latitude":"21.0411","longitude":"85.1956","accuracy":"3"},{"address3":"Manikmara","state":"Odisha","state_code":"21","district":"Dhenkanal","district_code":"383","address1":"Kamakhyanagar","address2":"","latitude":"21.0411","longitude":"85.2003","accuracy":"4"},{"address3":"Akhuapal","state":"Odisha","state_code":"21","district":"Dhenkanal","district_code":"383","address1":"Parajang","address2":"","latitude":"21.0411","longitude":"85.1956","accuracy":"3"},{"address3":"Igit Sarang","state":"Odisha","state_code":"21","district":"Dhenkanal","district_code":"383","address1":"Kamakhyanagar","address2":"","latitude":"21.0411","longitude":"85.1956","accuracy":"3"},{"address3":"Kulei","state":"Odisha","state_code":"21","district":"Angul","district_code":"","address1":"Samal Barrage","address2":"","latitude":"21.0842","longitude":"85.1261","accuracy":"4"}],"759147":[{"address3":"Deepasikha","state":"Odisha","state_code":"21","district":"Angul","district_code":"","address1":"Talcher","address2":"","latitude":"20.8573","longitude":"84.9125","accuracy":"1"}],"759148":[{"address3":"Nehru Satabdi Nagar(Bharatpu)r","state":"Odisha","state_code":"21","district":"Angul","district_code":"","address1":"Colliery","address2":"","latitude":"20.8573","longitude":"84.9125","accuracy":"1"}],"credits":[{"name":"geonames","url":"https://www.geonames.org"}],"last_update":"2019-03-01T09:01:33.568Z"}