{"768001":[{"address3":"Sambalpur H.O","state":"Odisha","state_code":"21","district":"Sambalpur","district_code":"372","address1":"Sadar","address2":"","latitude":"21.446","longitude":"84.0012","accuracy":"1"},{"address3":"Jharuapara","state":"Odisha","state_code":"21","district":"Sambalpur","district_code":"372","address1":"Sadar","address2":"","latitude":"21.446","longitude":"84.0012","accuracy":"1"},{"address3":"Golebazar","state":"Odisha","state_code":"21","district":"Sambalpur","district_code":"372","address1":"Sadar","address2":"","latitude":"21.446","longitude":"84.0012","accuracy":"1"},{"address3":"Bss Nagar","state":"Odisha","state_code":"21","district":"Sambalpur","district_code":"372","address1":"Sadar","address2":"","latitude":"21.446","longitude":"84.0012","accuracy":"1"},{"address3":"Sambalpur Court","state":"Odisha","state_code":"21","district":"Sambalpur","district_code":"372","address1":"Sadar","address2":"","latitude":"21.446","longitude":"84.0012","accuracy":"1"}],"768002":[{"address3":"Mudipara","state":"Odisha","state_code":"21","district":"Sambalpur","district_code":"372","address1":"Sadar","address2":"","latitude":"21.446","longitude":"84.0012","accuracy":"1"}],"768003":[{"address3":"Khetrajpur","state":"Odisha","state_code":"21","district":"Sambalpur","district_code":"372","address1":"Sadar","address2":"","latitude":"21.4875","longitude":"83.957","accuracy":"4"}],"768004":[{"address3":"Budharaja","state":"Odisha","state_code":"21","district":"Sambalpur","district_code":"372","address1":"Sadar","address2":"","latitude":"21.4925","longitude":"83.9853","accuracy":"3"},{"address3":"Ainthapali","state":"Odisha","state_code":"21","district":"Sambalpur","district_code":"372","address1":"Sambalpur","address2":"","latitude":"21.4925","longitude":"83.9853","accuracy":"4"}],"768005":[{"address3":"Jhankarpali","state":"Odisha","state_code":"21","district":"Sambalpur","district_code":"372","address1":"Maneswar","address2":"","latitude":"21.4066","longitude":"84.0546","accuracy":"4"},{"address3":"Sindurpank","state":"Odisha","state_code":"21","district":"Sambalpur","district_code":"372","address1":"Maneswar","address2":"","latitude":"21.4496","longitude":"84.0225","accuracy":"4"},{"address3":"Maneswar","state":"Odisha","state_code":"21","district":"Sambalpur","district_code":"372","address1":"Maneswar","address2":"","latitude":"21.4256","longitude":"84.0292","accuracy":"3"},{"address3":"Rasanpur","state":"Odisha","state_code":"21","district":"Sambalpur","district_code":"372","address1":"Maneswar","address2":"","latitude":"21.4282","longitude":"84.0524","accuracy":"4"},{"address3":"Themra","state":"Odisha","state_code":"21","district":"Sambalpur","district_code":"372","address1":"Maneswar","address2":"","latitude":"21.4792","longitude":"84.0353","accuracy":"4"},{"address3":"Batemura","state":"Odisha","state_code":"21","district":"Sambalpur","district_code":"372","address1":"Maneswar","address2":"","latitude":"21.3643","longitude":"83.9812","accuracy":"4"},{"address3":"Chaurpur","state":"Odisha","state_code":"21","district":"Sambalpur","district_code":"372","address1":"Maneswar","address2":"","latitude":"21.4256","longitude":"84.0292","accuracy":"3"},{"address3":"Dhanupali","state":"Odisha","state_code":"21","district":"Sambalpur","district_code":"372","address1":"Dhanupali","address2":"","latitude":"21.4256","longitude":"84.0292","accuracy":"3"},{"address3":"Maltigunderpur","state":"Odisha","state_code":"21","district":"Sambalpur","district_code":"372","address1":"Dhanupali","address2":"","latitude":"21.4256","longitude":"84.0292","accuracy":"3"}],"768006":[{"address3":"Dhankauda","state":"Odisha","state_code":"21","district":"Sambalpur","district_code":"372","address1":"Sadar","address2":"","latitude":"21.282","longitude":"84.02","accuracy":"4"},{"address3":"Sankarma","state":"Odisha","state_code":"21","district":"Sambalpur","district_code":"372","address1":"Dhankauda","address2":"","latitude":"21.4929","longitude":"84.0058","accuracy":"4"},{"address3":"Remed","state":"Odisha","state_code":"21","district":"Sambalpur","district_code":"372","address1":"Sadar","address2":"","latitude":"21.4984","longitude":"83.9489","accuracy":"4"},{"address3":"Garmunda","state":"Odisha","state_code":"21","district":"Sambalpur","district_code":"372","address1":"Dhankauda","address2":"","latitude":"21.5246","longitude":"83.9507","accuracy":"4"},{"address3":"Bareipali","state":"Odisha","state_code":"21","district":"Sambalpur","district_code":"372","address1":"Sadar","address2":"","latitude":"21.4495","longitude":"83.9813","accuracy":"3"},{"address3":"A.Katapali","state":"Odisha","state_code":"21","district":"Sambalpur","district_code":"372","address1":"Sadar","address2":"","latitude":"21.4495","longitude":"83.9813","accuracy":"3"}],"768016":[{"address3":"Hirakud","state":"Odisha","state_code":"21","district":"Sambalpur","district_code":"372","address1":"Hirakud","address2":"","latitude":"21.525","longitude":"83.8727","accuracy":"4"}],"768017":[{"address3":"Medical College Burla","state":"Odisha","state_code":"21","district":"Sambalpur","district_code":"372","address1":"Burla","address2":"","latitude":"21.5098","longitude":"83.8726","accuracy":"3"},{"address3":"Burla","state":"Odisha","state_code":"21","district":"Sambalpur","district_code":"372","address1":"Dhankauda","address2":"","latitude":"21.5098","longitude":"83.8726","accuracy":"4"}],"768018":[{"address3":"Engineering College Burla","state":"Odisha","state_code":"21","district":"Sambalpur","district_code":"372","address1":"Burla","address2":"","latitude":"21.5174","longitude":"83.8727","accuracy":"1"}],"768019":[{"address3":"Jyoti Vihar Burla","state":"Odisha","state_code":"21","district":"Sambalpur","district_code":"372","address1":"Burla","address2":"","latitude":"21.5174","longitude":"83.8727","accuracy":"1"}],"768020":[{"address3":"Jagruti Vihar Burla","state":"Odisha","state_code":"21","district":"Sambalpur","district_code":"372","address1":"Burla","address2":"","latitude":"21.2854","longitude":"83.7185","accuracy":"1"}],"768025":[{"address3":"Gosala Chowk","state":"Odisha","state_code":"21","district":"Sambalpur","district_code":"372","address1":"Dhankauda","address2":"","latitude":"21.458","longitude":"84.3546","accuracy":"3"},{"address3":"Basantpur","state":"Odisha","state_code":"21","district":"Sambalpur","district_code":"372","address1":"Dhankauda","address2":"","latitude":"21.3903","longitude":"83.9077","accuracy":"4"},{"address3":"C.A. Chiplima","state":"Odisha","state_code":"21","district":"Sambalpur","district_code":"372","address1":"Dhankauda","address2":"","latitude":"21.458","longitude":"84.3546","accuracy":"3"},{"address3":"Kalamati","state":"Odisha","state_code":"21","district":"Sambalpur","district_code":"372","address1":"Dhankauda","address2":"","latitude":"21.4519","longitude":"84.2809","accuracy":"4"}],"768026":[{"address3":"Chiplima","state":"Odisha","state_code":"21","district":"Sambalpur","district_code":"372","address1":"Dhankauda","address2":"","latitude":"21.2854","longitude":"83.7185","accuracy":"1"}],"768027":[{"address3":"Lachida","state":"Odisha","state_code":"21","district":"Bargarh","district_code":"370","address1":"Attabira","address2":"","latitude":"21.417","longitude":"83.7224","accuracy":"4"},{"address3":"Kulunda","state":"Odisha","state_code":"21","district":"Bargarh","district_code":"370","address1":"Attabira","address2":"","latitude":"21.3447","longitude":"83.7818","accuracy":"4"},{"address3":"Larasara","state":"Odisha","state_code":"21","district":"Bargarh","district_code":"370","address1":"Attabira","address2":"","latitude":"21.4034","longitude":"83.8091","accuracy":"4"},{"address3":"Manapada","state":"Odisha","state_code":"21","district":"Bargarh","district_code":"370","address1":"Attabira","address2":"","latitude":"21.2202","longitude":"83.3534","accuracy":"3"},{"address3":"Saranda","state":"Odisha","state_code":"21","district":"Bargarh","district_code":"370","address1":"Attabira","address2":"","latitude":"21.3856","longitude":"83.8166","accuracy":"4"},{"address3":"Hirlipali","state":"Odisha","state_code":"21","district":"Bargarh","district_code":"370","address1":"Attabira","address2":"","latitude":"21.4141","longitude":"83.7496","accuracy":"4"},{"address3":"Attabira","state":"Odisha","state_code":"21","district":"Bargarh","district_code":"370","address1":"Attabira","address2":"","latitude":"21.3739","longitude":"83.7867","accuracy":"4"},{"address3":"Rengalipali Colony","state":"Odisha","state_code":"21","district":"Bargarh","district_code":"370","address1":"Attabira","address2":"","latitude":"21.3849","longitude":"83.7757","accuracy":"3"},{"address3":"Babebira","state":"Odisha","state_code":"21","district":"Bargarh","district_code":"370","address1":"Attabira","address2":"","latitude":"21.3518","longitude":"83.8094","accuracy":"4"},{"address3":"Tope","state":"Odisha","state_code":"21","district":"Bargarh","district_code":"370","address1":"Attabira","address2":"","latitude":"21.3849","longitude":"83.7757","accuracy":"3"},{"address3":"Bugbuga","state":"Odisha","state_code":"21","district":"Bargarh","district_code":"370","address1":"Attabira","address2":"","latitude":"21.3261","longitude":"83.8074","accuracy":"4"},{"address3":"Janhapada","state":"Odisha","state_code":"21","district":"Bargarh","district_code":"370","address1":"Attabira","address2":"","latitude":"21.3849","longitude":"83.7757","accuracy":"3"},{"address3":"Banhar","state":"Odisha","state_code":"21","district":"Bargarh","district_code":"370","address1":"Attabira","address2":"","latitude":"21.4357","longitude":"83.7686","accuracy":"4"},{"address3":"Paharsirgida","state":"Odisha","state_code":"21","district":"Bargarh","district_code":"370","address1":"Attabira","address2":"","latitude":"21.3849","longitude":"83.7757","accuracy":"3"},{"address3":"Lastala","state":"Odisha","state_code":"21","district":"Bargarh","district_code":"370","address1":"Attabira","address2":"","latitude":"21.3968","longitude":"83.7052","accuracy":"4"},{"address3":"Janged","state":"Odisha","state_code":"21","district":"Bargarh","district_code":"370","address1":"Attabira","address2":"","latitude":"21.3849","longitude":"83.7757","accuracy":"3"}],"768028":[{"address3":"Bargarh H.O","state":"Odisha","state_code":"21","district":"Bargarh","district_code":"370","address1":"Bargarh","address2":"","latitude":"21.2854","longitude":"83.7185","accuracy":"1"},{"address3":"Bargarh Court","state":"Odisha","state_code":"21","district":"Bargarh","district_code":"370","address1":"Bargarh","address2":"","latitude":"21.2854","longitude":"83.7185","accuracy":"1"},{"address3":"Bargarh Bazar","state":"Odisha","state_code":"21","district":"Bargarh","district_code":"370","address1":"Bargarh","address2":"","latitude":"21.2854","longitude":"83.7185","accuracy":"1"}],"768029":[{"address3":"Lenda","state":"Odisha","state_code":"21","district":"Bargarh","district_code":"370","address1":"Barpali","address2":"","latitude":"21.2242","longitude":"83.5905","accuracy":"4"},{"address3":"Bhatigaon","state":"Odisha","state_code":"21","district":"Bargarh","district_code":"370","address1":"Barpali","address2":"","latitude":"21.1261","longitude":"83.5902","accuracy":"4"},{"address3":"Patakulunda","state":"Odisha","state_code":"21","district":"Bargarh","district_code":"370","address1":"Barpali","address2":"","latitude":"21.196","longitude":"83.5955","accuracy":"3"},{"address3":"Mahulpali","state":"Odisha","state_code":"21","district":"Bargarh","district_code":"370","address1":"Barpali","address2":"","latitude":"21.2237","longitude":"83.5587","accuracy":"4"},{"address3":"Satlama","state":"Odisha","state_code":"21","district":"Bargarh","district_code":"370","address1":"Barpali","address2":"","latitude":"21.1452","longitude":"83.6204","accuracy":"4"},{"address3":"Mahada","state":"Odisha","state_code":"21","district":"Bargarh","district_code":"370","address1":"Barpali","address2":"","latitude":"21.1303","longitude":"83.5645","accuracy":"4"},{"address3":"Nileswar","state":"Odisha","state_code":"21","district":"Bargarh","district_code":"370","address1":"Barpali","address2":"","latitude":"21.196","longitude":"83.5955","accuracy":"3"},{"address3":"Tulandi","state":"Odisha","state_code":"21","district":"Bargarh","district_code":"370","address1":"Barpali","address2":"","latitude":"21.1734","longitude":"83.6477","accuracy":"4"},{"address3":"Barpali","state":"Odisha","state_code":"21","district":"Bargarh","district_code":"370","address1":"Barapali","address2":"","latitude":"21.19","longitude":"83.5872","accuracy":"4"},{"address3":"Kusanpuri","state":"Odisha","state_code":"21","district":"Bargarh","district_code":"370","address1":"Barpali","address2":"","latitude":"21.2492","longitude":"83.58","accuracy":"4"},{"address3":"Kebad","state":"Odisha","state_code":"21","district":"Bargarh","district_code":"370","address1":"Barpali","address2":"","latitude":"21.196","longitude":"83.5955","accuracy":"3"},{"address3":"Agalpur","state":"Odisha","state_code":"21","district":"Bargarh","district_code":"370","address1":"Barpali","address2":"","latitude":"21.1058","longitude":"83.5358","accuracy":"4"},{"address3":"Behera","state":"Odisha","state_code":"21","district":"Bargarh","district_code":"370","address1":"Bargarh","address2":"","latitude":"21.2657","longitude":"83.5995","accuracy":"4"},{"address3":"Remta","state":"Odisha","state_code":"21","district":"Bargarh","district_code":"370","address1":"Barpali","address2":"","latitude":"21.2018","longitude":"83.619","accuracy":"4"},{"address3":"B. Tileimal","state":"Odisha","state_code":"21","district":"Bargarh","district_code":"370","address1":"Barapali","address2":"","latitude":"21.196","longitude":"83.5955","accuracy":"3"},{"address3":"Kainsir","state":"Odisha","state_code":"21","district":"Bargarh","district_code":"370","address1":"Barpali","address2":"","latitude":"21.1824","longitude":"83.6293","accuracy":"4"},{"address3":"Birmal","state":"Odisha","state_code":"21","district":"Bargarh","district_code":"370","address1":"Bargarh Sadar","address2":"","latitude":"21.2663","longitude":"83.5475","accuracy":"4"},{"address3":"Kumbhari","state":"Odisha","state_code":"21","district":"Bargarh","district_code":"370","address1":"Barpali","address2":"","latitude":"21.2088","longitude":"83.6467","accuracy":"4"},{"address3":"Kantapali-barpali","state":"Odisha","state_code":"21","district":"Bargarh","district_code":"370","address1":"Barpali","address2":"","latitude":"21.196","longitude":"83.5955","accuracy":"3"},{"address3":"Bagbadi","state":"Odisha","state_code":"21","district":"Bargarh","district_code":"370","address1":"Barpali","address2":"","latitude":"21.2473","longitude":"83.6158","accuracy":"4"},{"address3":"Bijayapali","state":"Odisha","state_code":"21","district":"Bargarh","district_code":"370","address1":"Barapali","address2":"","latitude":"21.196","longitude":"83.5955","accuracy":"3"},{"address3":"Gopeipali","state":"Odisha","state_code":"21","district":"Bargarh","district_code":"370","address1":"Barpali","address2":"","latitude":"21.196","longitude":"83.5955","accuracy":"3"}],"768030":[{"address3":"Kesaipali","state":"Odisha","state_code":"21","district":"Bargarh","district_code":"370","address1":"Bhatli","address2":"","latitude":"21.4746","longitude":"83.5197","accuracy":"4"},{"address3":"Bhatli","state":"Odisha","state_code":"21","district":"Bargarh","district_code":"370","address1":"Bargarh","address2":"","latitude":"21.4582","longitude":"83.5359","accuracy":"4"},{"address3":"Tejgola","state":"Odisha","state_code":"21","district":"Bargarh","district_code":"370","address1":"Bhatli","address2":"","latitude":"21.4624","longitude":"83.5143","accuracy":"3"},{"address3":"Chadeigaon","state":"Odisha","state_code":"21","district":"Bargarh","district_code":"370","address1":"Bhatli","address2":"","latitude":"21.4624","longitude":"83.5143","accuracy":"3"},{"address3":"Kharsal","state":"Odisha","state_code":"21","district":"Bargarh","district_code":"370","address1":"Bhatli","address2":"","latitude":"21.5177","longitude":"83.506","accuracy":"4"},{"address3":"Bhatli-badmal","state":"Odisha","state_code":"21","district":"Bargarh","district_code":"370","address1":"Bhatli","address2":"","latitude":"21.4624","longitude":"83.5143","accuracy":"3"},{"address3":"Gopalpur","state":"Odisha","state_code":"21","district":"Bargarh","district_code":"370","address1":"Bhatli","address2":"","latitude":"21.4511","longitude":"83.551","accuracy":"4"},{"address3":"Routpara","state":"Odisha","state_code":"21","district":"Bargarh","district_code":"370","address1":"Bhatli","address2":"","latitude":"21.4624","longitude":"83.5143","accuracy":"3"},{"address3":"Mulbar","state":"Odisha","state_code":"21","district":"Bargarh","district_code":"370","address1":"Bhatli","address2":"","latitude":"21.4741","longitude":"83.5932","accuracy":"4"},{"address3":"Jhikijhiki","state":"Odisha","state_code":"21","district":"Bargarh","district_code":"370","address1":"Bhatli","address2":"","latitude":"21.4624","longitude":"83.5143","accuracy":"3"},{"address3":"Nuagarh","state":"Odisha","state_code":"21","district":"Bargarh","district_code":"370","address1":"Bhatli","address2":"","latitude":"21.4517","longitude":"83.4921","accuracy":"4"},{"address3":"Bichuan","state":"Odisha","state_code":"21","district":"Bargarh","district_code":"370","address1":"Bhatli","address2":"","latitude":"21.4624","longitude":"83.5143","accuracy":"3"},{"address3":"Nilji","state":"Odisha","state_code":"21","district":"Bargarh","district_code":"370","address1":"Bhatli","address2":"","latitude":"21.4315","longitude":"83.5271","accuracy":"4"},{"address3":"Kanakbira","state":"Odisha","state_code":"21","district":"Bargarh","district_code":"370","address1":"Bhatli","address2":"","latitude":"21.4894","longitude":"83.4864","accuracy":"4"},{"address3":"Sulsulia","state":"Odisha","state_code":"21","district":"Bargarh","district_code":"370","address1":"Bhatli","address2":"","latitude":"21.448","longitude":"83.4458","accuracy":"4"},{"address3":"Sakuda","state":"Odisha","state_code":"21","district":"Bargarh","district_code":"370","address1":"Bhatli","address2":"","latitude":"21.4624","longitude":"83.5143","accuracy":"3"},{"address3":"Hatisar","state":"Odisha","state_code":"21","district":"Bargarh","district_code":"370","address1":"Bhatli","address2":"","latitude":"21.4281","longitude":"83.4856","accuracy":"4"}],"768031":[{"address3":"Ambabhana","state":"Odisha","state_code":"21","district":"Bargarh","district_code":"370","address1":"Ambabhana","address2":"","latitude":"21.2106","longitude":"83.4445","accuracy":"1"}],"768032":[{"address3":"Jaring","state":"Odisha","state_code":"21","district":"Bargarh","district_code":"370","address1":"Bijepur","address2":"","latitude":"21.1982","longitude":"83.4984","accuracy":"4"},{"address3":"Badapali","state":"Odisha","state_code":"21","district":"Bargarh","district_code":"370","address1":"Bijepur","address2":"","latitude":"21.2301","longitude":"83.65","accuracy":"4"},{"address3":"Bandhapali","state":"Odisha","state_code":"21","district":"Bargarh","district_code":"370","address1":"Barpali","address2":"","latitude":"21.1395","longitude":"83.687","accuracy":"3"},{"address3":"Saipali","state":"Odisha","state_code":"21","district":"Bargarh","district_code":"370","address1":"Bijepur","address2":"","latitude":"21.0838","longitude":"83.4506","accuracy":"4"},{"address3":"Bijepur","state":"Odisha","state_code":"21","district":"Bargarh","district_code":"370","address1":"Bijepur","address2":"","latitude":"21.1893","longitude":"83.4606","accuracy":"4"},{"address3":"Pahandi","state":"Odisha","state_code":"21","district":"Bargarh","district_code":"370","address1":"Bijepur","address2":"","latitude":"21.1542","longitude":"83.4165","accuracy":"4"},{"address3":"Kharmunda","state":"Odisha","state_code":"21","district":"Bargarh","district_code":"370","address1":"Bijepur","address2":"","latitude":"21.1342","longitude":"83.4902","accuracy":"4"},{"address3":"Baddausen","state":"Odisha","state_code":"21","district":"Bargarh","district_code":"370","address1":"Bijepur","address2":"","latitude":"21.1395","longitude":"83.687","accuracy":"3"},{"address3":"Pada","state":"Odisha","state_code":"21","district":"Bargarh","district_code":"370","address1":"Bijepur","address2":"","latitude":"21.2202","longitude":"83.3534","accuracy":"4"},{"address3":"Patharia","state":"Odisha","state_code":"21","district":"Bargarh","district_code":"370","address1":"Bijepur","address2":"","latitude":"21.1395","longitude":"83.687","accuracy":"3"},{"address3":"Sirgida","state":"Odisha","state_code":"21","district":"Bargarh","district_code":"370","address1":"Bijepur","address2":"","latitude":"21.348","longitude":"83.5052","accuracy":"4"},{"address3":"Kantapali-Barpali","state":"Odisha","state_code":"21","district":"Bargarh","district_code":"370","address1":"Bijepur","address2":"","latitude":"21.1395","longitude":"83.687","accuracy":"3"},{"address3":"Sarandapali","state":"Odisha","state_code":"21","district":"Bargarh","district_code":"370","address1":"Barapali","address2":"","latitude":"21.2337","longitude":"83.495","accuracy":"4"},{"address3":"Samalaipadar","state":"Odisha","state_code":"21","district":"Bargarh","district_code":"370","address1":"Bijepur","address2":"","latitude":"21.1395","longitude":"83.687","accuracy":"3"}],"768033":[{"address3":"Chhuriapali","state":"Odisha","state_code":"21","district":"Bargarh","district_code":"370","address1":"Sohella","address2":"","latitude":"21.2445","longitude":"83.3384","accuracy":"4"},{"address3":"Tabada","state":"Odisha","state_code":"21","district":"Bargarh","district_code":"370","address1":"Sohella","address2":"","latitude":"21.2202","longitude":"83.3534","accuracy":"4"},{"address3":"Garbhona","state":"Odisha","state_code":"21","district":"Bargarh","district_code":"370","address1":"Sohella","address2":"","latitude":"21.3089","longitude":"83.666","accuracy":"3"},{"address3":"Madhupur","state":"Odisha","state_code":"21","district":"Bargarh","district_code":"370","address1":"Sohella","address2":"","latitude":"21.2202","longitude":"83.3534","accuracy":"4"},{"address3":"Chichinda","state":"Odisha","state_code":"21","district":"Bargarh","district_code":"370","address1":"Bheden","address2":"","latitude":"21.2087","longitude":"83.7915","accuracy":"4"},{"address3":"Jatla","state":"Odisha","state_code":"21","district":"Bargarh","district_code":"370","address1":"Bargarh","address2":"","latitude":"21.3559","longitude":"83.4862","accuracy":"4"},{"address3":"Govindpur","state":"Odisha","state_code":"21","district":"Bargarh","district_code":"370","address1":"Bargarh","address2":"","latitude":"21.2202","longitude":"83.3534","accuracy":"4"},{"address3":"Rengali","state":"Odisha","state_code":"21","district":"Bargarh","district_code":"370","address1":"Sohella","address2":"","latitude":"21.3344","longitude":"83.3578","accuracy":"4"},{"address3":"Bausenmura","state":"Odisha","state_code":"21","district":"Bargarh","district_code":"370","address1":"Sohella","address2":"","latitude":"21.3089","longitude":"83.666","accuracy":"3"},{"address3":"Panimura","state":"Odisha","state_code":"21","district":"Bargarh","district_code":"370","address1":"Sohella","address2":"","latitude":"21.2473","longitude":"83.4503","accuracy":"4"},{"address3":"Kangaon","state":"Odisha","state_code":"21","district":"Bargarh","district_code":"370","address1":"Sohella","address2":"","latitude":"21.329","longitude":"83.4376","accuracy":"4"},{"address3":"Negimunda","state":"Odisha","state_code":"21","district":"Bargarh","district_code":"370","address1":"Sohella","address2":"","latitude":"21.3604","longitude":"83.3079","accuracy":"4"},{"address3":"J. Sirgida","state":"Odisha","state_code":"21","district":"Bargarh","district_code":"370","address1":"Sohela","address2":"","latitude":"21.3089","longitude":"83.666","accuracy":"3"},{"address3":"Chakarkend","state":"Odisha","state_code":"21","district":"Bargarh","district_code":"370","address1":"Bargarh","address2":"","latitude":"21.3071","longitude":"83.5109","accuracy":"4"},{"address3":"Sarkanda","state":"Odisha","state_code":"21","district":"Bargarh","district_code":"370","address1":"Bargarh","address2":"","latitude":"21.3537","longitude":"83.454","accuracy":"4"},{"address3":"Sohella","state":"Odisha","state_code":"21","district":"Bargarh","district_code":"370","address1":"Sohella","address2":"","latitude":"21.3089","longitude":"83.666","accuracy":"3"},{"address3":"Lebidi","state":"Odisha","state_code":"21","district":"Bargarh","district_code":"370","address1":"Sohela","address2":"","latitude":"21.3089","longitude":"83.666","accuracy":"3"},{"address3":"Pandikipali","state":"Odisha","state_code":"21","district":"Bargarh","district_code":"370","address1":"Sohella","address2":"","latitude":"21.3089","longitude":"83.666","accuracy":"3"},{"address3":"Tungibandhali","state":"Odisha","state_code":"21","district":"Bargarh","district_code":"370","address1":"Sohella","address2":"","latitude":"21.3089","longitude":"83.666","accuracy":"3"}],"768034":[{"address3":"Sanimal","state":"Odisha","state_code":"21","district":"Bargarh","district_code":"370","address1":"Sohella","address2":"","latitude":"21.156","longitude":"83.2604","accuracy":"4"},{"address3":"Kalangapali","state":"Odisha","state_code":"21","district":"Bargarh","district_code":"370","address1":"Sohella","address2":"","latitude":"21.3066","longitude":"83.5347","accuracy":"4"},{"address3":"Kuchipali","state":"Odisha","state_code":"21","district":"Bargarh","district_code":"370","address1":"Sohella","address2":"","latitude":"21.1661","longitude":"83.2698","accuracy":"4"},{"address3":"Jhar","state":"Odisha","state_code":"21","district":"Bargarh","district_code":"370","address1":"Sohella","address2":"","latitude":"21.2291","longitude":"83.2767","accuracy":"4"},{"address3":"Ghess","state":"Odisha","state_code":"21","district":"Bargarh","district_code":"370","address1":"Sohella","address2":"","latitude":"21.2449","longitude":"83.3442","accuracy":"3"},{"address3":"Jharpali","state":"Odisha","state_code":"21","district":"Bargarh","district_code":"370","address1":"Ambabhona","address2":"","latitude":"21.5731","longitude":"83.445","accuracy":"4"},{"address3":"Petupali","state":"Odisha","state_code":"21","district":"Bargarh","district_code":"370","address1":"Sohella","address2":"","latitude":"21.2094","longitude":"83.3131","accuracy":"4"},{"address3":"Birjam","state":"Odisha","state_code":"21","district":"Bargarh","district_code":"370","address1":"Sohella","address2":"","latitude":"21.1349","longitude":"83.2967","accuracy":"4"},{"address3":"Talpadar","state":"Odisha","state_code":"21","district":"Bargarh","district_code":"370","address1":"Sohella","address2":"","latitude":"21.1842","longitude":"83.3572","accuracy":"4"}],"768035":[{"address3":"Salepali","state":"Odisha","state_code":"21","district":"Bargarh","district_code":"370","address1":"Rajborasambar","address2":"","latitude":"21.2202","longitude":"83.3534","accuracy":"4"},{"address3":"Melchhamunda","state":"Odisha","state_code":"21","district":"Bargarh","district_code":"370","address1":"Rajborasamber","address2":"","latitude":"21.0865","longitude":"83.2454","accuracy":"4"},{"address3":"Diptipur","state":"Odisha","state_code":"21","district":"Bargarh","district_code":"370","address1":"Melchhamunda","address2":"","latitude":"21.1764","longitude":"83.4858","accuracy":"3"},{"address3":"Kundakhai","state":"Odisha","state_code":"21","district":"Bargarh","district_code":"370","address1":"Gaisilet","address2":"","latitude":"21.0701","longitude":"83.2999","accuracy":"4"},{"address3":"Guderpali","state":"Odisha","state_code":"21","district":"Bargarh","district_code":"370","address1":"Rajborasambar","address2":"","latitude":"21.1764","longitude":"83.4858","accuracy":"3"},{"address3":"Chantipali","state":"Odisha","state_code":"21","district":"Bargarh","district_code":"370","address1":"Rajborasambar","address2":"","latitude":"21.0238","longitude":"83.29","accuracy":"4"}],"768036":[{"address3":"Purena","state":"Odisha","state_code":"21","district":"Bargarh","district_code":"370","address1":"Rajborasambar","address2":"","latitude":"21.0373","longitude":"83.0255","accuracy":"4"},{"address3":"Kansingha","state":"Odisha","state_code":"21","district":"Bargarh","district_code":"370","address1":"Rajborasambar","address2":"","latitude":"21.0059","longitude":"83.0422","accuracy":"3"},{"address3":"Khaliapali","state":"Odisha","state_code":"21","district":"Bargarh","district_code":"370","address1":"Rajborasambar","address2":"","latitude":"20.9572","longitude":"83.0444","accuracy":"4"},{"address3":"Jagdalpur","state":"Odisha","state_code":"21","district":"Bargarh","district_code":"370","address1":"Rajborasambar","address2":"","latitude":"21.1261","longitude":"82.9385","accuracy":"4"},{"address3":"Rajborasamber","state":"Odisha","state_code":"21","district":"Bargarh","district_code":"370","address1":"Rajborasamber","address2":"","latitude":"21.0059","longitude":"83.0422","accuracy":"3"},{"address3":"Burkel","state":"Odisha","state_code":"21","district":"Bargarh","district_code":"370","address1":"Rajborasambar","address2":"","latitude":"20.9824","longitude":"83.0157","accuracy":"4"},{"address3":"Dahigaon","state":"Odisha","state_code":"21","district":"Bargarh","district_code":"370","address1":"Rajborasambar","address2":"","latitude":"20.9328","longitude":"83.0875","accuracy":"4"},{"address3":"Mahulpali","state":"Odisha","state_code":"21","district":"Bargarh","district_code":"370","address1":"Rajborasambar","address2":"","latitude":"21.0134","longitude":"83.0985","accuracy":"4"},{"address3":"Sareikela","state":"Odisha","state_code":"21","district":"Bargarh","district_code":"370","address1":"Rajborasambar","address2":"","latitude":"21.0059","longitude":"83.0422","accuracy":"3"},{"address3":"Talpali","state":"Odisha","state_code":"21","district":"Bargarh","district_code":"370","address1":"Rajborasambar","address2":"","latitude":"20.9748","longitude":"83.2141","accuracy":"4"},{"address3":"Saplahar","state":"Odisha","state_code":"21","district":"Bargarh","district_code":"370","address1":"Rajborasambar","address2":"","latitude":"21.0495","longitude":"82.9824","accuracy":"4"},{"address3":"K. Katabahal","state":"Odisha","state_code":"21","district":"Bargarh","district_code":"370","address1":"Rajborasambar","address2":"","latitude":"21.0059","longitude":"83.0422","accuracy":"3"},{"address3":"Badikata","state":"Odisha","state_code":"21","district":"Bargarh","district_code":"370","address1":"Paikmal","address2":"","latitude":"21.068","longitude":"82.9491","accuracy":"4"},{"address3":"Budamal","state":"Odisha","state_code":"21","district":"Bargarh","district_code":"370","address1":"Rajborasambar","address2":"","latitude":"21.0059","longitude":"83.0422","accuracy":"3"},{"address3":"Bheunria","state":"Odisha","state_code":"21","district":"Bargarh","district_code":"370","address1":"Rajborasambar","address2":"","latitude":"21.0141","longitude":"83.0468","accuracy":"4"},{"address3":"Boden","state":"Odisha","state_code":"21","district":"Bargarh","district_code":"370","address1":"Rajborasambar","address2":"","latitude":"21.0059","longitude":"83.0422","accuracy":"3"},{"address3":"Dahita","state":"Odisha","state_code":"21","district":"Bargarh","district_code":"370","address1":"Rajborasambar","address2":"","latitude":"20.9091","longitude":"83.0619","accuracy":"4"},{"address3":"Lakhamara","state":"Odisha","state_code":"21","district":"Bargarh","district_code":"370","address1":"Rajborasambar","address2":"","latitude":"21.0059","longitude":"83.0422","accuracy":"3"}],"768037":[{"address3":"Kathaumal","state":"Odisha","state_code":"21","district":"Bargarh","district_code":"370","address1":"Gaisilet","address2":"","latitude":"20.9173","longitude":"83.3238","accuracy":"4"},{"address3":"Jamutbahal","state":"Odisha","state_code":"21","district":"Bargarh","district_code":"370","address1":"Gaisilet","address2":"","latitude":"20.903","longitude":"83.3996","accuracy":"4"},{"address3":"Gourenmunda","state":"Odisha","state_code":"21","district":"Bargarh","district_code":"370","address1":"Melchhamunda","address2":"","latitude":"20.9083","longitude":"83.4525","accuracy":"3"},{"address3":"Jagalpat","state":"Odisha","state_code":"21","district":"Bargarh","district_code":"370","address1":"Gaisilet","address2":"","latitude":"20.8933","longitude":"83.3516","accuracy":"4"},{"address3":"Saradhapali","state":"Odisha","state_code":"21","district":"Bargarh","district_code":"370","address1":"Barapali","address2":"","latitude":"21.2202","longitude":"83.3534","accuracy":"4"},{"address3":"Dangabahal","state":"Odisha","state_code":"21","district":"Bargarh","district_code":"370","address1":"Gaisilet","address2":"","latitude":"20.9083","longitude":"83.4525","accuracy":"3"},{"address3":"Gaisilet","state":"Odisha","state_code":"21","district":"Bargarh","district_code":"370","address1":"Gaisilet","address2":"","latitude":"20.9611","longitude":"83.3131","accuracy":"4"},{"address3":"Jamutpali","state":"Odisha","state_code":"21","district":"Bargarh","district_code":"370","address1":"Gaisilet","address2":"","latitude":"21.0911","longitude":"83.3216","accuracy":"4"}],"768038":[{"address3":"Beherapali","state":"Odisha","state_code":"21","district":"Bargarh","district_code":"370","address1":"Bhatli","address2":"","latitude":"21.3424","longitude":"83.4082","accuracy":"4"},{"address3":"Urduna","state":"Odisha","state_code":"21","district":"Bargarh","district_code":"370","address1":"Bhatli","address2":"","latitude":"21.3833","longitude":"83.584","accuracy":"3"},{"address3":"Banda","state":"Odisha","state_code":"21","district":"Bargarh","district_code":"370","address1":"Bhatli","address2":"","latitude":"21.4152","longitude":"83.6857","accuracy":"4"},{"address3":"Bardol (Bargarh)","state":"Odisha","state_code":"21","district":"Bargarh","district_code":"370","address1":"Bargarh","address2":"","latitude":"21.3819","longitude":"83.5939","accuracy":"4"},{"address3":"Banda-kharmunda","state":"Odisha","state_code":"21","district":"Bargarh","district_code":"370","address1":"Bargarh","address2":"","latitude":"21.3833","longitude":"83.584","accuracy":"3"},{"address3":"Kamgaon","state":"Odisha","state_code":"21","district":"Bargarh","district_code":"370","address1":"Bhatli","address2":"","latitude":"21.4407","longitude":"83.6333","accuracy":"4"},{"address3":"B. Katapali","state":"Odisha","state_code":"21","district":"Bargarh","district_code":"370","address1":"Bijepur","address2":"","latitude":"21.3833","longitude":"83.584","accuracy":"3"},{"address3":"Halupali","state":"Odisha","state_code":"21","district":"Bargarh","district_code":"370","address1":"Bhatli","address2":"","latitude":"21.3905","longitude":"83.5095","accuracy":"4"},{"address3":"Bhadigaon","state":"Odisha","state_code":"21","district":"Bargarh","district_code":"370","address1":"Bhatli","address2":"","latitude":"21.3833","longitude":"83.584","accuracy":"3"},{"address3":"Dang","state":"Odisha","state_code":"21","district":"Bargarh","district_code":"370","address1":"Bargarh","address2":"","latitude":"21.359","longitude":"83.5992","accuracy":"4"},{"address3":"N. Jampali","state":"Odisha","state_code":"21","district":"Bargarh","district_code":"370","address1":"Melchhamunda","address2":"","latitude":"21.3833","longitude":"83.584","accuracy":"3"},{"address3":"Deogaon","state":"Odisha","state_code":"21","district":"Bargarh","district_code":"370","address1":"Bargarh","address2":"","latitude":"21.3636","longitude":"83.5779","accuracy":"4"},{"address3":"Gudesira","state":"Odisha","state_code":"21","district":"Bargarh","district_code":"370","address1":"Bargarh","address2":"","latitude":"21.3833","longitude":"83.584","accuracy":"3"},{"address3":"Jamurda","state":"Odisha","state_code":"21","district":"Bargarh","district_code":"370","address1":"Bargarh","address2":"","latitude":"21.3728","longitude":"83.6641","accuracy":"4"},{"address3":"Bargarh-bargaon","state":"Odisha","state_code":"21","district":"Bargarh","district_code":"370","address1":"Bargarh","address2":"","latitude":"21.3833","longitude":"83.584","accuracy":"3"}],"768039":[{"address3":"Mondiadhipa","state":"Odisha","state_code":"21","district":"Bargarh","district_code":"370","address1":"Paikmal","address2":"","latitude":"21.0833","longitude":"83.034","accuracy":"3"},{"address3":"Temri","state":"Odisha","state_code":"21","district":"Bargarh","district_code":"370","address1":"Paikmal","address2":"","latitude":"21.0099","longitude":"82.8959","accuracy":"4"},{"address3":"Paikmal","state":"Odisha","state_code":"21","district":"Bargarh","district_code":"370","address1":"Paikmal","address2":"","latitude":"20.9254","longitude":"82.8123","accuracy":"4"},{"address3":"Bartunda","state":"Odisha","state_code":"21","district":"Bargarh","district_code":"370","address1":"Paikamal","address2":"","latitude":"21.4094","longitude":"83.4749","accuracy":"4"},{"address3":"Mithapali","state":"Odisha","state_code":"21","district":"Bargarh","district_code":"370","address1":"Paikamal","address2":"","latitude":"21.0833","longitude":"83.034","accuracy":"3"},{"address3":"Palsada","state":"Odisha","state_code":"21","district":"Bargarh","district_code":"370","address1":"Paikmal","address2":"","latitude":"20.9886","longitude":"82.9529","accuracy":"4"},{"address3":"Bhubaneswarpur","state":"Odisha","state_code":"21","district":"Bargarh","district_code":"370","address1":"Paikmal","address2":"","latitude":"21.0833","longitude":"83.034","accuracy":"3"},{"address3":"Bhengrajpur","state":"Odisha","state_code":"21","district":"Bargarh","district_code":"370","address1":"Paikmal","address2":"","latitude":"21.0833","longitude":"83.034","accuracy":"3"}],"768040":[{"address3":"Khuntapali","state":"Odisha","state_code":"21","district":"Bargarh","district_code":"370","address1":"Bargarh","address2":"","latitude":"21.3192","longitude":"83.6609","accuracy":"3"},{"address3":"Barhaguda","state":"Odisha","state_code":"21","district":"Bargarh","district_code":"370","address1":"Bargarh Sadar","address2":"","latitude":"21.3543","longitude":"83.6769","accuracy":"4"},{"address3":"Kalapani","state":"Odisha","state_code":"21","district":"Bargarh","district_code":"370","address1":"Bargarh Sadar","address2":"","latitude":"21.369","longitude":"83.699","accuracy":"4"},{"address3":"Sarsara","state":"Odisha","state_code":"21","district":"Bargarh","district_code":"370","address1":"Bargarh","address2":"","latitude":"21.2995","longitude":"83.6102","accuracy":"4"},{"address3":"Khandatha","state":"Odisha","state_code":"21","district":"Bargarh","district_code":"370","address1":"Bargarh Sadar","address2":"","latitude":"21.3192","longitude":"83.6609","accuracy":"3"},{"address3":"Gaisama","state":"Odisha","state_code":"21","district":"Bargarh","district_code":"370","address1":"Bargarh Sadar","address2":"","latitude":"21.2654","longitude":"83.6648","accuracy":"4"},{"address3":"Tora","state":"Odisha","state_code":"21","district":"Bargarh","district_code":"370","address1":"Bargarh","address2":"","latitude":"21.3262","longitude":"83.6708","accuracy":"4"},{"address3":"Adagaon","state":"Odisha","state_code":"21","district":"Bargarh","district_code":"370","address1":"Bargarh","address2":"","latitude":"21.3192","longitude":"83.6609","accuracy":"3"},{"address3":"Dhanger","state":"Odisha","state_code":"21","district":"Bargarh","district_code":"370","address1":"Bargarh","address2":"","latitude":"21.3009","longitude":"83.6435","accuracy":"4"}],"768042":[{"address3":"Bhainsadhara","state":"Odisha","state_code":"21","district":"Bargarh","district_code":"370","address1":"Jharbandh","address2":"","latitude":"21.0771","longitude":"82.7624","accuracy":"3"},{"address3":"Ammthi","state":"Odisha","state_code":"21","district":"Bargarh","district_code":"370","address1":"Jharbandh","address2":"","latitude":"21.0771","longitude":"82.7624","accuracy":"3"},{"address3":"Bilaspur","state":"Odisha","state_code":"21","district":"Bargarh","district_code":"370","address1":"Jharbandh","address2":"","latitude":"21.0243","longitude":"82.7096","accuracy":"4"},{"address3":"Bijadhol","state":"Odisha","state_code":"21","district":"Bargarh","district_code":"370","address1":"Jharbandh","address2":"","latitude":"21.0704","longitude":"82.7635","accuracy":"4"},{"address3":"Shakti","state":"Odisha","state_code":"21","district":"Bargarh","district_code":"370","address1":"Jharbandh","address2":"","latitude":"21.0771","longitude":"82.7624","accuracy":"3"},{"address3":"Dhaba","state":"Odisha","state_code":"21","district":"Bargarh","district_code":"370","address1":"Jharbandh","address2":"","latitude":"21.0771","longitude":"82.7624","accuracy":"3"},{"address3":"Bhandarpuri","state":"Odisha","state_code":"21","district":"Bargarh","district_code":"370","address1":"Jharbandh","address2":"","latitude":"21.1285","longitude":"82.722","accuracy":"4"},{"address3":"Jharbandh","state":"Odisha","state_code":"21","district":"Bargarh","district_code":"370","address1":"Rajborasamber","address2":"","latitude":"21.0591","longitude":"82.793","accuracy":"4"},{"address3":"Gourmal","state":"Odisha","state_code":"21","district":"Bargarh","district_code":"370","address1":"Jharbandh","address2":"","latitude":"21.0771","longitude":"82.7624","accuracy":"3"},{"address3":"Laudidhara","state":"Odisha","state_code":"21","district":"Bargarh","district_code":"370","address1":"Jharbandh","address2":"","latitude":"21.0771","longitude":"82.7624","accuracy":"3"},{"address3":"Chandibhata","state":"Odisha","state_code":"21","district":"Bargarh","district_code":"370","address1":"Jharbandh","address2":"","latitude":"21.1033","longitude":"82.8239","accuracy":"4"},{"address3":"Guthuguda","state":"Odisha","state_code":"21","district":"Bargarh","district_code":"370","address1":"Jharbandh","address2":"","latitude":"21.0771","longitude":"82.7624","accuracy":"3"}],"768045":[{"address3":"Bara","state":"Odisha","state_code":"21","district":"Bargarh","district_code":"370","address1":"Ambabhana","address2":"","latitude":"21.5793","longitude":"83.3876","accuracy":"4"},{"address3":"Ruchida","state":"Odisha","state_code":"21","district":"Bargarh","district_code":"370","address1":"Ambabhana","address2":"","latitude":"21.6093","longitude":"83.3958","accuracy":"4"},{"address3":"Kapasira","state":"Odisha","state_code":"21","district":"Bargarh","district_code":"370","address1":"Ambabhana","address2":"","latitude":"21.2202","longitude":"83.3534","accuracy":"4"},{"address3":"Kumbho","state":"Odisha","state_code":"21","district":"Bargarh","district_code":"370","address1":"Ambabhana","address2":"","latitude":"21.505","longitude":"83.3736","accuracy":"4"},{"address3":"Bhainatora","state":"Odisha","state_code":"21","district":"Bargarh","district_code":"370","address1":"Ambabhana","address2":"","latitude":"21.6354","longitude":"83.4457","accuracy":"4"},{"address3":"Bhukta","state":"Odisha","state_code":"21","district":"Bargarh","district_code":"370","address1":"Ambabhana","address2":"","latitude":"21.5888","longitude":"83.4278","accuracy":"4"},{"address3":"Kandalapala","state":"Odisha","state_code":"21","district":"Sambalpur","district_code":"372","address1":"NA","address2":"","latitude":"21.5893","longitude":"83.4154","accuracy":"3"}],"768048":[{"address3":"Majhipali","state":"Odisha","state_code":"21","district":"Bargarh","district_code":"370","address1":"Bijepur","address2":"","latitude":"21.1291","longitude":"83.3374","accuracy":"4"},{"address3":"Laumunda","state":"Odisha","state_code":"21","district":"Bargarh","district_code":"370","address1":"Bijepur","address2":"","latitude":"21.0826","longitude":"83.3899","accuracy":"4"},{"address3":"Jokhipali","state":"Odisha","state_code":"21","district":"Bargarh","district_code":"370","address1":"Bijepur","address2":"","latitude":"21.122","longitude":"83.3726","accuracy":"4"}],"768049":[{"address3":"Ganiapali","state":"Odisha","state_code":"21","district":"Bargarh","district_code":"370","address1":"Rajborasamber","address2":"","latitude":"21.0065","longitude":"83.2433","accuracy":"4"},{"address3":"Jamla","state":"Odisha","state_code":"21","district":"Bargarh","district_code":"370","address1":"Rajborasamber","address2":"","latitude":"21.0318","longitude":"83.213","accuracy":"3"},{"address3":"Sargibahal","state":"Odisha","state_code":"21","district":"Bargarh","district_code":"370","address1":"Rajborasamber","address2":"","latitude":"21.0572","longitude":"83.1827","accuracy":"4"},{"address3":"Phalsapali","state":"Odisha","state_code":"21","district":"Bargarh","district_code":"370","address1":"Rajborasamber","address2":"","latitude":"21.0318","longitude":"83.213","accuracy":"3"}],"768050":[{"address3":"Mandosil","state":"Odisha","state_code":"21","district":"Bargarh","district_code":"370","address1":"Paikmal","address2":"","latitude":"21.6758","longitude":"83.5792","accuracy":"1"},{"address3":"Jhitiki","state":"Odisha","state_code":"21","district":"Bargarh","district_code":"370","address1":"Paikmal","address2":"","latitude":"21.6758","longitude":"83.5792","accuracy":"1"},{"address3":"Chendeikela","state":"Odisha","state_code":"21","district":"Bargarh","district_code":"370","address1":"Paikmal","address2":"","latitude":"21.6758","longitude":"83.5792","accuracy":"1"},{"address3":"Jamseth","state":"Odisha","state_code":"21","district":"Bargarh","district_code":"370","address1":"Paikmal","address2":"","latitude":"21.6758","longitude":"83.5792","accuracy":"1"}],"768052":[{"address3":"Banjipali","state":"Odisha","state_code":"21","district":"Bargarh","district_code":"370","address1":"Ambabhana","address2":"","latitude":"21.628","longitude":"83.4973","accuracy":"4"},{"address3":"Tamdei","state":"Odisha","state_code":"21","district":"Bargarh","district_code":"370","address1":"Ambabhana","address2":"","latitude":"21.7195","longitude":"83.5877","accuracy":"4"},{"address3":"Dunguri Lsq Colony Campus","state":"Odisha","state_code":"21","district":"Bargarh","district_code":"370","address1":"Ambabhona","address2":"","latitude":"21.6758","longitude":"83.5792","accuracy":"3"},{"address3":"Dungri","state":"Odisha","state_code":"21","district":"Bargarh","district_code":"370","address1":"Ambabhana","address2":"","latitude":"21.7003","longitude":"83.5622","accuracy":"4"},{"address3":"Karlasantara","state":"Odisha","state_code":"21","district":"Bargarh","district_code":"370","address1":"Ambabhana","address2":"","latitude":"21.6758","longitude":"83.5792","accuracy":"3"},{"address3":"Uttam","state":"Odisha","state_code":"21","district":"Bargarh","district_code":"370","address1":"Ambabhana","address2":"","latitude":"21.6903","longitude":"83.6375","accuracy":"4"},{"address3":"Lakhanpur","state":"Odisha","state_code":"21","district":"Bargarh","district_code":"370","address1":"Ambabhona","address2":"","latitude":"21.641","longitude":"83.6112","accuracy":"4"}],"768102":[{"address3":"Deshbhatli","state":"Odisha","state_code":"21","district":"Bargarh","district_code":"370","address1":"Bheden","address2":"","latitude":"21.3256","longitude":"83.8347","accuracy":"3"},{"address3":"Tampersara","state":"Odisha","state_code":"21","district":"Bargarh","district_code":"370","address1":"Attabira","address2":"","latitude":"21.3256","longitude":"83.8347","accuracy":"3"},{"address3":"Larambha","state":"Odisha","state_code":"21","district":"Bargarh","district_code":"370","address1":"Attabira","address2":"","latitude":"21.3423","longitude":"83.8271","accuracy":"4"},{"address3":"Kultatukura","state":"Odisha","state_code":"21","district":"Bargarh","district_code":"370","address1":"Attabira","address2":"","latitude":"21.3256","longitude":"83.8347","accuracy":"3"},{"address3":"Kadobahal","state":"Odisha","state_code":"21","district":"Bargarh","district_code":"370","address1":"Attabira","address2":"","latitude":"21.309","longitude":"83.8424","accuracy":"4"}],"768103":[{"address3":"Kuruan","state":"Odisha","state_code":"21","district":"Bargarh","district_code":"370","address1":"Bheden","address2":"","latitude":"21.2935","longitude":"83.7374","accuracy":"4"},{"address3":"Bhoipali","state":"Odisha","state_code":"21","district":"Bargarh","district_code":"370","address1":"Bheden","address2":"","latitude":"21.2623","longitude":"83.7795","accuracy":"4"},{"address3":"Remunda","state":"Odisha","state_code":"21","district":"Bargarh","district_code":"370","address1":"Bheden","address2":"","latitude":"21.2664","longitude":"83.7612","accuracy":"4"},{"address3":"Bakti","state":"Odisha","state_code":"21","district":"Bargarh","district_code":"370","address1":"Bheden","address2":"","latitude":"21.2182","longitude":"83.7658","accuracy":"4"},{"address3":"Talmenda","state":"Odisha","state_code":"21","district":"Bargarh","district_code":"370","address1":"Bheden","address2":"","latitude":"21.2425","longitude":"83.7403","accuracy":"4"},{"address3":"Jhilminda","state":"Odisha","state_code":"21","district":"Bargarh","district_code":"370","address1":"Bheden","address2":"","latitude":"21.3037","longitude":"83.8164","accuracy":"4"},{"address3":"Dekulba","state":"Odisha","state_code":"21","district":"Bargarh","district_code":"370","address1":"Bheden","address2":"","latitude":"21.2604","longitude":"83.7303","accuracy":"4"},{"address3":"Arjunda","state":"Odisha","state_code":"21","district":"Bargarh","district_code":"370","address1":"Bheden","address2":"","latitude":"21.2387","longitude":"83.8288","accuracy":"4"},{"address3":"Jharpali","state":"Odisha","state_code":"21","district":"Bargarh","district_code":"370","address1":"Bheden","address2":"","latitude":"21.5731","longitude":"83.445","accuracy":"4"},{"address3":"Talsirgida","state":"Odisha","state_code":"21","district":"Bargarh","district_code":"370","address1":"Bheden","address2":"","latitude":"21.2858","longitude":"83.742","accuracy":"3"},{"address3":"Burda","state":"Odisha","state_code":"21","district":"Bargarh","district_code":"370","address1":"Bheden","address2":"","latitude":"21.2435","longitude":"83.76","accuracy":"4"},{"address3":"Lupursingha","state":"Odisha","state_code":"21","district":"Bargarh","district_code":"370","address1":"Bheden","address2":"","latitude":"21.2419","longitude":"83.7973","accuracy":"4"},{"address3":"Sankhirda","state":"Odisha","state_code":"21","district":"Bargarh","district_code":"370","address1":"Bheden","address2":"","latitude":"21.2858","longitude":"83.742","accuracy":"3"}],"768104":[{"address3":"Sunalarambha","state":"Odisha","state_code":"21","district":"Bargarh","district_code":"370","address1":"Bheden","address2":"","latitude":"21.166","longitude":"83.7782","accuracy":"4"},{"address3":"Kubedega","state":"Odisha","state_code":"21","district":"Bargarh","district_code":"370","address1":"Bheden","address2":"","latitude":"21.2157","longitude":"83.7303","accuracy":"4"},{"address3":"Resam","state":"Odisha","state_code":"21","district":"Bargarh","district_code":"370","address1":"Bheden","address2":"","latitude":"21.1362","longitude":"83.6846","accuracy":"4"},{"address3":"Manpur","state":"Odisha","state_code":"21","district":"Bargarh","district_code":"370","address1":"Bheden","address2":"","latitude":"21.2096","longitude":"83.8691","accuracy":"4"},{"address3":"Chichinda","state":"Odisha","state_code":"21","district":"Bargarh","district_code":"370","address1":"Bheden","address2":"","latitude":"21.2087","longitude":"83.7915","accuracy":"4"},{"address3":"Barapadar","state":"Odisha","state_code":"21","district":"Bargarh","district_code":"370","address1":"Bheden","address2":"","latitude":"21.2202","longitude":"83.3534","accuracy":"4"},{"address3":"Baramkela","state":"Odisha","state_code":"21","district":"Bargarh","district_code":"370","address1":"Bheden","address2":"","latitude":"21.2346","longitude":"83.6911","accuracy":"4"},{"address3":"Areigudi","state":"Odisha","state_code":"21","district":"Bargarh","district_code":"370","address1":"Bheden","address2":"","latitude":"21.1834","longitude":"83.8613","accuracy":"3"},{"address3":"Kudapali","state":"Odisha","state_code":"21","district":"Bargarh","district_code":"370","address1":"Bheden","address2":"","latitude":"21.2202","longitude":"83.3534","accuracy":"4"},{"address3":"Bheden","state":"Odisha","state_code":"21","district":"Bargarh","district_code":"370","address1":"Bargarh","address2":"","latitude":"21.1834","longitude":"83.8613","accuracy":"3"},{"address3":"Papanga","state":"Odisha","state_code":"21","district":"Bargarh","district_code":"370","address1":"Bheden","address2":"","latitude":"21.1985","longitude":"83.8192","accuracy":"4"},{"address3":"Ainlapali","state":"Odisha","state_code":"21","district":"Sambalpur","district_code":"372","address1":"Dhama","address2":"","latitude":"21.2559","longitude":"83.9325","accuracy":"4"}],"768105":[{"address3":"Jujumura","state":"Odisha","state_code":"21","district":"Sambalpur","district_code":"372","address1":"Jujumura","address2":"","latitude":"21.2305","longitude":"84.1302","accuracy":"4"},{"address3":"Chhamunda","state":"Odisha","state_code":"21","district":"Sambalpur","district_code":"372","address1":"Jujumura","address2":"","latitude":"21.3219","longitude":"84.1751","accuracy":"4"},{"address3":"Mochibahal","state":"Odisha","state_code":"21","district":"Sambalpur","district_code":"372","address1":"Jujumura","address2":"","latitude":"21.1641","longitude":"84.1592","accuracy":"4"},{"address3":"Birsinghgarh","state":"Odisha","state_code":"21","district":"Sambalpur","district_code":"372","address1":"Jujumura","address2":"","latitude":"21.2332","longitude":"84.1382","accuracy":"3"},{"address3":"Lipinda","state":"Odisha","state_code":"21","district":"Sambalpur","district_code":"372","address1":"Jujumura","address2":"","latitude":"21.2079","longitude":"84.1232","accuracy":"4"},{"address3":"Bansajal","state":"Odisha","state_code":"21","district":"Sambalpur","district_code":"372","address1":"Rairakhol","address2":"","latitude":"21.0755","longitude":"84.2216","accuracy":"4"},{"address3":"Hatibari","state":"Odisha","state_code":"21","district":"Sambalpur","district_code":"372","address1":"Jujumura","address2":"","latitude":"21.3319","longitude":"84.0981","accuracy":"4"},{"address3":"Godloisingh","state":"Odisha","state_code":"21","district":"Sambalpur","district_code":"372","address1":"Jujumura","address2":"","latitude":"21.2332","longitude":"84.1382","accuracy":"3"},{"address3":"Basiapara","state":"Odisha","state_code":"21","district":"Sambalpur","district_code":"372","address1":"Jujumura","address2":"","latitude":"21.3005","longitude":"84.06","accuracy":"4"},{"address3":"J.Rengali","state":"Odisha","state_code":"21","district":"Sambalpur","district_code":"372","address1":"Jujomura","address2":"","latitude":"21.2332","longitude":"84.1382","accuracy":"3"},{"address3":"Keshapali","state":"Odisha","state_code":"21","district":"Sambalpur","district_code":"372","address1":"Jujumura","address2":"","latitude":"21.2332","longitude":"84.1382","accuracy":"3"},{"address3":"R.Badmal","state":"Odisha","state_code":"21","district":"Sambalpur","district_code":"372","address1":"Jujumura","address2":"","latitude":"21.2332","longitude":"84.1382","accuracy":"3"},{"address3":"Gadgadbahal","state":"Odisha","state_code":"21","district":"Sambalpur","district_code":"372","address1":"Jujumura","address2":"","latitude":"21.2332","longitude":"84.1382","accuracy":"3"}],"768106":[{"address3":"Luhapank","state":"Odisha","state_code":"21","district":"Sambalpur","district_code":"372","address1":"Rairakhol","address2":"","latitude":"21.0758","longitude":"84.4081","accuracy":"4"},{"address3":"Girischandrapur","state":"Odisha","state_code":"21","district":"Sambalpur","district_code":"372","address1":"Naktideul","address2":"","latitude":"21.1823","longitude":"84.4189","accuracy":"3"},{"address3":"Similipal","state":"Odisha","state_code":"21","district":"Sambalpur","district_code":"372","address1":"Naktideul","address2":"","latitude":"21.4519","longitude":"84.2809","accuracy":"4"},{"address3":"Ghosaramal","state":"Odisha","state_code":"21","district":"Sambalpur","district_code":"372","address1":"Naktideul","address2":"","latitude":"21.1823","longitude":"84.4189","accuracy":"3"},{"address3":"Charmal","state":"Odisha","state_code":"21","district":"Sambalpur","district_code":"372","address1":"Rairakhol","address2":"","latitude":"21.1123","longitude":"84.2117","accuracy":"4"},{"address3":"Jamujori","state":"Odisha","state_code":"21","district":"Sambalpur","district_code":"372","address1":"Naktideul","address2":"","latitude":"21.1823","longitude":"84.4189","accuracy":"3"},{"address3":"Kadaligarh","state":"Odisha","state_code":"21","district":"Sambalpur","district_code":"372","address1":"Rairakhol","address2":"","latitude":"20.9523","longitude":"84.3087","accuracy":"4"},{"address3":"Kelloballam","state":"Odisha","state_code":"21","district":"Sambalpur","district_code":"372","address1":"Kisinda","address2":"","latitude":"21.1823","longitude":"84.4189","accuracy":"3"},{"address3":"Tribanpur","state":"Odisha","state_code":"21","district":"Sambalpur","district_code":"372","address1":"Rairakhol","address2":"","latitude":"20.9824","longitude":"84.2398","accuracy":"4"},{"address3":"R.Badbahal","state":"Odisha","state_code":"21","district":"Sambalpur","district_code":"372","address1":"Rairakhol","address2":"","latitude":"21.1823","longitude":"84.4189","accuracy":"3"},{"address3":"Rairakhol","state":"Odisha","state_code":"21","district":"Sambalpur","district_code":"372","address1":"Rairakhol","address2":"","latitude":"21.0735","longitude":"84.3409","accuracy":"4"},{"address3":"Daincha","state":"Odisha","state_code":"21","district":"Sambalpur","district_code":"372","address1":"Naktideul","address2":"","latitude":"21.1823","longitude":"84.4189","accuracy":"3"},{"address3":"Sarapali","state":"Odisha","state_code":"21","district":"Sambalpur","district_code":"372","address1":"Naktideul","address2":"","latitude":"21.2694","longitude":"84.5363","accuracy":"4"},{"address3":"Batgaon","state":"Odisha","state_code":"21","district":"Sambalpur","district_code":"372","address1":"Naktideul","address2":"","latitude":"21.2403","longitude":"84.6548","accuracy":"4"},{"address3":"Kisinda","state":"Odisha","state_code":"21","district":"Sambalpur","district_code":"372","address1":"Naktideul","address2":"","latitude":"21.3331","longitude":"84.351","accuracy":"4"}],"768107":[{"address3":"Chinimahul","state":"Odisha","state_code":"21","district":"Sambalpur","district_code":"372","address1":"Jamankira","address2":"","latitude":"21.5368","longitude":"84.3429","accuracy":"4"},{"address3":"Jamankira","state":"Odisha","state_code":"21","district":"Sambalpur","district_code":"372","address1":"Jamankira","address2":"","latitude":"21.5531","longitude":"84.3544","accuracy":"3"},{"address3":"Gundurchuan","state":"Odisha","state_code":"21","district":"Sambalpur","district_code":"372","address1":"Jamankira","address2":"","latitude":"21.5531","longitude":"84.3544","accuracy":"3"},{"address3":"Katarkela","state":"Odisha","state_code":"21","district":"Sambalpur","district_code":"372","address1":"Kochinda","address2":"","latitude":"21.6276","longitude":"84.3168","accuracy":"4"},{"address3":"Tikiba","state":"Odisha","state_code":"21","district":"Sambalpur","district_code":"372","address1":"Jamankira","address2":"","latitude":"21.5621","longitude":"84.3301","accuracy":"4"},{"address3":"Dimirikuda","state":"Odisha","state_code":"21","district":"Sambalpur","district_code":"372","address1":"Jamankira","address2":"","latitude":"21.2736","longitude":"84.2948","accuracy":"4"},{"address3":"Tikilipada","state":"Odisha","state_code":"21","district":"Sambalpur","district_code":"372","address1":"Jamankira","address2":"","latitude":"21.5531","longitude":"84.3544","accuracy":"3"},{"address3":"Mahalingkudar","state":"Odisha","state_code":"21","district":"Sambalpur","district_code":"372","address1":"Jamankira","address2":"","latitude":"21.5891","longitude":"84.3189","accuracy":"4"},{"address3":"Bhojpur","state":"Odisha","state_code":"21","district":"Sambalpur","district_code":"372","address1":"Jamankira","address2":"","latitude":"21.6512","longitude":"84.4064","accuracy":"4"},{"address3":"Barhamundi","state":"Odisha","state_code":"21","district":"Sambalpur","district_code":"372","address1":"Jamankira","address2":"","latitude":"21.5681","longitude":"84.4687","accuracy":"4"},{"address3":"Sarda","state":"Odisha","state_code":"21","district":"Sambalpur","district_code":"372","address1":"Jamankira","address2":"","latitude":"21.5531","longitude":"84.3544","accuracy":"3"},{"address3":"Jamumal","state":"Odisha","state_code":"21","district":"Sambalpur","district_code":"372","address1":"Jamankira","address2":"","latitude":"21.6161","longitude":"84.3562","accuracy":"4"},{"address3":"Shirod","state":"Odisha","state_code":"21","district":"Sambalpur","district_code":"372","address1":"Jamankira","address2":"","latitude":"21.5531","longitude":"84.3544","accuracy":"3"},{"address3":"Godrapara","state":"Odisha","state_code":"21","district":"Sambalpur","district_code":"372","address1":"Jamankira","address2":"","latitude":"21.5531","longitude":"84.3544","accuracy":"3"},{"address3":"Fasimal","state":"Odisha","state_code":"21","district":"Sambalpur","district_code":"372","address1":"Jamankira","address2":"","latitude":"21.5531","longitude":"84.3544","accuracy":"3"},{"address3":"Chakuliabahal","state":"Odisha","state_code":"21","district":"Sambalpur","district_code":"372","address1":"Jamankira","address2":"","latitude":"21.5531","longitude":"84.3544","accuracy":"3"},{"address3":"Bhatpura","state":"Odisha","state_code":"21","district":"Sambalpur","district_code":"372","address1":"Kochinda","address2":"","latitude":"21.5531","longitude":"84.3544","accuracy":"3"},{"address3":"Bamandagarh","state":"Odisha","state_code":"21","district":"Sambalpur","district_code":"372","address1":"Jamankira","address2":"","latitude":"21.5531","longitude":"84.3544","accuracy":"3"},{"address3":"Badrama","state":"Odisha","state_code":"21","district":"Sambalpur","district_code":"372","address1":"Jamankira","address2":"","latitude":"21.5531","longitude":"84.3544","accuracy":"3"},{"address3":"Katangapani","state":"Odisha","state_code":"21","district":"Debagarh","district_code":"373","address1":"Reamal","address2":"","latitude":"21.5531","longitude":"84.3544","accuracy":"3"}],"768108":[{"address3":"Bhatsingh","state":"Odisha","state_code":"21","district":"Debagarh","district_code":"373","address1":"Barkote","address2":"","latitude":"21.4545","longitude":"84.9405","accuracy":"4"},{"address3":"Kandhal","state":"Odisha","state_code":"21","district":"Debagarh","district_code":"373","address1":"Barkote","address2":"","latitude":"21.4659","longitude":"84.8037","accuracy":"4"},{"address3":"Balam","state":"Odisha","state_code":"21","district":"Debagarh","district_code":"373","address1":"Barkote","address2":"","latitude":"21.5356","longitude":"84.8685","accuracy":"4"},{"address3":"Jhargogua","state":"Odisha","state_code":"21","district":"Debagarh","district_code":"373","address1":"Tileibani","address2":"","latitude":"21.4478","longitude":"84.7904","accuracy":"3"},{"address3":"Basaloi","state":"Odisha","state_code":"21","district":"Debagarh","district_code":"373","address1":"Barkote","address2":"","latitude":"21.5006","longitude":"84.8497","accuracy":"4"},{"address3":"Parposi","state":"Odisha","state_code":"21","district":"Debagarh","district_code":"373","address1":"Tileibani","address2":"","latitude":"21.4478","longitude":"84.7904","accuracy":"3"},{"address3":"Ganganan","state":"Odisha","state_code":"21","district":"Debagarh","district_code":"373","address1":"Tileibani","address2":"","latitude":"21.4533","longitude":"84.851","accuracy":"4"},{"address3":"Deogarh (Debagarh)","state":"Odisha","state_code":"21","district":"Debagarh","district_code":"373","address1":"Deogarh","address2":"","latitude":"21.4478","longitude":"84.7904","accuracy":"3"},{"address3":"Khilei","state":"Odisha","state_code":"21","district":"Debagarh","district_code":"373","address1":"Reamal","address2":"","latitude":"21.4478","longitude":"84.7904","accuracy":"3"},{"address3":"Kantapali","state":"Odisha","state_code":"21","district":"Debagarh","district_code":"373","address1":"Barkote","address2":"","latitude":"21.54","longitude":"84.7245","accuracy":"4"},{"address3":"Nuadihi","state":"Odisha","state_code":"21","district":"Debagarh","district_code":"373","address1":"Reamal","address2":"","latitude":"21.4104","longitude":"84.8048","accuracy":"4"},{"address3":"Laimura","state":"Odisha","state_code":"21","district":"Debagarh","district_code":"373","address1":"Tileibani","address2":"","latitude":"21.6926","longitude":"84.6725","accuracy":"4"},{"address3":"Dantaribahal","state":"Odisha","state_code":"21","district":"Debagarh","district_code":"373","address1":"Debagarh","address2":"","latitude":"21.4478","longitude":"84.7904","accuracy":"3"},{"address3":"Dandasingha","state":"Odisha","state_code":"21","district":"Debagarh","district_code":"373","address1":"Barkote","address2":"","latitude":"21.4478","longitude":"84.7904","accuracy":"3"},{"address3":"Suguda","state":"Odisha","state_code":"21","district":"Debagarh","district_code":"373","address1":"Tileibani","address2":"","latitude":"21.487","longitude":"84.7924","accuracy":"4"}],"768109":[{"address3":"Gambharipali","state":"Odisha","state_code":"21","district":"Debagarh","district_code":"373","address1":"Kundheigola","address2":"","latitude":"21.4659","longitude":"84.8037","accuracy":"4"},{"address3":"Tungamal","state":"Odisha","state_code":"21","district":"Debagarh","district_code":"373","address1":"Reamal","address2":"","latitude":"21.2228","longitude":"84.7357","accuracy":"4"},{"address3":"Dashgharia","state":"Odisha","state_code":"21","district":"Debagarh","district_code":"373","address1":"Reamal","address2":"","latitude":"21.2605","longitude":"84.531","accuracy":"3"},{"address3":"Kantabahal","state":"Odisha","state_code":"21","district":"Debagarh","district_code":"373","address1":"Kundheigola","address2":"","latitude":"21.3351","longitude":"84.8094","accuracy":"4"},{"address3":"Sarpal","state":"Odisha","state_code":"21","district":"Debagarh","district_code":"373","address1":"Kundheigola","address2":"","latitude":"21.2605","longitude":"84.531","accuracy":"3"},{"address3":"Budido","state":"Odisha","state_code":"21","district":"Debagarh","district_code":"373","address1":"Reamal","address2":"","latitude":"21.3753","longitude":"84.6721","accuracy":"4"},{"address3":"Reamal","state":"Odisha","state_code":"21","district":"Debagarh","district_code":"373","address1":"Reamal","address2":"","latitude":"21.2605","longitude":"84.531","accuracy":"3"},{"address3":"Salebhata","state":"Odisha","state_code":"21","district":"Debagarh","district_code":"373","address1":"Reamal","address2":"","latitude":"21.4659","longitude":"84.8037","accuracy":"4"},{"address3":"Kundheigola","state":"Odisha","state_code":"21","district":"Debagarh","district_code":"373","address1":"Reamal","address2":"","latitude":"21.2605","longitude":"84.531","accuracy":"3"},{"address3":"Lulang","state":"Odisha","state_code":"21","district":"Debagarh","district_code":"373","address1":"Reamal","address2":"","latitude":"21.2918","longitude":"84.7507","accuracy":"4"},{"address3":"Karlaga","state":"Odisha","state_code":"21","district":"Debagarh","district_code":"373","address1":"Kundheigola","address2":"","latitude":"21.2605","longitude":"84.531","accuracy":"3"},{"address3":"Utunia","state":"Odisha","state_code":"21","district":"Debagarh","district_code":"373","address1":"Reamal","address2":"","latitude":"21.2772","longitude":"84.8491","accuracy":"4"},{"address3":"Malehipada","state":"Odisha","state_code":"21","district":"Debagarh","district_code":"373","address1":"Reamal","address2":"","latitude":"21.2605","longitude":"84.531","accuracy":"3"},{"address3":"Naulipara","state":"Odisha","state_code":"21","district":"Debagarh","district_code":"373","address1":"Reamal","address2":"","latitude":"21.3583","longitude":"84.6809","accuracy":"4"},{"address3":"Aunli","state":"Odisha","state_code":"21","district":"Debagarh","district_code":"373","address1":"Reamal","address2":"","latitude":"21.2605","longitude":"84.531","accuracy":"3"},{"address3":"Tarang","state":"Odisha","state_code":"21","district":"Debagarh","district_code":"373","address1":"Reamal","address2":"","latitude":"21.2912","longitude":"84.6212","accuracy":"4"},{"address3":"Palsama","state":"Odisha","state_code":"21","district":"Debagarh","district_code":"373","address1":"Reamal","address2":"","latitude":"21.2858","longitude":"84.885","accuracy":"4"},{"address3":"Tinkbir","state":"Odisha","state_code":"21","district":"Debagarh","district_code":"373","address1":"Reamal","address2":"","latitude":"21.3787","longitude":"84.7046","accuracy":"4"},{"address3":"Tuhilamal","state":"Odisha","state_code":"21","district":"Debagarh","district_code":"373","address1":"Reamal","address2":"","latitude":"21.2982","longitude":"84.5944","accuracy":"4"}],"768110":[{"address3":"Saruali","state":"Odisha","state_code":"21","district":"Debagarh","district_code":"373","address1":"Barkote","address2":"","latitude":"21.4659","longitude":"84.8037","accuracy":"4"},{"address3":"Saida","state":"Odisha","state_code":"21","district":"Debagarh","district_code":"373","address1":"Barkot","address2":"","latitude":"21.4659","longitude":"84.8037","accuracy":"4"},{"address3":"Balani","state":"Odisha","state_code":"21","district":"Debagarh","district_code":"373","address1":"Barkote","address2":"","latitude":"21.4757","longitude":"85.0105","accuracy":"3"},{"address3":"Charimancha","state":"Odisha","state_code":"21","district":"Debagarh","district_code":"373","address1":"Barkote","address2":"","latitude":"21.4757","longitude":"85.0105","accuracy":"3"},{"address3":"Kalla","state":"Odisha","state_code":"21","district":"Debagarh","district_code":"373","address1":"Barkote","address2":"","latitude":"21.4757","longitude":"85.0105","accuracy":"3"},{"address3":"Kadopada","state":"Odisha","state_code":"21","district":"Debagarh","district_code":"373","address1":"Barkote","address2":"","latitude":"21.4757","longitude":"85.0105","accuracy":"3"},{"address3":"Gursang","state":"Odisha","state_code":"21","district":"Debagarh","district_code":"373","address1":"Barkote","address2":"","latitude":"21.4757","longitude":"85.0105","accuracy":"3"},{"address3":"Danra","state":"Odisha","state_code":"21","district":"Debagarh","district_code":"373","address1":"Barkote","address2":"","latitude":"21.4757","longitude":"85.0105","accuracy":"3"},{"address3":"Ambagaon","state":"Odisha","state_code":"21","district":"Debagarh","district_code":"373","address1":"Barkote","address2":"","latitude":"21.4757","longitude":"85.0105","accuracy":"3"},{"address3":"Barkote","state":"Odisha","state_code":"21","district":"Debagarh","district_code":"373","address1":"Barkote","address2":"","latitude":"21.4757","longitude":"85.0105","accuracy":"3"},{"address3":"Balanda","state":"Odisha","state_code":"21","district":"Debagarh","district_code":"373","address1":"Barkote","address2":"","latitude":"21.5004","longitude":"84.7461","accuracy":"4"},{"address3":"Bamparda","state":"Odisha","state_code":"21","district":"Debagarh","district_code":"373","address1":"Barkote","address2":"","latitude":"21.4782","longitude":"85.0786","accuracy":"4"},{"address3":"Madhyapur","state":"Odisha","state_code":"21","district":"Debagarh","district_code":"373","address1":"Barkote","address2":"","latitude":"21.4666","longitude":"84.6344","accuracy":"4"}],"768111":[{"address3":"Silet","state":"Odisha","state_code":"21","district":"Bargarh","district_code":"370","address1":"Attabira","address2":"","latitude":"21.4078","longitude":"83.8529","accuracy":"3"},{"address3":"Godbhaga","state":"Odisha","state_code":"21","district":"Bargarh","district_code":"370","address1":"Attabira","address2":"","latitude":"21.2202","longitude":"83.3534","accuracy":"4"},{"address3":"Kumelsingha","state":"Odisha","state_code":"21","district":"Bargarh","district_code":"370","address1":"Attabira","address2":"","latitude":"21.3829","longitude":"83.8653","accuracy":"4"},{"address3":"Dulampur","state":"Odisha","state_code":"21","district":"Bargarh","district_code":"370","address1":"Attabira","address2":"","latitude":"21.3812","longitude":"83.8385","accuracy":"4"},{"address3":"Lahanda","state":"Odisha","state_code":"21","district":"Bargarh","district_code":"370","address1":"Attabira","address2":"","latitude":"21.4505","longitude":"83.8503","accuracy":"4"}],"768112":[{"address3":"Tampargarh","state":"Odisha","state_code":"21","district":"Sambalpur","district_code":"372","address1":"Jujumura","address2":"","latitude":"21.3961","longitude":"84.2694","accuracy":"4"},{"address3":"N.Barangamal","state":"Odisha","state_code":"21","district":"Sambalpur","district_code":"372","address1":"Jujumura","address2":"","latitude":"21.4501","longitude":"84.1733","accuracy":"3"},{"address3":"Kulundi","state":"Odisha","state_code":"21","district":"Sambalpur","district_code":"372","address1":"Jamankira","address2":"","latitude":"21.4522","longitude":"84.191","accuracy":"4"},{"address3":"Mudhenapali","state":"Odisha","state_code":"21","district":"Sambalpur","district_code":"372","address1":"Jamankira","address2":"","latitude":"21.4501","longitude":"84.1733","accuracy":"3"},{"address3":"Gourpali","state":"Odisha","state_code":"21","district":"Sambalpur","district_code":"372","address1":"Jamankira","address2":"","latitude":"21.4485","longitude":"84.1745","accuracy":"4"},{"address3":"Badasahir","state":"Odisha","state_code":"21","district":"Sambalpur","district_code":"372","address1":"Jujumura","address2":"","latitude":"21.4501","longitude":"84.1733","accuracy":"3"},{"address3":"Kabrapali","state":"Odisha","state_code":"21","district":"Sambalpur","district_code":"372","address1":"Jujumura","address2":"","latitude":"21.4561","longitude":"84.0924","accuracy":"4"},{"address3":"Dangarpara","state":"Odisha","state_code":"21","district":"Sambalpur","district_code":"372","address1":"Jujumura","address2":"","latitude":"21.4501","longitude":"84.1733","accuracy":"3"},{"address3":"Kharsanmal","state":"Odisha","state_code":"21","district":"Sambalpur","district_code":"372","address1":"Jamankira","address2":"","latitude":"21.4774","longitude":"84.1722","accuracy":"4"},{"address3":"Padiabahal","state":"Odisha","state_code":"21","district":"Sambalpur","district_code":"372","address1":"Sadar","address2":"","latitude":"21.4501","longitude":"84.1733","accuracy":"3"},{"address3":"Baham","state":"Odisha","state_code":"21","district":"Sambalpur","district_code":"372","address1":"Jujumura","address2":"","latitude":"21.4701","longitude":"84.1406","accuracy":"4"},{"address3":"Jayantapur","state":"Odisha","state_code":"21","district":"Sambalpur","district_code":"372","address1":"Jujumura","address2":"","latitude":"21.4501","longitude":"84.1733","accuracy":"3"},{"address3":"Nuaburda","state":"Odisha","state_code":"21","district":"Sambalpur","district_code":"372","address1":"NA","address2":"","latitude":"21.4501","longitude":"84.1733","accuracy":"3"}],"768113":[{"address3":"Dhama","state":"Odisha","state_code":"21","district":"Sambalpur","district_code":"372","address1":"Maneswar","address2":"","latitude":"21.2564","longitude":"83.92","accuracy":"4"},{"address3":"Amkuni","state":"Odisha","state_code":"21","district":"Sambalpur","district_code":"372","address1":"Maneswar","address2":"","latitude":"21.2658","longitude":"84.0259","accuracy":"3"},{"address3":"Sahaspur","state":"Odisha","state_code":"21","district":"Sambalpur","district_code":"372","address1":"Dhama","address2":"","latitude":"21.3405","longitude":"83.9614","accuracy":"4"},{"address3":"Salesingha","state":"Odisha","state_code":"21","district":"Sambalpur","district_code":"372","address1":"Dhama","address2":"","latitude":"21.0622","longitude":"84.3382","accuracy":"4"},{"address3":"Dakra","state":"Odisha","state_code":"21","district":"Sambalpur","district_code":"372","address1":"Maneswar","address2":"","latitude":"21.2713","longitude":"83.9872","accuracy":"4"},{"address3":"Baduapali","state":"Odisha","state_code":"21","district":"Sambalpur","district_code":"372","address1":"Maneswar","address2":"","latitude":"21.3485","longitude":"84.0036","accuracy":"4"},{"address3":"Bargaon","state":"Odisha","state_code":"21","district":"Sambalpur","district_code":"372","address1":"Maneswar","address2":"","latitude":"21.3161","longitude":"83.945","accuracy":"4"}],"768115":[{"address3":"Mahule","state":"Odisha","state_code":"21","district":"Bargarh","district_code":"370","address1":"Bheden","address2":"","latitude":"21.399","longitude":"84.3305","accuracy":"1"},{"address3":"Rusuda","state":"Odisha","state_code":"21","district":"Bargarh","district_code":"370","address1":"Bheden","address2":"","latitude":"21.399","longitude":"84.3305","accuracy":"1"},{"address3":"Gondturum","state":"Odisha","state_code":"21","district":"Bargarh","district_code":"370","address1":"Bheden","address2":"","latitude":"21.399","longitude":"84.3305","accuracy":"1"},{"address3":"Sialkhandata","state":"Odisha","state_code":"21","district":"Bargarh","district_code":"370","address1":"Bheden","address2":"","latitude":"21.399","longitude":"84.3305","accuracy":"1"}],"768118":[{"address3":"Naktideul","state":"Odisha","state_code":"21","district":"Sambalpur","district_code":"372","address1":"NA","address2":"","latitude":"21.2545","longitude":"84.5431","accuracy":"4"}],"768119":[{"address3":"Purunagarh","state":"Odisha","state_code":"21","district":"Debagarh","district_code":"373","address1":"Debagarh","address2":"","latitude":"21.533","longitude":"84.7192","accuracy":"4"},{"address3":"Rengalbeda","state":"Odisha","state_code":"21","district":"Debagarh","district_code":"373","address1":"Reamal","address2":"","latitude":"21.4421","longitude":"84.6803","accuracy":"4"},{"address3":"Tileibani","state":"Odisha","state_code":"21","district":"Debagarh","district_code":"373","address1":"Debagarh","address2":"","latitude":"21.4716","longitude":"84.6866","accuracy":"3"},{"address3":"Tabada","state":"Odisha","state_code":"21","district":"Debagarh","district_code":"373","address1":"Reamal","address2":"","latitude":"21.4398","longitude":"84.6602","accuracy":"4"},{"address3":"K.Tainsar","state":"Odisha","state_code":"21","district":"Debagarh","district_code":"373","address1":"Barkot","address2":"","latitude":"21.4716","longitude":"84.6866","accuracy":"3"},{"address3":"Tentelabahal","state":"Odisha","state_code":"21","district":"Debagarh","district_code":"373","address1":"Reamal","address2":"","latitude":"21.4716","longitude":"84.6866","accuracy":"3"}],"768121":[{"address3":"Kansar","state":"Odisha","state_code":"21","district":"Debagarh","district_code":"373","address1":"Debagarh","address2":"","latitude":"21.4408","longitude":"84.5136","accuracy":"4"},{"address3":"Barghat","state":"Odisha","state_code":"21","district":"Debagarh","district_code":"373","address1":"Tileibani","address2":"","latitude":"21.4659","longitude":"84.8037","accuracy":"4"},{"address3":"Dholpara","state":"Odisha","state_code":"21","district":"Debagarh","district_code":"373","address1":"Tileibani","address2":"","latitude":"21.4659","longitude":"84.8037","accuracy":"4"},{"address3":"Gohira Dam Site","state":"Odisha","state_code":"21","district":"Debagarh","district_code":"373","address1":"Debagarh","address2":"","latitude":"21.2827","longitude":"84.3279","accuracy":"3"}],"768200":[{"address3":"Kukudapali","state":"Odisha","state_code":"21","district":"Sambalpur","district_code":"372","address1":"Jujumura","address2":"","latitude":"21.546","longitude":"84.066","accuracy":"3"},{"address3":"Bishalkhinda","state":"Odisha","state_code":"21","district":"Sambalpur","district_code":"372","address1":"Dhankauda","address2":"","latitude":"21.5486","longitude":"84.0826","accuracy":"4"},{"address3":"Sasan Rs","state":"Odisha","state_code":"21","district":"Sambalpur","district_code":"372","address1":"Sambalpur","address2":"","latitude":"21.546","longitude":"84.066","accuracy":"3"},{"address3":"Tamperkela","state":"Odisha","state_code":"21","district":"Sambalpur","district_code":"372","address1":"Rengali","address2":"","latitude":"21.5744","longitude":"84.1633","accuracy":"4"},{"address3":"Sangramal B. Camp","state":"Odisha","state_code":"21","district":"Sambalpur","district_code":"372","address1":"Dhankauda","address2":"","latitude":"21.546","longitude":"84.066","accuracy":"3"},{"address3":"Jamadarpali","state":"Odisha","state_code":"21","district":"Sambalpur","district_code":"372","address1":"Dhankauda","address2":"","latitude":"21.5488","longitude":"83.9766","accuracy":"4"},{"address3":"Tabla","state":"Odisha","state_code":"21","district":"Sambalpur","district_code":"372","address1":"Maneswar","address2":"","latitude":"21.5181","longitude":"84.0666","accuracy":"4"},{"address3":"Parmanpur","state":"Odisha","state_code":"21","district":"Sambalpur","district_code":"372","address1":"Maneswar","address2":"","latitude":"21.5331","longitude":"84.1011","accuracy":"4"},{"address3":"Talab","state":"Odisha","state_code":"21","district":"Sambalpur","district_code":"372","address1":"Sasan","address2":"","latitude":"21.5531","longitude":"84.0058","accuracy":"4"}],"768201":[{"address3":"Sr Jharsuguda","state":"Odisha","state_code":"21","district":"Jharsuguda","district_code":"371","address1":"Jharsuguda","address2":"","latitude":"21.84","longitude":"84.0102","accuracy":"3"},{"address3":"Sarbahal","state":"Odisha","state_code":"21","district":"Jharsuguda","district_code":"371","address1":"Jharsuguda","address2":"","latitude":"21.84","longitude":"84.0102","accuracy":"4"},{"address3":"Jharsuguda H.O","state":"Odisha","state_code":"21","district":"Jharsuguda","district_code":"371","address1":"Jharsuguda","address2":"","latitude":"21.84","longitude":"84.0102","accuracy":"3"}],"768202":[{"address3":"Arda","state":"Odisha","state_code":"21","district":"Jharsuguda","district_code":"371","address1":"Jharsuguda Sadar","address2":"","latitude":"21.9076","longitude":"84.1019","accuracy":"4"},{"address3":"Sulahi","state":"Odisha","state_code":"21","district":"Jharsuguda","district_code":"371","address1":"Laikera","address2":"","latitude":"21.841","longitude":"84.0295","accuracy":"3"},{"address3":"Hirma","state":"Odisha","state_code":"21","district":"Jharsuguda","district_code":"371","address1":"Jharsuguda Sadar","address2":"","latitude":"21.7947","longitude":"83.9829","accuracy":"4"},{"address3":"Markuta","state":"Odisha","state_code":"21","district":"Jharsuguda","district_code":"371","address1":"Jharsuguda Sadar","address2":"","latitude":"21.841","longitude":"84.0295","accuracy":"3"},{"address3":"Badmal","state":"Odisha","state_code":"21","district":"Jharsuguda","district_code":"371","address1":"Jharsuguda Sadar","address2":"","latitude":"21.8206","longitude":"84.0039","accuracy":"4"},{"address3":"H. Katapali","state":"Odisha","state_code":"21","district":"Jharsuguda","district_code":"371","address1":"Jharsuguda Sadar","address2":"","latitude":"21.841","longitude":"84.0295","accuracy":"3"},{"address3":"K.M. Road Jharsuguda","state":"Odisha","state_code":"21","district":"Jharsuguda","district_code":"371","address1":"Jharsuguda","address2":"","latitude":"21.841","longitude":"84.0295","accuracy":"3"},{"address3":"Ektali","state":"Odisha","state_code":"21","district":"Jharsuguda","district_code":"371","address1":"Jharsuguda","address2":"","latitude":"21.841","longitude":"84.0295","accuracy":"3"},{"address3":"Gudigaon","state":"Odisha","state_code":"21","district":"Jharsuguda","district_code":"371","address1":"Jharsuguda Sadar","address2":"","latitude":"21.841","longitude":"84.0295","accuracy":"3"},{"address3":"Sripura","state":"Odisha","state_code":"21","district":"Jharsuguda","district_code":"371","address1":"Jharsuguda Sadar","address2":"","latitude":"21.841","longitude":"84.0295","accuracy":"3"}],"768203":[{"address3":"Industrial Estate Jharsuguda S","state":"Odisha","state_code":"21","district":"Jharsuguda","district_code":"371","address1":"Jharsuguda","address2":"","latitude":"21.7232","longitude":"84.0456","accuracy":"1"}],"768204":[{"address3":"Talmal","state":"Odisha","state_code":"21","district":"Jharsuguda","district_code":"371","address1":"Jhrasuguda Sadar","address2":"","latitude":"21.918","longitude":"84.0755","accuracy":"4"},{"address3":"Durlaga","state":"Odisha","state_code":"21","district":"Jharsuguda","district_code":"371","address1":"Jharsuguda Sadar","address2":"","latitude":"21.9211","longitude":"84.0328","accuracy":"3"},{"address3":"Talpatia","state":"Odisha","state_code":"21","district":"Jharsuguda","district_code":"371","address1":"Jhasuguda Sadar","address2":"","latitude":"21.937","longitude":"84.0178","accuracy":"4"},{"address3":"O.M.P. Line Jharsuguda","state":"Odisha","state_code":"21","district":"Jharsuguda","district_code":"371","address1":"Jharsuguda","address2":"","latitude":"21.9211","longitude":"84.0328","accuracy":"3"},{"address3":"Panchpara","state":"Odisha","state_code":"21","district":"Jharsuguda","district_code":"371","address1":"Jharsuguda","address2":"","latitude":"21.9082","longitude":"84.0052","accuracy":"4"}],"768210":[{"address3":"THELKULI","state":"Odisha","state_code":"21","district":"Sambalpur","district_code":"372","address1":"Rengali","address2":"","latitude":"21.7711","longitude":"84.0506","accuracy":"1"}],"768211":[{"address3":"Rampella","state":"Odisha","state_code":"21","district":"Jharsuguda","district_code":"371","address1":"Lakhanpur Ho","address2":"","latitude":"21.6569","longitude":"83.972","accuracy":"4"},{"address3":"Ramella","state":"Odisha","state_code":"21","district":"Jharsuguda","district_code":"371","address1":"Lakhanpur","address2":"","latitude":"21.7083","longitude":"83.9233","accuracy":"3"},{"address3":"Dalgaon","state":"Odisha","state_code":"21","district":"Jharsuguda","district_code":"371","address1":"Lakhanpur","address2":"","latitude":"21.7234","longitude":"83.9031","accuracy":"4"},{"address3":"Charpali-barpali","state":"Odisha","state_code":"21","district":"Jharsuguda","district_code":"371","address1":"Brajarajnagar","address2":"","latitude":"21.7083","longitude":"83.9233","accuracy":"3"},{"address3":"Sarandamal","state":"Odisha","state_code":"21","district":"Jharsuguda","district_code":"371","address1":"Lakhanpur","address2":"","latitude":"21.7447","longitude":"83.895","accuracy":"4"},{"address3":"Bandhbahal Colony","state":"Odisha","state_code":"21","district":"Jharsuguda","district_code":"371","address1":"Lakhanpur","address2":"","latitude":"21.7083","longitude":"83.9233","accuracy":"3"}],"768212":[{"address3":"Patrapali","state":"Odisha","state_code":"21","district":"Sambalpur","district_code":"372","address1":"Jamankira","address2":"","latitude":"21.4644","longitude":"84.252","accuracy":"4"},{"address3":"Katarbaga","state":"Odisha","state_code":"21","district":"Sambalpur","district_code":"372","address1":"Rengali","address2":"","latitude":"21.6461","longitude":"84.123","accuracy":"4"},{"address3":"Jharghati Colony","state":"Odisha","state_code":"21","district":"Sambalpur","district_code":"372","address1":"Sasan","address2":"","latitude":"21.6508","longitude":"84.0735","accuracy":"3"},{"address3":"Ghichamura","state":"Odisha","state_code":"21","district":"Sambalpur","district_code":"372","address1":"Rengali","address2":"","latitude":"21.7455","longitude":"84.0854","accuracy":"4"},{"address3":"Kilasama","state":"Odisha","state_code":"21","district":"Sambalpur","district_code":"372","address1":"Sasan","address2":"","latitude":"21.6074","longitude":"84.0378","accuracy":"4"},{"address3":"Lapanga","state":"Odisha","state_code":"21","district":"Sambalpur","district_code":"372","address1":"NA","address2":"","latitude":"21.7235","longitude":"84.0127","accuracy":"4"},{"address3":"K. Jhankarpali","state":"Odisha","state_code":"21","district":"Sambalpur","district_code":"372","address1":"Rengali","address2":"","latitude":"21.6508","longitude":"84.0735","accuracy":"3"},{"address3":"Khinda","state":"Odisha","state_code":"21","district":"Sambalpur","district_code":"372","address1":"Rengali","address2":"","latitude":"21.7262","longitude":"83.9754","accuracy":"4"},{"address3":"Bomaloi","state":"Odisha","state_code":"21","district":"Sambalpur","district_code":"372","address1":"Rengali","address2":"","latitude":"21.6508","longitude":"84.0735","accuracy":"3"},{"address3":"Rengali","state":"Odisha","state_code":"21","district":"Sambalpur","district_code":"372","address1":"Katarbaga","address2":"","latitude":"21.646","longitude":"84.0531","accuracy":"4"},{"address3":"Basupali","state":"Odisha","state_code":"21","district":"Sambalpur","district_code":"372","address1":"Katarbaga","address2":"","latitude":"21.6712","longitude":"84.1287","accuracy":"4"},{"address3":"Kurla","state":"Odisha","state_code":"21","district":"Sambalpur","district_code":"372","address1":"Katarbaga","address2":"","latitude":"21.627","longitude":"83.9934","accuracy":"4"}],"768213":[{"address3":"Paramanandapur","state":"Odisha","state_code":"21","district":"Jharsuguda","district_code":"371","address1":"Kolabira","address2":"","latitude":"21.8253","longitude":"84.2213","accuracy":"3"},{"address3":"Malidihi","state":"Odisha","state_code":"21","district":"Jharsuguda","district_code":"371","address1":"Kolabira","address2":"","latitude":"21.8144","longitude":"84.2738","accuracy":"4"},{"address3":"Raghunathpali","state":"Odisha","state_code":"21","district":"Jharsuguda","district_code":"371","address1":"Kolabira","address2":"","latitude":"21.8251","longitude":"84.1549","accuracy":"4"},{"address3":"Jhirlapali","state":"Odisha","state_code":"21","district":"Jharsuguda","district_code":"371","address1":"Kolabira","address2":"","latitude":"21.8344","longitude":"84.2438","accuracy":"4"},{"address3":"Samasingha","state":"Odisha","state_code":"21","district":"Jharsuguda","district_code":"371","address1":"Kolabira","address2":"","latitude":"21.7796","longitude":"84.1873","accuracy":"4"},{"address3":"Mudrajore","state":"Odisha","state_code":"21","district":"Jharsuguda","district_code":"371","address1":"Kolabira","address2":"","latitude":"21.8253","longitude":"84.2213","accuracy":"3"},{"address3":"Kolabira","state":"Odisha","state_code":"21","district":"Jharsuguda","district_code":"371","address1":"Kolabira","address2":"","latitude":"21.8032","longitude":"84.1684","accuracy":"4"},{"address3":"Niktimal","state":"Odisha","state_code":"21","district":"Jharsuguda","district_code":"371","address1":"Laikera","address2":"","latitude":"21.8677","longitude":"84.29","accuracy":"4"},{"address3":"Bhatlaida","state":"Odisha","state_code":"21","district":"Jharsuguda","district_code":"371","address1":"Laikera","address2":"","latitude":"21.853","longitude":"84.2307","accuracy":"4"}],"768214":[{"address3":"Binjipali","state":"Odisha","state_code":"21","district":"Sambalpur","district_code":"372","address1":"Kochinda","address2":"","latitude":"21.6701","longitude":"84.2116","accuracy":"4"},{"address3":"Laida","state":"Odisha","state_code":"21","district":"Sambalpur","district_code":"372","address1":"Rengali","address2":"","latitude":"21.766","longitude":"84.1406","accuracy":"3"},{"address3":"Sadamal","state":"Odisha","state_code":"21","district":"Sambalpur","district_code":"372","address1":"Katarbaga","address2":"","latitude":"21.766","longitude":"84.1406","accuracy":"3"},{"address3":"Kenadhipa","state":"Odisha","state_code":"21","district":"Sambalpur","district_code":"372","address1":"Kochinda","address2":"","latitude":"21.4519","longitude":"84.2809","accuracy":"4"},{"address3":"Kinaloi","state":"Odisha","state_code":"21","district":"Sambalpur","district_code":"372","address1":"Rengali","address2":"","latitude":"21.6896","longitude":"84.1802","accuracy":"4"}],"768215":[{"address3":"Laikera","state":"Odisha","state_code":"21","district":"Jharsuguda","district_code":"371","address1":"Laikera","address2":"","latitude":"21.8862","longitude":"84.2115","accuracy":"4"},{"address3":"Sudang","state":"Odisha","state_code":"21","district":"Jharsuguda","district_code":"371","address1":"Laikera","address2":"","latitude":"21.9105","longitude":"84.2501","accuracy":"3"},{"address3":"Sarangloi","state":"Odisha","state_code":"21","district":"Jharsuguda","district_code":"371","address1":"Laikera","address2":"","latitude":"21.9171","longitude":"84.2547","accuracy":"4"},{"address3":"Sahaspur","state":"Odisha","state_code":"21","district":"Jharsuguda","district_code":"371","address1":"Laikera","address2":"","latitude":"21.9426","longitude":"84.2916","accuracy":"4"},{"address3":"Aintapali","state":"Odisha","state_code":"21","district":"Jharsuguda","district_code":"371","address1":"Laikera","address2":"","latitude":"21.8962","longitude":"84.2426","accuracy":"4"}],"768216":[{"address3":"Gandghara","state":"Odisha","state_code":"21","district":"Jharsuguda","district_code":"371","address1":"Brajarajnagar","address2":"","latitude":"21.8866","longitude":"83.9252","accuracy":"3"},{"address3":"Rajpur","state":"Odisha","state_code":"21","district":"Jharsuguda","district_code":"371","address1":"Jharsuguda Sadar","address2":"","latitude":"21.8887","longitude":"83.9318","accuracy":"4"},{"address3":"Sr Brajarajnagar","state":"Odisha","state_code":"21","district":"Jharsuguda","district_code":"371","address1":"Brajarajnagar","address2":"","latitude":"21.8866","longitude":"83.9252","accuracy":"3"},{"address3":"Brajarajnagar","state":"Odisha","state_code":"21","district":"Jharsuguda","district_code":"371","address1":"Brajarajnagar","address2":"","latitude":"21.8167","longitude":"83.9167","accuracy":"4"},{"address3":"Chichinda","state":"Odisha","state_code":"21","district":"Jharsuguda","district_code":"371","address1":"Brajarajnagar","address2":"","latitude":"21.9281","longitude":"83.8976","accuracy":"4"},{"address3":"Loisingh","state":"Odisha","state_code":"21","district":"Jharsuguda","district_code":"371","address1":"Jharsuguda Sadar","address2":"","latitude":"21.9131","longitude":"83.9549","accuracy":"4"},{"address3":"I B","state":"Odisha","state_code":"21","district":"Jharsuguda","district_code":"371","address1":"Brajarajnagar","address2":"","latitude":"21.8866","longitude":"83.9252","accuracy":"3"},{"address3":"Chandinimal","state":"Odisha","state_code":"21","district":"Jharsuguda","district_code":"371","address1":"Jharsuguda Sadar","address2":"","latitude":"21.8866","longitude":"83.9252","accuracy":"3"},{"address3":"Lamptibahal","state":"Odisha","state_code":"21","district":"Jharsuguda","district_code":"371","address1":"Brajarajnagar","address2":"","latitude":"21.8866","longitude":"83.9252","accuracy":"3"}],"768217":[{"address3":"Belpahar Rs","state":"Odisha","state_code":"21","district":"Jharsuguda","district_code":"371","address1":"Belpahar","address2":"","latitude":"21.8183","longitude":"83.8179","accuracy":"3"},{"address3":"Banjari","state":"Odisha","state_code":"21","district":"Jharsuguda","district_code":"371","address1":"Belpahar","address2":"","latitude":"21.8183","longitude":"83.8179","accuracy":"4"},{"address3":"Ubuda","state":"Odisha","state_code":"21","district":"Jharsuguda","district_code":"371","address1":"Lakhanpur","address2":"","latitude":"21.8183","longitude":"83.8179","accuracy":"3"},{"address3":"Kudaloi","state":"Odisha","state_code":"21","district":"Jharsuguda","district_code":"371","address1":"Belpahar","address2":"","latitude":"21.8183","longitude":"83.8179","accuracy":"3"},{"address3":"Jorabaga","state":"Odisha","state_code":"21","district":"Jharsuguda","district_code":"371","address1":"Belpahar","address2":"","latitude":"21.8183","longitude":"83.8179","accuracy":"3"}],"768218":[{"address3":"Belpahar","state":"Odisha","state_code":"21","district":"Jharsuguda","district_code":"371","address1":"Belpahar","address2":"","latitude":"21.8218","longitude":"83.8458","accuracy":"4"}],"768219":[{"address3":"Thebra","state":"Odisha","state_code":"21","district":"Jharsuguda","district_code":"371","address1":"Lakhanpur","address2":"","latitude":"21.7267","longitude":"83.7235","accuracy":"4"},{"address3":"Kadamdihi","state":"Odisha","state_code":"21","district":"Jharsuguda","district_code":"371","address1":"Lakhanpur","address2":"","latitude":"21.7631","longitude":"83.698","accuracy":"4"},{"address3":"Bhaurkhol","state":"Odisha","state_code":"21","district":"Jharsuguda","district_code":"371","address1":"Lakhanpur","address2":"","latitude":"21.7181","longitude":"83.7633","accuracy":"3"},{"address3":"Bagmunda","state":"Odisha","state_code":"21","district":"Jharsuguda","district_code":"371","address1":"Lakhanpur","address2":"","latitude":"21.6286","longitude":"83.9639","accuracy":"4"},{"address3":"Lakhanpur (Jharsuguda)","state":"Odisha","state_code":"21","district":"Jharsuguda","district_code":"371","address1":"Lakhanpur","address2":"","latitude":"21.7181","longitude":"83.7633","accuracy":"3"},{"address3":"Kudabaga","state":"Odisha","state_code":"21","district":"Jharsuguda","district_code":"371","address1":"Lakhanpur","address2":"","latitude":"21.7542","longitude":"83.6678","accuracy":"4"}],"768220":[{"address3":"Bhalupatra","state":"Odisha","state_code":"21","district":"Jharsuguda","district_code":"371","address1":"Kirmira","address2":"","latitude":"21.8867","longitude":"84.1345","accuracy":"4"},{"address3":"Kirmira","state":"Odisha","state_code":"21","district":"Jharsuguda","district_code":"371","address1":"Kirmira","address2":"","latitude":"21.8747","longitude":"84.1768","accuracy":"4"},{"address3":"Bagdehi","state":"Odisha","state_code":"21","district":"Jharsuguda","district_code":"371","address1":"Jharsuguda","address2":"","latitude":"21.8807","longitude":"84.1557","accuracy":"3"},{"address3":"Bhimjore","state":"Odisha","state_code":"21","district":"Jharsuguda","district_code":"371","address1":"Kirmira","address2":"","latitude":"21.8807","longitude":"84.1557","accuracy":"3"},{"address3":"Naxapali","state":"Odisha","state_code":"21","district":"Jharsuguda","district_code":"371","address1":"Kirmira","address2":"","latitude":"21.8807","longitude":"84.1557","accuracy":"3"}],"768221":[{"address3":"Bamra","state":"Odisha","state_code":"21","district":"Sambalpur","district_code":"372","address1":"Bamra","address2":"","latitude":"22.0526","longitude":"84.2884","accuracy":"4"},{"address3":"Bamrabasti","state":"Odisha","state_code":"21","district":"Sambalpur","district_code":"372","address1":"Govindpur","address2":"","latitude":"21.1444","longitude":"84.4565","accuracy":"3"},{"address3":"Bamphei","state":"Odisha","state_code":"21","district":"Sambalpur","district_code":"372","address1":"Govindpur","address2":"","latitude":"21.1444","longitude":"84.4565","accuracy":"3"},{"address3":"Badapada","state":"Odisha","state_code":"21","district":"Sambalpur","district_code":"372","address1":"Govindpur","address2":"","latitude":"21.4519","longitude":"84.2809","accuracy":"4"},{"address3":"Kuturimal","state":"Odisha","state_code":"21","district":"Sambalpur","district_code":"372","address1":"Bamra","address2":"","latitude":"21.1444","longitude":"84.4565","accuracy":"3"},{"address3":"Burbuda","state":"Odisha","state_code":"21","district":"Sambalpur","district_code":"372","address1":"Govindpur","address2":"","latitude":"21.4519","longitude":"84.2809","accuracy":"4"},{"address3":"Babuchipidihi Ho","state":"Odisha","state_code":"21","district":"Sambalpur","district_code":"372","address1":"Laikera","address2":"","latitude":"21.1444","longitude":"84.4565","accuracy":"3"},{"address3":"Tileimal","state":"Odisha","state_code":"21","district":"Sambalpur","district_code":"372","address1":"Bamra","address2":"","latitude":"21.4519","longitude":"84.2809","accuracy":"4"},