{"798601":[{"address3":"Mokokchung","state":"Nagaland","state_code":"20","district":"Mokokchung","district_code":"262","address1":"Mokokchung","address2":"","latitude":"26.3248","longitude":"94.5183","accuracy":"4"},{"address3":"Longsa","state":"Nagaland","state_code":"20","district":"Mokokchung","district_code":"262","address1":"Mokokchung","address2":"","latitude":"26.2209","longitude":"94.5499","accuracy":"4"},{"address3":"Nst Colony","state":"Nagaland","state_code":"20","district":"Mokokchung","district_code":"262","address1":"Mokokchung","address2":"","latitude":"26.3094","longitude":"94.5206","accuracy":"3"},{"address3":"Changki","state":"Nagaland","state_code":"20","district":"Mokokchung","district_code":"262","address1":"Mokokchung","address2":"","latitude":"26.3094","longitude":"94.5206","accuracy":"3"},{"address3":"V. K. Town","state":"Nagaland","state_code":"20","district":"Mokokchung","district_code":"262","address1":"Mokokchung","address2":"","latitude":"26.3094","longitude":"94.5206","accuracy":"3"},{"address3":"Chare","state":"Nagaland","state_code":"20","district":"Mokokchung","district_code":"262","address1":"Mokokchung","address2":"","latitude":"26.472","longitude":"94.5318","accuracy":"4"},{"address3":"Tronger","state":"Nagaland","state_code":"20","district":"Mokokchung","district_code":"262","address1":"Mokokchung","address2":"","latitude":"26.3094","longitude":"94.5206","accuracy":"3"},{"address3":"Longkhum","state":"Nagaland","state_code":"20","district":"Mokokchung","district_code":"262","address1":"Mokokchung","address2":"","latitude":"26.3094","longitude":"94.5206","accuracy":"3"},{"address3":"S. E. Colony","state":"Nagaland","state_code":"20","district":"Mokokchung","district_code":"262","address1":"Mokokchung","address2":"","latitude":"26.3094","longitude":"94.5206","accuracy":"3"},{"address3":"Khensa","state":"Nagaland","state_code":"20","district":"Mokokchung","district_code":"262","address1":"Ongpang Kong","address2":"","latitude":"26.3457","longitude":"94.4892","accuracy":"4"},{"address3":"Aolijen","state":"Nagaland","state_code":"20","district":"Mokokchung","district_code":"262","address1":"Mokokchung","address2":"","latitude":"26.3094","longitude":"94.5206","accuracy":"3"},{"address3":"Longmisa","state":"Nagaland","state_code":"20","district":"Mokokchung","district_code":"262","address1":"Mokokchung","address2":"","latitude":"26.3094","longitude":"94.5206","accuracy":"3"},{"address3":"Arree Old","state":"Nagaland","state_code":"20","district":"Mokokchung","district_code":"262","address1":"Mokokchung","address2":"","latitude":"26.3094","longitude":"94.5206","accuracy":"3"},{"address3":"Ungma","state":"Nagaland","state_code":"20","district":"Mokokchung","district_code":"262","address1":"Mokokchung","address2":"","latitude":"26.2963","longitude":"94.5038","accuracy":"4"},{"address3":"Kubza","state":"Nagaland","state_code":"20","district":"Mokokchung","district_code":"262","address1":"Mokokchung","address2":"","latitude":"26.3094","longitude":"94.5206","accuracy":"3"},{"address3":"Chungtia","state":"Nagaland","state_code":"20","district":"Mokokchung","district_code":"262","address1":"Mokokchung","address2":"","latitude":"26.3836","longitude":"94.442","accuracy":"4"},{"address3":"Mangmentong","state":"Nagaland","state_code":"20","district":"Mokokchung","district_code":"262","address1":"Mokokchung","address2":"","latitude":"26.3094","longitude":"94.5206","accuracy":"3"},{"address3":"Ongpangkong","state":"Nagaland","state_code":"20","district":"Mokokchung","district_code":"262","address1":"Mokokchung","address2":"","latitude":"26.3094","longitude":"94.5206","accuracy":"3"},{"address3":"Fazl Ali College","state":"Nagaland","state_code":"20","district":"Mokokchung","district_code":"262","address1":"Ongpangkong","address2":"","latitude":"26.3094","longitude":"94.5206","accuracy":"3"}],"798602":[{"address3":"Zangkham","state":"Nagaland","state_code":"20","district":"Mon","district_code":"261","address1":"Tizit","address2":"","latitude":"26.3748","longitude":"94.6222","accuracy":"1"},{"address3":"Zaboka","state":"Nagaland","state_code":"20","district":"Mon","district_code":"261","address1":"Tizit","address2":"","latitude":"26.3748","longitude":"94.6222","accuracy":"1"},{"address3":"Yannu","state":"Nagaland","state_code":"20","district":"Mon","district_code":"261","address1":"Tizit","address2":"","latitude":"26.3748","longitude":"94.6222","accuracy":"1"},{"address3":"Namsa","state":"Nagaland","state_code":"20","district":"Mon","district_code":"261","address1":"Tizit","address2":"","latitude":"26.3748","longitude":"94.6222","accuracy":"1"},{"address3":"Tizit","state":"Nagaland","state_code":"20","district":"Mon","district_code":"261","address1":"Mon","address2":"","latitude":"26.3748","longitude":"94.6222","accuracy":"1"}],"798603":[{"address3":"Longching","state":"Nagaland","state_code":"20","district":"Mon","district_code":"261","address1":"Champang","address2":"","latitude":"26.5178","longitude":"94.935","accuracy":"4"},{"address3":"Ukha","state":"Nagaland","state_code":"20","district":"Mon","district_code":"261","address1":"Champang","address2":"","latitude":"26.5709","longitude":"94.927","accuracy":"3"},{"address3":"Chinglong","state":"Nagaland","state_code":"20","district":"Mon","district_code":"261","address1":"Champang","address2":"","latitude":"26.624","longitude":"94.919","accuracy":"4"},{"address3":"Champang","state":"Nagaland","state_code":"20","district":"Mon","district_code":"261","address1":"Mon","address2":"","latitude":"26.5709","longitude":"94.927","accuracy":"3"},{"address3":"Angphang","state":"Nagaland","state_code":"20","district":"Mon","district_code":"261","address1":"Champang","address2":"","latitude":"26.5709","longitude":"94.927","accuracy":"3"},{"address3":"Chingkao","state":"Nagaland","state_code":"20","district":"Mon","district_code":"261","address1":"Champang","address2":"","latitude":"26.5709","longitude":"94.927","accuracy":"3"},{"address3":"Chenwetnyu","state":"Nagaland","state_code":"20","district":"Mon","district_code":"261","address1":"Champang","address2":"","latitude":"26.5709","longitude":"94.927","accuracy":"3"},{"address3":"Chenloisho","state":"Nagaland","state_code":"20","district":"Mon","district_code":"261","address1":"Champang","address2":"","latitude":"26.5709","longitude":"94.927","accuracy":"3"},{"address3":"Jakpang","state":"Nagaland","state_code":"20","district":"Mon","district_code":"261","address1":"Champang","address2":"","latitude":"26.5709","longitude":"94.927","accuracy":"3"},{"address3":"Tobu","state":"Nagaland","state_code":"20","district":"Mon","district_code":"261","address1":"Champang","address2":"","latitude":"26.5709","longitude":"94.927","accuracy":"3"},{"address3":"Pessao","state":"Nagaland","state_code":"20","district":"Mon","district_code":"261","address1":"Champang","address2":"","latitude":"26.5709","longitude":"94.927","accuracy":"3"},{"address3":"Monyakshu","state":"Nagaland","state_code":"20","district":"Mon","district_code":"261","address1":"Champang","address2":"","latitude":"26.5709","longitude":"94.927","accuracy":"3"}],"798604":[{"address3":"Waromung","state":"Nagaland","state_code":"20","district":"Mokokchung","district_code":"262","address1":"Mongkholemba","address2":"","latitude":"26.3748","longitude":"94.6222","accuracy":"1"},{"address3":"Longchem","state":"Nagaland","state_code":"20","district":"Mokokchung","district_code":"262","address1":"Mongkholemba","address2":"","latitude":"26.3748","longitude":"94.6222","accuracy":"1"},{"address3":"Alungkima","state":"Nagaland","state_code":"20","district":"Mokokchung","district_code":"262","address1":"Mongkholemba","address2":"","latitude":"26.3748","longitude":"94.6222","accuracy":"1"},{"address3":"Alungtaki","state":"Nagaland","state_code":"20","district":"Mokokchung","district_code":"262","address1":"Mongkholemba","address2":"","latitude":"26.3748","longitude":"94.6222","accuracy":"1"},{"address3":"Chungtia Yimsen","state":"Nagaland","state_code":"20","district":"Mokokchung","district_code":"262","address1":"Mongkholemba","address2":"","latitude":"26.3748","longitude":"94.6222","accuracy":"1"},{"address3":"Khari","state":"Nagaland","state_code":"20","district":"Mokokchung","district_code":"262","address1":"Mongkholemba","address2":"","latitude":"26.3748","longitude":"94.6222","accuracy":"1"},{"address3":"Longnak","state":"Nagaland","state_code":"20","district":"Mokokchung","district_code":"262","address1":"Mongkholemba","address2":"","latitude":"26.3748","longitude":"94.6222","accuracy":"1"},{"address3":"Mongchen","state":"Nagaland","state_code":"20","district":"Mokokchung","district_code":"262","address1":"Mongkholemba","address2":"","latitude":"26.3748","longitude":"94.6222","accuracy":"1"},{"address3":"Mongkholemba","state":"Nagaland","state_code":"20","district":"Mokokchung","district_code":"262","address1":"Mokokchung","address2":"","latitude":"26.3748","longitude":"94.6222","accuracy":"1"}],"798607":[{"address3":"Alichen","state":"Nagaland","state_code":"20","district":"Mokokchung","district_code":"262","address1":"Mokokchung","address2":"","latitude":"26.3748","longitude":"94.6222","accuracy":"1"}],"798611":[{"address3":"Phisami","state":"Nagaland","state_code":"20","district":"Zunhebotto","district_code":"263","address1":"Zunheboto","address2":"","latitude":"26.4339","longitude":"94.7678","accuracy":"1"},{"address3":"Sikur","state":"Nagaland","state_code":"20","district":"Kiphire","district_code":"269","address1":"Kiphire","address2":"","latitude":"26.4339","longitude":"94.7678","accuracy":"1"},{"address3":"Kiphire","state":"Nagaland","state_code":"20","district":"Kiphire","district_code":"269","address1":"Kiphire","address2":"","latitude":"26.4339","longitude":"94.7678","accuracy":"1"},{"address3":"Amahatore","state":"Nagaland","state_code":"20","district":"Kiphire","district_code":"269","address1":"Kiphire","address2":"","latitude":"26.4339","longitude":"94.7678","accuracy":"1"},{"address3":"Anatongere","state":"Nagaland","state_code":"20","district":"Kiphire","district_code":"269","address1":"Kiphire","address2":"","latitude":"26.4339","longitude":"94.7678","accuracy":"1"},{"address3":"Kisethong","state":"Nagaland","state_code":"20","district":"Kiphire","district_code":"269","address1":"Kiphire","address2":"","latitude":"26.4339","longitude":"94.7678","accuracy":"1"},{"address3":"Longmatra","state":"Nagaland","state_code":"20","district":"Kiphire","district_code":"269","address1":"Kiphire","address2":"","latitude":"26.4339","longitude":"94.7678","accuracy":"1"},{"address3":"Moya","state":"Nagaland","state_code":"20","district":"Kiphire","district_code":"269","address1":"Kiphire","address2":"","latitude":"26.4339","longitude":"94.7678","accuracy":"1"},{"address3":"Phalonger","state":"Nagaland","state_code":"20","district":"Kiphire","district_code":"269","address1":"Kiphire","address2":"","latitude":"26.4339","longitude":"94.7678","accuracy":"1"},{"address3":"Pokhpur","state":"Nagaland","state_code":"20","district":"Kiphire","district_code":"269","address1":"Kiphire","address2":"","latitude":"26.4339","longitude":"94.7678","accuracy":"1"},{"address3":"Pungro","state":"Nagaland","state_code":"20","district":"Kiphire","district_code":"269","address1":"Kiphire","address2":"","latitude":"26.4339","longitude":"94.7678","accuracy":"1"},{"address3":"Singrup","state":"Nagaland","state_code":"20","district":"Kiphire","district_code":"269","address1":"Kiphire","address2":"","latitude":"26.4339","longitude":"94.7678","accuracy":"1"},{"address3":"Sitimi","state":"Nagaland","state_code":"20","district":"Kiphire","district_code":"269","address1":"Kiphire","address2":"","latitude":"26.4339","longitude":"94.7678","accuracy":"1"},{"address3":"Seyochang","state":"Nagaland","state_code":"20","district":"Kiphire","district_code":"269","address1":"Kiphire","address2":"","latitude":"26.4339","longitude":"94.7678","accuracy":"1"}],"798612":[{"address3":"Huker","state":"Nagaland","state_code":"20","district":"Tuensang","district_code":"267","address1":"Tuensang","address2":"","latitude":"26.2362","longitude":"94.8967","accuracy":"3"},{"address3":"Yangpi","state":"Nagaland","state_code":"20","district":"Tuensang","district_code":"267","address1":"Tuensang","address2":"","latitude":"26.4017","longitude":"94.7762","accuracy":"4"},{"address3":"Noklak","state":"Nagaland","state_code":"20","district":"Tuensang","district_code":"267","address1":"Tuensang","address2":"","latitude":"26.2362","longitude":"94.8967","accuracy":"3"},{"address3":"Chingmei","state":"Nagaland","state_code":"20","district":"Tuensang","district_code":"267","address1":"Tuensang","address2":"","latitude":"26.2421","longitude":"94.9348","accuracy":"4"},{"address3":"Shamator","state":"Nagaland","state_code":"20","district":"Tuensang","district_code":"267","address1":"Tuensang","address2":"","latitude":"26.2362","longitude":"94.8967","accuracy":"3"},{"address3":"Nokhu","state":"Nagaland","state_code":"20","district":"Tuensang","district_code":"267","address1":"Noklak","address2":"","latitude":"26.1528","longitude":"95.0188","accuracy":"4"},{"address3":"Sotokur","state":"Nagaland","state_code":"20","district":"Tuensang","district_code":"267","address1":"Tuensang","address2":"","latitude":"26.2362","longitude":"94.8967","accuracy":"3"},{"address3":"Panso","state":"Nagaland","state_code":"20","district":"Tuensang","district_code":"267","address1":"Tuensang","address2":"","latitude":"26.1173","longitude":"94.9296","accuracy":"4"},{"address3":"Shampur","state":"Nagaland","state_code":"20","district":"Tuensang","district_code":"267","address1":"Tuensang","address2":"","latitude":"26.2362","longitude":"94.8967","accuracy":"3"},{"address3":"Tuensang","state":"Nagaland","state_code":"20","district":"Tuensang","district_code":"267","address1":"Tuensang","address2":"","latitude":"26.267","longitude":"94.8242","accuracy":"4"},{"address3":"Thonokhunyu","state":"Nagaland","state_code":"20","district":"Tuensang","district_code":"267","address1":"Tuensang","address2":"","latitude":"26.2362","longitude":"94.8967","accuracy":"3"},{"address3":"Choklangan","state":"Nagaland","state_code":"20","district":"Tuensang","district_code":"267","address1":"Noklak","address2":"","latitude":"26.2362","longitude":"94.8967","accuracy":"3"},{"address3":"Pessu","state":"Nagaland","state_code":"20","district":"Tuensang","district_code":"267","address1":"Noklak","address2":"","latitude":"26.2362","longitude":"94.8967","accuracy":"3"},{"address3":"Chessore","state":"Nagaland","state_code":"20","district":"Tuensang","district_code":"267","address1":"Tuensang","address2":"","latitude":"26.2362","longitude":"94.8967","accuracy":"3"},{"address3":"Tuensang Village","state":"Nagaland","state_code":"20","district":"Tuensang","district_code":"267","address1":"Tuensang","address2":"","latitude":"26.2362","longitude":"94.8967","accuracy":"3"},{"address3":"Sangsanyu","state":"Nagaland","state_code":"20","district":"Tuensang","district_code":"267","address1":"Tuensang","address2":"","latitude":"26.2362","longitude":"94.8967","accuracy":"3"},{"address3":"Shiponger","state":"Nagaland","state_code":"20","district":"Tuensang","district_code":"267","address1":"Tuensang","address2":"","latitude":"26.2362","longitude":"94.8967","accuracy":"3"},{"address3":"Sanglao","state":"Nagaland","state_code":"20","district":"Tuensang","district_code":"267","address1":"Noklak","address2":"","latitude":"26.2362","longitude":"94.8967","accuracy":"3"},{"address3":"Kuthur","state":"Nagaland","state_code":"20","district":"Tuensang","district_code":"267","address1":"Tuensang","address2":"","latitude":"26.2362","longitude":"94.8967","accuracy":"3"},{"address3":"Noksen","state":"Nagaland","state_code":"20","district":"Tuensang","district_code":"267","address1":"Longkhim","address2":"","latitude":"26.2362","longitude":"94.8967","accuracy":"3"},{"address3":"Pangsha","state":"Nagaland","state_code":"20","district":"Tuensang","district_code":"267","address1":"Noklak","address2":"","latitude":"26.2362","longitude":"94.8967","accuracy":"3"},{"address3":"Saramati","state":"Nagaland","state_code":"20","district":"Tuensang","district_code":"267","address1":"Tuensang","address2":"","latitude":"26.2362","longitude":"94.8967","accuracy":"3"}],"798613":[{"address3":"Yaongyimsen","state":"Nagaland","state_code":"20","district":"Mokokchung","district_code":"262","address1":"Changtogia","address2":"","latitude":"26.5459","longitude":"94.6856","accuracy":"3"},{"address3":"Chantongia","state":"Nagaland","state_code":"20","district":"Mokokchung","district_code":"262","address1":"Changtongya","address2":"","latitude":"26.5459","longitude":"94.6856","accuracy":"4"}],"798614":[{"address3":"Mongsenyimti","state":"Nagaland","state_code":"20","district":"Mokokchung","district_code":"262","address1":"Chuchuyimlang","address2":"","latitude":"26.4291","longitude":"94.6213","accuracy":"4"},{"address3":"Longkong","state":"Nagaland","state_code":"20","district":"Mokokchung","district_code":"262","address1":"Chuchuyimlang","address2":"","latitude":"26.4291","longitude":"94.6213","accuracy":"3"},{"address3":"Ungar","state":"Nagaland","state_code":"20","district":"Mokokchung","district_code":"262","address1":"Chuchulang","address2":"","latitude":"26.4291","longitude":"94.6213","accuracy":"3"},{"address3":"Salulamang","state":"Nagaland","state_code":"20","district":"Mokokchung","district_code":"262","address1":"Chuchuyimlang","address2":"","latitude":"26.4291","longitude":"94.6213","accuracy":"3"},{"address3":"Phangsang","state":"Nagaland","state_code":"20","district":"Mokokchung","district_code":"262","address1":"Chuchuyimlang","address2":"","latitude":"26.4291","longitude":"94.6213","accuracy":"3"},{"address3":"Chuchuyimlang","state":"Nagaland","state_code":"20","district":"Mokokchung","district_code":"262","address1":"Mokokchung","address2":"","latitude":"26.4291","longitude":"94.6213","accuracy":"3"},{"address3":"Yisemyong","state":"Nagaland","state_code":"20","district":"Mokokchung","district_code":"262","address1":"Chuchuyimlang","address2":"","latitude":"26.4291","longitude":"94.6213","accuracy":"3"}],"798615":[{"address3":"Impur","state":"Nagaland","state_code":"20","district":"Mokokchung","district_code":"262","address1":"Mokokchung","address2":"","latitude":"26.4339","longitude":"94.7678","accuracy":"1"},{"address3":"Longchang","state":"Nagaland","state_code":"20","district":"Mokokchung","district_code":"262","address1":"Impur","address2":"","latitude":"26.4339","longitude":"94.7678","accuracy":"1"},{"address3":"Kubulong","state":"Nagaland","state_code":"20","district":"Mokokchung","district_code":"262","address1":"Impur","address2":"","latitude":"26.4339","longitude":"94.7678","accuracy":"1"},{"address3":"Sungratsu","state":"Nagaland","state_code":"20","district":"Mokokchung","district_code":"262","address1":"Impur","address2":"","latitude":"26.4339","longitude":"94.7678","accuracy":"1"}],"798616":[{"address3":"Yangli","state":"Nagaland","state_code":"20","district":"Tuensang","district_code":"267","address1":"Longkhim","address2":"","latitude":"26.4339","longitude":"94.7678","accuracy":"1"},{"address3":"Chimonger","state":"Nagaland","state_code":"20","district":"Tuensang","district_code":"267","address1":"Lonkhim","address2":"","latitude":"26.4339","longitude":"94.7678","accuracy":"1"},{"address3":"Angangba","state":"Nagaland","state_code":"20","district":"Tuensang","district_code":"267","address1":"Longkhim","address2":"","latitude":"26.4339","longitude":"94.7678","accuracy":"1"},{"address3":"Longkhim","state":"Nagaland","state_code":"20","district":"Tuensang","district_code":"267","address1":"Tuensang","address2":"","latitude":"26.4339","longitude":"94.7678","accuracy":"1"},{"address3":"Chungtore","state":"Nagaland","state_code":"20","district":"Tuensang","district_code":"267","address1":"Longkhim","address2":"","latitude":"26.4339","longitude":"94.7678","accuracy":"1"}],"798618":[{"address3":"Tamlu","state":"Nagaland","state_code":"20","district":"Mokokchung","district_code":"262","address1":"Tuli","address2":"","latitude":"26.472","longitude":"94.5318","accuracy":"4"},{"address3":"Merangkong","state":"Nagaland","state_code":"20","district":"Mokokchung","district_code":"262","address1":"Changtogia","address2":"","latitude":"26.6144","longitude":"94.6694","accuracy":"4"},{"address3":"Tuli","state":"Nagaland","state_code":"20","district":"Mokokchung","district_code":"262","address1":"Mokokchung","address2":"","latitude":"26.6643","longitude":"94.6421","accuracy":"4"},{"address3":"Molungyimsen","state":"Nagaland","state_code":"20","district":"Mokokchung","district_code":"262","address1":"Tuli","address2":"","latitude":"26.6645","longitude":"94.5994","accuracy":"4"},{"address3":"Wamaken","state":"Nagaland","state_code":"20","district":"Mokokchung","district_code":"262","address1":"Tuli","address2":"","latitude":"26.6543","longitude":"94.6638","accuracy":"3"},{"address3":"Asangma","state":"Nagaland","state_code":"20","district":"Mokokchung","district_code":"262","address1":"Changtongya","address2":"","latitude":"26.6543","longitude":"94.6638","accuracy":"3"},{"address3":"Barakangtsung","state":"Nagaland","state_code":"20","district":"Mokokchung","district_code":"262","address1":"Tuli","address2":"","latitude":"26.6543","longitude":"94.6638","accuracy":"3"},{"address3":"Molungkhimong","state":"Nagaland","state_code":"20","district":"Mokokchung","district_code":"262","address1":"Tuli","address2":"","latitude":"26.6543","longitude":"94.6638","accuracy":"3"},{"address3":"Luyang Valley","state":"Nagaland","state_code":"20","district":"Mokokchung","district_code":"262","address1":"Tuli","address2":"","latitude":"26.6543","longitude":"94.6638","accuracy":"3"}],"798620":[{"address3":"Asukhomi","state":"Nagaland","state_code":"20","district":"Zunhebotto","district_code":"263","address1":"Zunheboto","address2":"","latitude":"26.0759","longitude":"94.5392","accuracy":"4"},{"address3":"Tokiye","state":"Nagaland","state_code":"20","district":"Zunhebotto","district_code":"263","address1":"Zunheboto","address2":"","latitude":"26.0213","longitude":"94.528","accuracy":"3"},{"address3":"Zunheboto","state":"Nagaland","state_code":"20","district":"Zunhebotto","district_code":"263","address1":"Zunheboto","address2":"","latitude":"25.9667","longitude":"94.5167","accuracy":"4"},{"address3":"Satakha","state":"Nagaland","state_code":"20","district":"Zunhebotto","district_code":"263","address1":"Zunheboto","address2":"","latitude":"26.0213","longitude":"94.528","accuracy":"3"},{"address3":"Hosephu","state":"Nagaland","state_code":"20","district":"Zunhebotto","district_code":"263","address1":"Zunheboto","address2":"","latitude":"26.0213","longitude":"94.528","accuracy":"3"},{"address3":"Aghunato","state":"Nagaland","state_code":"20","district":"Zunhebotto","district_code":"263","address1":"Aghunato","address2":"","latitude":"26.0213","longitude":"94.528","accuracy":"3"},{"address3":"Saghemi","state":"Nagaland","state_code":"20","district":"Zunhebotto","district_code":"263","address1":"Zunheboto","address2":"","latitude":"26.0213","longitude":"94.528","accuracy":"3"},{"address3":"Asukuto","state":"Nagaland","state_code":"20","district":"Zunhebotto","district_code":"263","address1":"Akuluto","address2":"","latitude":"26.0213","longitude":"94.528","accuracy":"3"},{"address3":"Akuhaito","state":"Nagaland","state_code":"20","district":"Zunhebotto","district_code":"263","address1":"Atoizu","address2":"","latitude":"26.0213","longitude":"94.528","accuracy":"3"},{"address3":"Kichilimi","state":"Nagaland","state_code":"20","district":"Zunhebotto","district_code":"263","address1":"Ghathashi","address2":"","latitude":"26.0213","longitude":"94.528","accuracy":"3"},{"address3":"Suruhuto","state":"Nagaland","state_code":"20","district":"Zunhebotto","district_code":"263","address1":"Zunheboto","address2":"","latitude":"26.0213","longitude":"94.528","accuracy":"3"},{"address3":"Satoi","state":"Nagaland","state_code":"20","district":"Zunhebotto","district_code":"263","address1":"Zunheboto","address2":"","latitude":"26.0213","longitude":"94.528","accuracy":"3"},{"address3":"Satami","state":"Nagaland","state_code":"20","district":"Zunhebotto","district_code":"263","address1":"Zunheboto","address2":"","latitude":"26.0213","longitude":"94.528","accuracy":"3"},{"address3":"Asuto","state":"Nagaland","state_code":"20","district":"Zunhebotto","district_code":"263","address1":"Zunheboto","address2":"","latitude":"26.0213","longitude":"94.528","accuracy":"3"},{"address3":"Atoizu","state":"Nagaland","state_code":"20","district":"Zunhebotto","district_code":"263","address1":"Atoizu","address2":"","latitude":"26.0213","longitude":"94.528","accuracy":"3"},{"address3":"Surumi","state":"Nagaland","state_code":"20","district":"Zunhebotto","district_code":"263","address1":"Zunheboto","address2":"","latitude":"26.0213","longitude":"94.528","accuracy":"3"}],"798621":[{"address3":"Mon","state":"Nagaland","state_code":"20","district":"Mon","district_code":"261","address1":"Mon","address2":"","latitude":"26.7358","longitude":"95.0584","accuracy":"4"},{"address3":"Wakching","state":"Nagaland","state_code":"20","district":"Mon","district_code":"261","address1":"Naginimora","address2":"","latitude":"26.6608","longitude":"94.8432","accuracy":"4"},{"address3":"Longpong Senghe","state":"Nagaland","state_code":"20","district":"Mon","district_code":"261","address1":"Mon","address2":"","latitude":"26.6983","longitude":"94.9508","accuracy":"3"},{"address3":"Singha Chingnyu","state":"Nagaland","state_code":"20","district":"Mon","district_code":"261","address1":"Mon","address2":"","latitude":"26.6983","longitude":"94.9508","accuracy":"3"},{"address3":"Tang","state":"Nagaland","state_code":"20","district":"Mon","district_code":"261","address1":"Mon","address2":"","latitude":"26.6983","longitude":"94.9508","accuracy":"3"},{"address3":"Waunching","state":"Nagaland","state_code":"20","district":"Mon","district_code":"261","address1":"Mon","address2":"","latitude":"26.6983","longitude":"94.9508","accuracy":"3"},{"address3":"Chui","state":"Nagaland","state_code":"20","district":"Mon","district_code":"261","address1":"Mon","address2":"","latitude":"26.6983","longitude":"94.9508","accuracy":"3"},{"address3":"Totak","state":"Nagaland","state_code":"20","district":"Mon","district_code":"261","address1":"Mon","address2":"","latitude":"26.6983","longitude":"94.9508","accuracy":"3"},{"address3":"Pongkong","state":"Nagaland","state_code":"20","district":"Mon","district_code":"261","address1":"Mon","address2":"","latitude":"26.6983","longitude":"94.9508","accuracy":"3"},{"address3":"Longwa","state":"Nagaland","state_code":"20","district":"Mon","district_code":"261","address1":"Mon","address2":"","latitude":"26.6983","longitude":"94.9508","accuracy":"3"}],"798622":[{"address3":"Naginimora","state":"Nagaland","state_code":"20","district":"Mon","district_code":"261","address1":"Mon","address2":"","latitude":"26.8149","longitude":"94.8108","accuracy":"4"},{"address3":"Baranamsang","state":"Nagaland","state_code":"20","district":"Mon","district_code":"261","address1":"Naginimora","address2":"","latitude":"26.8149","longitude":"94.8108","accuracy":"3"},{"address3":"Kongon","state":"Nagaland","state_code":"20","district":"Mon","district_code":"261","address1":"Naginimora","address2":"","latitude":"26.8149","longitude":"94.8108","accuracy":"3"}],"798623":[{"address3":"Tzudikong","state":"Nagaland","state_code":"20","district":"Mokokchung","district_code":"262","address1":"Tuli","address2":"","latitude":"26.4224","longitude":"94.7346","accuracy":"1"}],"798625":[{"address3":"Yachem","state":"Nagaland","state_code":"20","district":"Longleng","district_code":"268","address1":"Longleng","address2":"","latitude":"26.4794","longitude":"94.8107","accuracy":"3"},{"address3":"Hukpang","state":"Nagaland","state_code":"20","district":"Longleng","district_code":"268","address1":"Longleng","address2":"","latitude":"26.4689","longitude":"94.8037","accuracy":"4"},{"address3":"Sakchi","state":"Nagaland","state_code":"20","district":"Longleng","district_code":"268","address1":"Longleng","address2":"","latitude":"26.4794","longitude":"94.8107","accuracy":"3"},{"address3":"Bhumnyu","state":"Nagaland","state_code":"20","district":"Longleng","district_code":"268","address1":"Longleng","address2":"","latitude":"26.4794","longitude":"94.8107","accuracy":"3"},{"address3":"Phomching","state":"Nagaland","state_code":"20","district":"Longleng","district_code":"268","address1":"Longleng","address2":"","latitude":"26.4794","longitude":"94.8107","accuracy":"3"},{"address3":"Longleng","state":"Nagaland","state_code":"20","district":"Longleng","district_code":"268","address1":"Longleng","address2":"","latitude":"26.4899","longitude":"94.8177","accuracy":"4"},{"address3":"Yongyah","state":"Nagaland","state_code":"20","district":"Longleng","district_code":"268","address1":"Longleng","address2":"","latitude":"26.4794","longitude":"94.8107","accuracy":"3"},{"address3":"Nian","state":"Nagaland","state_code":"20","district":"Longleng","district_code":"268","address1":"Longleng","address2":"","latitude":"26.4794","longitude":"94.8107","accuracy":"3"}],"798627":[{"address3":"Akuluto","state":"Nagaland","state_code":"20","district":"Zunhebotto","district_code":"263","address1":"Akuluto","address2":"","latitude":"26.1661","longitude":"94.4871","accuracy":"4"},{"address3":"Aizito","state":"Nagaland","state_code":"20","district":"Zunhebotto","district_code":"263","address1":"Zunheboto","address2":"","latitude":"26.1661","longitude":"94.4871","accuracy":"3"},{"address3":"Lumami","state":"Nagaland","state_code":"20","district":"Zunhebotto","district_code":"263","address1":"Akuluto","address2":"","latitude":"26.1661","longitude":"94.4871","accuracy":"3"}],"credits":[{"name":"geonames","url":"https://www.geonames.org"}],"last_update":"2019-03-01T09:01:33.195Z"}