{"811101":[{"address3":"Sarba","state":"Bihar","state_code":"34","district":"Sheikhpura","district_code":"228","address1":"Barbigha","address2":"","latitude":"25.1319","longitude":"85.8289","accuracy":"4"},{"address3":"Kuthaut","state":"Bihar","state_code":"34","district":"Sheikhpura","district_code":"228","address1":"Barbigha","address2":"","latitude":"25.1171","longitude":"85.7688","accuracy":"3"},{"address3":"Barbigha","state":"Bihar","state_code":"34","district":"Sheikhpura","district_code":"228","address1":"Barbigha","address2":"","latitude":"25.2167","longitude":"85.7333","accuracy":"4"},{"address3":"Samas","state":"Bihar","state_code":"34","district":"Sheikhpura","district_code":"228","address1":"Barbigha","address2":"","latitude":"25.1171","longitude":"85.7688","accuracy":"3"},{"address3":"Kishanpur","state":"Bihar","state_code":"34","district":"Sheikhpura","district_code":"228","address1":"Shekhopur Sarai","address2":"","latitude":"25.1387","longitude":"85.7316","accuracy":"4"},{"address3":"Kewti","state":"Bihar","state_code":"34","district":"Sheikhpura","district_code":"228","address1":"Barbigha","address2":"","latitude":"25.1171","longitude":"85.7688","accuracy":"3"},{"address3":"Subhanpur","state":"Bihar","state_code":"34","district":"Sheikhpura","district_code":"228","address1":"Barbigha","address2":"","latitude":"25.2735","longitude":"85.7306","accuracy":"4"},{"address3":"Toygarh","state":"Bihar","state_code":"34","district":"Sheikhpura","district_code":"228","address1":"Barbigha","address2":"","latitude":"25.1171","longitude":"85.7688","accuracy":"3"},{"address3":"Maldah","state":"Bihar","state_code":"34","district":"Sheikhpura","district_code":"228","address1":"Barbigha","address2":"","latitude":"25.174","longitude":"85.7599","accuracy":"4"},{"address3":"Ramjan Pur","state":"Bihar","state_code":"34","district":"Sheikhpura","district_code":"228","address1":"Barbigha","address2":"","latitude":"25.1171","longitude":"85.7688","accuracy":"3"},{"address3":"Asthana","state":"Bihar","state_code":"34","district":"Sheikhpura","district_code":"228","address1":"Sheopursarai","address2":"","latitude":"25.1572","longitude":"85.6992","accuracy":"4"},{"address3":"C.R.Barbigha ","state":"Bihar","state_code":"34","district":"Sheikhpura","district_code":"228","address1":"Sheikhpura","address2":"","latitude":"25.1171","longitude":"85.7688","accuracy":"3"},{"address3":"Teus","state":"Bihar","state_code":"34","district":"Sheikhpura","district_code":"228","address1":"Barbigha","address2":"","latitude":"25.2493","longitude":"85.7141","accuracy":"4"},{"address3":"K Milki Chak","state":"Bihar","state_code":"34","district":"Sheikhpura","district_code":"228","address1":"Barbigha","address2":"","latitude":"25.1171","longitude":"85.7688","accuracy":"3"},{"address3":"Maur","state":"Bihar","state_code":"34","district":"Sheikhpura","district_code":"228","address1":"Barbigha","address2":"","latitude":"25.2067","longitude":"85.7524","accuracy":"4"},{"address3":"Onama","state":"Bihar","state_code":"34","district":"Sheikhpura","district_code":"228","address1":"Shekhopursarai","address2":"","latitude":"25.1171","longitude":"85.7688","accuracy":"3"},{"address3":"Babhanbigha","state":"Bihar","state_code":"34","district":"Sheikhpura","district_code":"228","address1":"Barbigha","address2":"","latitude":"25.1171","longitude":"85.7688","accuracy":"3"},{"address3":"Kajifatuchak","state":"Bihar","state_code":"34","district":"Sheikhpura","district_code":"228","address1":"Barbigha","address2":"","latitude":"25.1171","longitude":"85.7688","accuracy":"3"},{"address3":"Rampur Sinday","state":"Bihar","state_code":"34","district":"Sheikhpura","district_code":"228","address1":"Barbigha","address2":"","latitude":"25.1171","longitude":"85.7688","accuracy":"3"},{"address3":"Belaw","state":"Bihar","state_code":"34","district":"Sheikhpura","district_code":"228","address1":"Shekhopur","address2":"","latitude":"25.1171","longitude":"85.7688","accuracy":"3"},{"address3":"Dhanuki","state":"Bihar","state_code":"34","district":"Nalanda","district_code":"229","address1":"Sarmera","address2":"","latitude":"25.2758","longitude":"85.7549","accuracy":"4"},{"address3":"Malwa","state":"Bihar","state_code":"34","district":"Nalanda","district_code":"229","address1":"Sarmera","address2":"","latitude":"25.1171","longitude":"85.7688","accuracy":"3"},{"address3":"Kenar Kalan","state":"Bihar","state_code":"34","district":"Nalanda","district_code":"229","address1":"Sarmera","address2":"","latitude":"25.2208","longitude":"85.4559","accuracy":"4"},{"address3":"Gilani","state":"Bihar","state_code":"34","district":"Nalanda","district_code":"229","address1":"Asthawan","address2":"","latitude":"25.2161","longitude":"85.7023","accuracy":"4"},{"address3":"Amawan","state":"Bihar","state_code":"34","district":"Nalanda","district_code":"229","address1":"Asthawan","address2":"","latitude":"25.2208","longitude":"85.4559","accuracy":"4"},{"address3":"Sadarpur","state":"Bihar","state_code":"34","district":"Nalanda","district_code":"229","address1":"Asthama","address2":"","latitude":"25.2677","longitude":"85.6882","accuracy":"4"},{"address3":"Mohani","state":"Bihar","state_code":"34","district":"Nalanda","district_code":"229","address1":"Ashtawan","address2":"","latitude":"25.2208","longitude":"85.4559","accuracy":"4"},{"address3":"Ibrahimpur","state":"Bihar","state_code":"34","district":"Nalanda","district_code":"229","address1":"Bind","address2":"","latitude":"25.2796","longitude":"85.7049","accuracy":"4"}],"811102":[{"address3":"Mehus","state":"Bihar","state_code":"34","district":"Sheikhpura","district_code":"228","address1":"Sheikhpura","address2":"","latitude":"25.2137","longitude":"85.8336","accuracy":"3"},{"address3":"Mafo","state":"Bihar","state_code":"34","district":"Sheikhpura","district_code":"228","address1":"Sheikhpura","address2":"","latitude":"25.2137","longitude":"85.8336","accuracy":"3"},{"address3":"Katari","state":"Bihar","state_code":"34","district":"Sheikhpura","district_code":"228","address1":"Sheikhpura","address2":"","latitude":"25.1829","longitude":"85.8541","accuracy":"4"},{"address3":"Gagaur","state":"Bihar","state_code":"34","district":"Sheikhpura","district_code":"228","address1":"Ghat Kushambha","address2":"","latitude":"25.2137","longitude":"85.8336","accuracy":"3"},{"address3":"Esuwa","state":"Bihar","state_code":"34","district":"Nalanda","district_code":"229","address1":"Sarmera","address2":"","latitude":"25.2137","longitude":"85.8336","accuracy":"3"},{"address3":"Singhaul","state":"Bihar","state_code":"34","district":"Nalanda","district_code":"229","address1":"Sarmera","address2":"","latitude":"25.2236","longitude":"85.8152","accuracy":"4"},{"address3":"Sasaur","state":"Bihar","state_code":"34","district":"Nalanda","district_code":"229","address1":"Sermera","address2":"","latitude":"25.2347","longitude":"85.8315","accuracy":"4"}],"811103":[{"address3":"Ambari","state":"Bihar","state_code":"34","district":"Sheikhpura","district_code":"228","address1":"Shekhosarai","address2":"","latitude":"25.1319","longitude":"85.8289","accuracy":"4"},{"address3":"Panhesa","state":"Bihar","state_code":"34","district":"Sheikhpura","district_code":"228","address1":"Shekhopur Sarai","address2":"","latitude":"25.1152","longitude":"85.6688","accuracy":"4"},{"address3":"Jean Bigha","state":"Bihar","state_code":"34","district":"Sheikhpura","district_code":"228","address1":"Sheikhpura","address2":"","latitude":"25.4276","longitude":"86.1703","accuracy":"3"},{"address3":"Nimi","state":"Bihar","state_code":"34","district":"Sheikhpura","district_code":"228","address1":"Shekhopur Sarai","address2":"","latitude":"25.116","longitude":"85.7","accuracy":"4"},{"address3":"Charuawan","state":"Bihar","state_code":"34","district":"Sheikhpura","district_code":"228","address1":"Shekhpur Sarai","address2":"","latitude":"25.4276","longitude":"86.1703","accuracy":"3"},{"address3":"Paharia","state":"Bihar","state_code":"34","district":"Sheikhpura","district_code":"228","address1":"Shekhopura Sarai","address2":"","latitude":"25.0978","longitude":"85.6957","accuracy":"4"},{"address3":"Chakdin","state":"Bihar","state_code":"34","district":"Nalanda","district_code":"229","address1":"Asthawan","address2":"","latitude":"25.4276","longitude":"86.1703","accuracy":"3"},{"address3":"Ugaban","state":"Bihar","state_code":"34","district":"Nalanda","district_code":"229","address1":"Ashthwan","address2":"","latitude":"25.4276","longitude":"86.1703","accuracy":"3"}],"811104":[{"address3":"Sarmera","state":"Bihar","state_code":"34","district":"Nalanda","district_code":"229","address1":"Sarmera","address2":"","latitude":"25.2564","longitude":"85.7988","accuracy":"4"},{"address3":"Husaina","state":"Bihar","state_code":"34","district":"Nalanda","district_code":"229","address1":"Sarmera","address2":"","latitude":"25.2208","longitude":"85.4559","accuracy":"4"},{"address3":"Sahari","state":"Bihar","state_code":"34","district":"Nalanda","district_code":"229","address1":"Sarmera","address2":"","latitude":"25.3043","longitude":"85.9533","accuracy":"3"},{"address3":"Chero","state":"Bihar","state_code":"34","district":"Nalanda","district_code":"229","address1":"Srmera","address2":"","latitude":"25.2463","longitude":"85.8169","accuracy":"4"},{"address3":"Pyarepur","state":"Bihar","state_code":"34","district":"Nalanda","district_code":"229","address1":"Sarmera","address2":"","latitude":"25.3043","longitude":"85.9533","accuracy":"3"},{"address3":"Gopalbad","state":"Bihar","state_code":"34","district":"Nalanda","district_code":"229","address1":"Sarmera","address2":"","latitude":"25.2955","longitude":"85.759","accuracy":"4"},{"address3":"Ramnathpur","state":"Bihar","state_code":"34","district":"Nalanda","district_code":"229","address1":"Sarmera","address2":"","latitude":"25.2208","longitude":"85.4559","accuracy":"4"},{"address3":"Mirnagar","state":"Bihar","state_code":"34","district":"Nalanda","district_code":"229","address1":"Sarmera","address2":"","latitude":"25.2751","longitude":"85.7733","accuracy":"4"},{"address3":"Karkain","state":"Bihar","state_code":"34","district":"Patna","district_code":"230","address1":"Ghoswari","address2":"","latitude":"25.3043","longitude":"85.9533","accuracy":"3"}],"811105":[{"address3":"Hussainabad","state":"Bihar","state_code":"34","district":"Sheikhpura","district_code":"228","address1":"Ariyari","address2":"","latitude":"25.0973","longitude":"85.7917","accuracy":"3"},{"address3":"Sheikhpura Bazar","state":"Bihar","state_code":"34","district":"Sheikhpura","district_code":"228","address1":"Sheikhpura","address2":"","latitude":"25.0973","longitude":"85.7917","accuracy":"3"},{"address3":"Pinjari","state":"Bihar","state_code":"34","district":"Sheikhpura","district_code":"228","address1":"Barbigha","address2":"","latitude":"25.0973","longitude":"85.7917","accuracy":"3"},{"address3":"Mobarakpur","state":"Bihar","state_code":"34","district":"Sheikhpura","district_code":"228","address1":"Mehus","address2":"","latitude":"25.1319","longitude":"85.8289","accuracy":"4"},{"address3":"Kare","state":"Bihar","state_code":"34","district":"Sheikhpura","district_code":"228","address1":"Sheikhpura","address2":"","latitude":"25.1469","longitude":"85.8046","accuracy":"4"},{"address3":"Kusherhi","state":"Bihar","state_code":"34","district":"Sheikhpura","district_code":"228","address1":"Barbigha","address2":"","latitude":"25.0973","longitude":"85.7917","accuracy":"3"},{"address3":"Lodipur","state":"Bihar","state_code":"34","district":"Sheikhpura","district_code":"228","address1":"Mehus","address2":"","latitude":"25.1254","longitude":"85.7721","accuracy":"4"},{"address3":"Chorwar","state":"Bihar","state_code":"34","district":"Sheikhpura","district_code":"228","address1":"Ariyari","address2":"","latitude":"25.1319","longitude":"85.8289","accuracy":"4"},{"address3":"Sanaiya","state":"Bihar","state_code":"34","district":"Sheikhpura","district_code":"228","address1":"Ariyari","address2":"","latitude":"25.0995","longitude":"85.7991","accuracy":"4"},{"address3":"Sheikhpura R S","state":"Bihar","state_code":"34","district":"Sheikhpura","district_code":"228","address1":"Sheikhpura","address2":"","latitude":"25.0973","longitude":"85.7917","accuracy":"3"},{"address3":"Pharpar","state":"Bihar","state_code":"34","district":"Sheikhpura","district_code":"228","address1":"Ariyari","address2":"","latitude":"25.0973","longitude":"85.7917","accuracy":"3"},{"address3":"Brindaban","state":"Bihar","state_code":"34","district":"Sheikhpura","district_code":"228","address1":"Ariyari","address2":"","latitude":"25.1319","longitude":"85.8289","accuracy":"4"},{"address3":"Pain","state":"Bihar","state_code":"34","district":"Sheikhpura","district_code":"228","address1":"Sheikhpura","address2":"","latitude":"25.1497","longitude":"85.7795","accuracy":"4"},{"address3":"Biman","state":"Bihar","state_code":"34","district":"Sheikhpura","district_code":"228","address1":"Ariyari","address2":"","latitude":"25.0973","longitude":"85.7917","accuracy":"3"},{"address3":"Mandana","state":"Bihar","state_code":"34","district":"Sheikhpura","district_code":"228","address1":"Sheikhpura","address2":"","latitude":"25.0973","longitude":"85.7917","accuracy":"3"},{"address3":"Purankama","state":"Bihar","state_code":"34","district":"Sheikhpura","district_code":"228","address1":"Sheikhpura","address2":"","latitude":"25.0973","longitude":"85.7917","accuracy":"3"},{"address3":"Bhojdih","state":"Bihar","state_code":"34","district":"Sheikhpura","district_code":"228","address1":"Sheikhpura","address2":"","latitude":"25.1115","longitude":"85.8055","accuracy":"4"},{"address3":"Gabai","state":"Bihar","state_code":"34","district":"Sheikhpura","district_code":"228","address1":"Sheikhpura","address2":"","latitude":"25.0973","longitude":"85.7917","accuracy":"3"},{"address3":"Masodha","state":"Bihar","state_code":"34","district":"Sheikhpura","district_code":"228","address1":"Ariyari","address2":"","latitude":"25.0973","longitude":"85.7917","accuracy":"3"},{"address3":"Audhey","state":"Bihar","state_code":"34","district":"Sheikhpura","district_code":"228","address1":"Sheikhpura","address2":"","latitude":"25.0973","longitude":"85.7917","accuracy":"3"},{"address3":"Diha","state":"Bihar","state_code":"34","district":"Sheikhpura","district_code":"228","address1":"Aiary","address2":"","latitude":"25.0688","longitude":"85.8679","accuracy":"4"},{"address3":"S.Ghuskari","state":"Bihar","state_code":"34","district":"Sheikhpura","district_code":"228","address1":"Ariyari","address2":"","latitude":"25.0973","longitude":"85.7917","accuracy":"3"},{"address3":"Pathraitha","state":"Bihar","state_code":"34","district":"Sheikhpura","district_code":"228","address1":"Sheikhpura","address2":"","latitude":"25.0973","longitude":"85.7917","accuracy":"3"},{"address3":"Abgil Chandey","state":"Bihar","state_code":"34","district":"Sheikhpura","district_code":"228","address1":"Sheikhpura","address2":"","latitude":"25.0973","longitude":"85.7917","accuracy":"3"},{"address3":"Kamta","state":"Bihar","state_code":"34","district":"Sheikhpura","district_code":"228","address1":"Sheikhpura","address2":"","latitude":"25.1728","longitude":"85.8136","accuracy":"4"},{"address3":"D. Lodipur","state":"Bihar","state_code":"34","district":"Sheikhpura","district_code":"228","address1":"Sheikhpura","address2":"","latitude":"25.0973","longitude":"85.7917","accuracy":"3"},{"address3":"Deoley","state":"Bihar","state_code":"34","district":"Sheikhpura","district_code":"228","address1":"Sheikhpura","address2":"","latitude":"25.0973","longitude":"85.7917","accuracy":"3"},{"address3":"Afni","state":"Bihar","state_code":"34","district":"Sheikhpura","district_code":"228","address1":"Ariyari","address2":"","latitude":"25.0973","longitude":"85.7917","accuracy":"3"},{"address3":"Kasar","state":"Bihar","state_code":"34","district":"Sheikhpura","district_code":"228","address1":"Sheikhpura","address2":"","latitude":"25.0462","longitude":"85.8019","accuracy":"4"},{"address3":"Hathiyama","state":"Bihar","state_code":"34","district":"Sheikhpura","district_code":"228","address1":"Hathiyawan","address2":"","latitude":"25.0973","longitude":"85.7917","accuracy":"3"},{"address3":"Navinagar Kakrar","state":"Bihar","state_code":"34","district":"Sheikhpura","district_code":"228","address1":"Ariyari","address2":"","latitude":"25.0973","longitude":"85.7917","accuracy":"3"},{"address3":"Kushumbha","state":"Bihar","state_code":"34","district":"Sheikhpura","district_code":"228","address1":"Sheikhpura","address2":"","latitude":"25.0973","longitude":"85.7917","accuracy":"3"},{"address3":"Maninda","state":"Bihar","state_code":"34","district":"Sheikhpura","district_code":"228","address1":"Sheikhpura","address2":"","latitude":"25.1271","longitude":"85.8965","accuracy":"4"},{"address3":"Sheikhpura (Sheikhpura)","state":"Bihar","state_code":"34","district":"Sheikhpura","district_code":"228","address1":"Sheikhpura","address2":"","latitude":"25.0973","longitude":"85.7917","accuracy":"3"},{"address3":"Belchhi","state":"Bihar","state_code":"34","district":"Sheikhpura","district_code":"228","address1":"Ariyari","address2":"","latitude":"25.1013","longitude":"85.8404","accuracy":"4"},{"address3":"Karki","state":"Bihar","state_code":"34","district":"Sheikhpura","district_code":"228","address1":"Ariyari","address2":"","latitude":"25.0767","longitude":"85.8329","accuracy":"4"}],"811106":[{"address3":"Akbarpur","state":"Bihar","state_code":"34","district":"Begusarai","district_code":"222","address1":"Samho","address2":"","latitude":"25.4953","longitude":"86.1308","accuracy":"4"},{"address3":"Shamho","state":"Bihar","state_code":"34","district":"Begusarai","district_code":"222","address1":"Shamho","address2":"","latitude":"25.2368","longitude":"86.1921","accuracy":"3"},{"address3":"Bijulia","state":"Bihar","state_code":"34","district":"Begusarai","district_code":"222","address1":"Samho","address2":"","latitude":"25.2813","longitude":"86.1797","accuracy":"4"},{"address3":"Surajgaraha","state":"Bihar","state_code":"34","district":"Lakhisarai","district_code":"227","address1":"Surajgarha","address2":"","latitude":"25.2368","longitude":"86.1921","accuracy":"3"},{"address3":"Dighari","state":"Bihar","state_code":"34","district":"Lakhisarai","district_code":"227","address1":"Surajgarha","address2":"","latitude":"25.2368","longitude":"86.1921","accuracy":"3"},{"address3":"Paharpur","state":"Bihar","state_code":"34","district":"Lakhisarai","district_code":"227","address1":"Surajgarha","address2":"","latitude":"25.2778","longitude":"86.2819","accuracy":"4"},{"address3":"Nandpur","state":"Bihar","state_code":"34","district":"Lakhisarai","district_code":"227","address1":"Surajgarha","address2":"","latitude":"25.2685","longitude":"86.245","accuracy":"4"},{"address3":"Ss Barari","state":"Bihar","state_code":"34","district":"Lakhisarai","district_code":"227","address1":"Surajgaraha","address2":"","latitude":"25.2368","longitude":"86.1921","accuracy":"3"},{"address3":"Kabadpur","state":"Bihar","state_code":"34","district":"Lakhisarai","district_code":"227","address1":"Surajgarha","address2":"","latitude":"25.2368","longitude":"86.1921","accuracy":"3"},{"address3":"K. Tola Laxmipur","state":"Bihar","state_code":"34","district":"Lakhisarai","district_code":"227","address1":"Surajgarha","address2":"","latitude":"25.2368","longitude":"86.1921","accuracy":"3"},{"address3":"Mustafapur","state":"Bihar","state_code":"34","district":"Lakhisarai","district_code":"227","address1":"Surajgarha","address2":"","latitude":"25.2204","longitude":"86.2359","accuracy":"4"},{"address3":"Kiranpur","state":"Bihar","state_code":"34","district":"Lakhisarai","district_code":"227","address1":"Surajgarha","address2":"","latitude":"25.2685","longitude":"86.3004","accuracy":"4"},{"address3":"Amarpur","state":"Bihar","state_code":"34","district":"Lakhisarai","district_code":"227","address1":"Surajgarha","address2":"","latitude":"25.1565","longitude":"86.1676","accuracy":"4"},{"address3":"Alinagar","state":"Bihar","state_code":"34","district":"Lakhisarai","district_code":"227","address1":"Surajgarha","address2":"","latitude":"25.2","longitude":"86.1921","accuracy":"4"}],"811107":[{"address3":"Kachhiyana","state":"Bihar","state_code":"34","district":"Lakhisarai","district_code":"227","address1":"Lakhisarai","address2":"","latitude":"25.2652","longitude":"85.2794","accuracy":"3"},{"address3":"Pratappur","state":"Bihar","state_code":"34","district":"Lakhisarai","district_code":"227","address1":"Halsi","address2":"","latitude":"25.1555","longitude":"86.1312","accuracy":"4"},{"address3":"S Imam Nagar","state":"Bihar","state_code":"34","district":"Lakhisarai","district_code":"227","address1":"Ramgarh Chowk","address2":"","latitude":"25.2652","longitude":"85.2794","accuracy":"3"},{"address3":"Billo","state":"Bihar","state_code":"34","district":"Lakhisarai","district_code":"227","address1":"Ramgarh Chowk","address2":"","latitude":"25.1114","longitude":"86.0195","accuracy":"4"},{"address3":"R Mahsaura","state":"Bihar","state_code":"34","district":"Lakhisarai","district_code":"227","address1":"Ramgarh Chowk","address2":"","latitude":"25.2652","longitude":"85.2794","accuracy":"3"},{"address3":"B.Bartara","state":"Bihar","state_code":"34","district":"Lakhisarai","district_code":"227","address1":"Ramgarh Chowk","address2":"","latitude":"25.2652","longitude":"85.2794","accuracy":"3"},{"address3":"Nadiyama","state":"Bihar","state_code":"34","district":"Lakhisarai","district_code":"227","address1":"Ramgarh Chowk","address2":"","latitude":"25.2652","longitude":"85.2794","accuracy":"3"},{"address3":"Bhadous","state":"Bihar","state_code":"34","district":"Sheikhpura","district_code":"228","address1":"Ghatkusumbha","address2":"","latitude":"25.2652","longitude":"85.2794","accuracy":"3"},{"address3":"Bhadausi","state":"Bihar","state_code":"34","district":"Sheikhpura","district_code":"228","address1":"Ghatkeshambha","address2":"","latitude":"25.1855","longitude":"85.941","accuracy":"4"},{"address3":"Pachana","state":"Bihar","state_code":"34","district":"Sheikhpura","district_code":"228","address1":"Sheikhpura","address2":"","latitude":"25.2652","longitude":"85.2794","accuracy":"3"},{"address3":"Kaithwan","state":"Bihar","state_code":"34","district":"Sheikhpura","district_code":"228","address1":"Sheikhpura","address2":"","latitude":"25.2652","longitude":"85.2794","accuracy":"3"},{"address3":"Dih Kushumbha","state":"Bihar","state_code":"34","district":"Sheikhpura","district_code":"228","address1":"Ghat Koshamba","address2":"","latitude":"25.2652","longitude":"85.2794","accuracy":"3"},{"address3":"Sirari","state":"Bihar","state_code":"34","district":"Sheikhpura","district_code":"228","address1":"Sheikhpura","address2":"","latitude":"25.2652","longitude":"85.2794","accuracy":"3"}],"811112":[{"address3":"Piri Bazar","state":"Bihar","state_code":"34","district":"Lakhisarai","district_code":"227","address1":"Surajgarha","address2":"","latitude":"25.2146","longitude":"86.3198","accuracy":"4"},{"address3":"Loshghani","state":"Bihar","state_code":"34","district":"Lakhisarai","district_code":"227","address1":"Surajgarha","address2":"","latitude":"25.2146","longitude":"86.3198","accuracy":"3"},{"address3":"Abhaypur","state":"Bihar","state_code":"34","district":"Lakhisarai","district_code":"227","address1":"Surajgarha","address2":"","latitude":"25.2146","longitude":"86.3198","accuracy":"3"}],"811201":[{"address3":"Lal Darwaza (Munger)","state":"Bihar","state_code":"34","district":"Munger","district_code":"226","address1":"Munger","address2":"","latitude":"25.444","longitude":"86.4728","accuracy":"1"},{"address3":"Jamalpur Work Shop Ed So","state":"Bihar","state_code":"34","district":"Munger","district_code":"226","address1":"Jamalpur","address2":"","latitude":"25.444","longitude":"86.4728","accuracy":"1"},{"address3":"Ganga Darshan","state":"Bihar","state_code":"34","district":"Munger","district_code":"226","address1":"Munger","address2":"","latitude":"25.444","longitude":"86.4728","accuracy":"1"},{"address3":"Belan Bazar","state":"Bihar","state_code":"34","district":"Munger","district_code":"226","address1":"Munger","address2":"","latitude":"25.444","longitude":"86.4728","accuracy":"1"},{"address3":"Purab Sarai","state":"Bihar","state_code":"34","district":"Munger","district_code":"226","address1":"Munger","address2":"","latitude":"25.444","longitude":"86.4728","accuracy":"1"},{"address3":"N.D.Road Munger","state":"Bihar","state_code":"34","district":"Munger","district_code":"226","address1":"Munger","address2":"","latitude":"25.444","longitude":"86.4728","accuracy":"1"},{"address3":"Munger Fort","state":"Bihar","state_code":"34","district":"Munger","district_code":"226","address1":"Munger","address2":"","latitude":"25.444","longitude":"86.4728","accuracy":"1"},{"address3":"Munger Town","state":"Bihar","state_code":"34","district":"Munger","district_code":"226","address1":"Munger","address2":"","latitude":"25.444","longitude":"86.4728","accuracy":"1"},{"address3":"Munger College","state":"Bihar","state_code":"34","district":"Munger","district_code":"226","address1":"Munger","address2":"","latitude":"25.444","longitude":"86.4728","accuracy":"1"},{"address3":"Munger H.O","state":"Bihar","state_code":"34","district":"Munger","district_code":"226","address1":"Munger","address2":"","latitude":"25.444","longitude":"86.4728","accuracy":"1"}],"811202":[{"address3":"Mathar","state":"Bihar","state_code":"34","district":"Khagaria","district_code":"223","address1":"Khagaria","address2":"","latitude":"25.4354","longitude":"86.4987","accuracy":"4"},{"address3":"Tikarampur","state":"Bihar","state_code":"34","district":"Munger","district_code":"226","address1":"Munger","address2":"","latitude":"25.444","longitude":"86.4728","accuracy":"3"},{"address3":"Kutlupur","state":"Bihar","state_code":"34","district":"Munger","district_code":"226","address1":"Munger","address2":"","latitude":"25.3157","longitude":"86.3471","accuracy":"4"},{"address3":"Benigir","state":"Bihar","state_code":"34","district":"Munger","district_code":"226","address1":"Munger","address2":"","latitude":"25.3686","longitude":"86.5019","accuracy":"4"},{"address3":"Shankarpur","state":"Bihar","state_code":"34","district":"Munger","district_code":"226","address1":"Munger","address2":"","latitude":"25.21","longitude":"86.5274","accuracy":"4"},{"address3":"Taufir","state":"Bihar","state_code":"34","district":"Munger","district_code":"226","address1":"Munger","address2":"","latitude":"25.452","longitude":"86.5566","accuracy":"4"},{"address3":"Farda","state":"Bihar","state_code":"34","district":"Munger","district_code":"226","address1":"Jamalpur","address2":"","latitude":"25.444","longitude":"86.4728","accuracy":"3"},{"address3":"Bank Harpur","state":"Bihar","state_code":"34","district":"Munger","district_code":"226","address1":"Jamalpur","address2":"","latitude":"25.444","longitude":"86.4728","accuracy":"3"},{"address3":"Shiv Kund","state":"Bihar","state_code":"34","district":"Munger","district_code":"226","address1":"Dharhara","address2":"","latitude":"25.444","longitude":"86.4728","accuracy":"3"},{"address3":"Singhia","state":"Bihar","state_code":"34","district":"Munger","district_code":"226","address1":"Jamalpur","address2":"","latitude":"25.3045","longitude":"86.4093","accuracy":"4"},{"address3":"B M Tola","state":"Bihar","state_code":"34","district":"Munger","district_code":"226","address1":"Munger","address2":"","latitude":"25.444","longitude":"86.4728","accuracy":"3"},{"address3":"Heru Diyara","state":"Bihar","state_code":"34","district":"Munger","district_code":"226","address1":"Munger","address2":"","latitude":"25.444","longitude":"86.4728","accuracy":"3"},{"address3":"Zamin Degree","state":"Bihar","state_code":"34","district":"Munger","district_code":"226","address1":"Munger","address2":"","latitude":"25.444","longitude":"86.4728","accuracy":"3"},{"address3":"Dariayapur","state":"Bihar","state_code":"34","district":"Munger","district_code":"226","address1":"Munger","address2":"","latitude":"25.444","longitude":"86.4728","accuracy":"3"},{"address3":"J. Nagar","state":"Bihar","state_code":"34","district":"Munger","district_code":"226","address1":"Munger","address2":"","latitude":"25.444","longitude":"86.4728","accuracy":"3"},{"address3":"Baha Chowki","state":"Bihar","state_code":"34","district":"Munger","district_code":"226","address1":"Dharhara","address2":"","latitude":"25.444","longitude":"86.4728","accuracy":"3"},{"address3":"Jamindigri","state":"Bihar","state_code":"34","district":"Munger","district_code":"226","address1":"Munger","address2":"","latitude":"25.444","longitude":"86.4728","accuracy":"3"},{"address3":"Basudeopur","state":"Bihar","state_code":"34","district":"Munger","district_code":"226","address1":"Munger","address2":"","latitude":"25.444","longitude":"86.4728","accuracy":"3"}],"811211":[{"address3":"Ganganiya","state":"Bihar","state_code":"34","district":"Bhagalpur","district_code":"224","address1":"Sultanganj","address2":"","latitude":"25.2907","longitude":"86.5907","accuracy":"3"},{"address3":"Agrahan","state":"Bihar","state_code":"34","district":"Munger","district_code":"226","address1":"Haweli Kharagpur","address2":"","latitude":"25.21","longitude":"86.5274","accuracy":"4"},{"address3":"Ratanpur","state":"Bihar","state_code":"34","district":"Munger","district_code":"226","address1":"Bariarpur","address2":"","latitude":"25.2955","longitude":"86.5483","accuracy":"4"},{"address3":"Kharia","state":"Bihar","state_code":"34","district":"Munger","district_code":"226","address1":"Bariarpur","address2":"","latitude":"25.21","longitude":"86.5274","accuracy":"3"},{"address3":"Kalyanpur","state":"Bihar","state_code":"34","district":"Munger","district_code":"226","address1":"Bariarpur","address2":"","latitude":"25.0791","longitude":"86.6168","accuracy":"4"},{"address3":"Bariarpur (Munger)","state":"Bihar","state_code":"34","district":"Munger","district_code":"226","address1":"Bariarpur","address2":"","latitude":"25.2879","longitude":"86.5764","accuracy":"4"},{"address3":"Purshotampur","state":"Bihar","state_code":"34","district":"Munger","district_code":"226","address1":"Haweli Kharagpur","address2":"","latitude":"25.2907","longitude":"86.5907","accuracy":"3"},{"address3":"Ekashi","state":"Bihar","state_code":"34","district":"Munger","district_code":"226","address1":"Bariarpur","address2":"","latitude":"25.2907","longitude":"86.5907","accuracy":"3"},{"address3":"Jankinagar","state":"Bihar","state_code":"34","district":"Munger","district_code":"226","address1":"Jamalpur","address2":"","latitude":"25.3431","longitude":"86.5161","accuracy":"4"},{"address3":"Ghorghat","state":"Bihar","state_code":"34","district":"Munger","district_code":"226","address1":"Bariarpur","address2":"","latitude":"25.2419","longitude":"86.6524","accuracy":"4"},{"address3":"Binda Diyara","state":"Bihar","state_code":"34","district":"Munger","district_code":"226","address1":"Bariarpur","address2":"","latitude":"25.2907","longitude":"86.5907","accuracy":"3"},{"address3":"Bhadaura","state":"Bihar","state_code":"34","district":"Munger","district_code":"226","address1":"Haweli Kharagpur","address2":"","latitude":"25.2289","longitude":"86.5862","accuracy":"4"},{"address3":"K Shampur","state":"Bihar","state_code":"34","district":"Munger","district_code":"226","address1":"Haweli Kharagpur","address2":"","latitude":"25.2907","longitude":"86.5907","accuracy":"3"},{"address3":"Maheshpur","state":"Bihar","state_code":"34","district":"Munger","district_code":"226","address1":"Munger","address2":"","latitude":"25.3403","longitude":"86.5676","accuracy":"4"},{"address3":"Kalarampur","state":"Bihar","state_code":"34","district":"Munger","district_code":"226","address1":"Jamalpur","address2":"","latitude":"25.2907","longitude":"86.5907","accuracy":"3"},{"address3":"Lohchi","state":"Bihar","state_code":"34","district":"Munger","district_code":"226","address1":"Haweli Kharagpur","address2":"","latitude":"25.2467","longitude":"86.5727","accuracy":"4"},{"address3":"Nawagarhi","state":"Bihar","state_code":"34","district":"Munger","district_code":"226","address1":"Sadar Munger","address2":"","latitude":"25.2907","longitude":"86.5907","accuracy":"3"}],"811212":[{"address3":"Barmasia","state":"Bihar","state_code":"34","district":"Munger","district_code":"226","address1":"Dahrhara","address2":"","latitude":"25.21","longitude":"86.5274","accuracy":"4"},{"address3":"Tola Bangalwa","state":"Bihar","state_code":"34","district":"Munger","district_code":"226","address1":"Dharhara","address2":"","latitude":"25.1779","longitude":"86.4265","accuracy":"3"},{"address3":"Itwa","state":"Bihar","state_code":"34","district":"Munger","district_code":"226","address1":"Dharhara","address2":"","latitude":"25.262","longitude":"86.4618","accuracy":"4"},{"address3":"Amari","state":"Bihar","state_code":"34","district":"Munger","district_code":"226","address1":"Dharhara","address2":"","latitude":"25.2516","longitude":"86.4415","accuracy":"4"},{"address3":"Bhalar","state":"Bihar","state_code":"34","district":"Munger","district_code":"226","address1":"Dharhara","address2":"","latitude":"25.2759","longitude":"86.4589","accuracy":"4"},{"address3":"Dharhara (Munger)","state":"Bihar","state_code":"34","district":"Munger","district_code":"226","address1":"Dharhara","address2":"","latitude":"25.2543","longitude":"86.403","accuracy":"4"},{"address3":"Mangarh","state":"Bihar","state_code":"34","district":"Munger","district_code":"226","address1":"Dharhara","address2":"","latitude":"25.2601","longitude":"86.4092","accuracy":"4"},{"address3":"Lahauta Ghatwari","state":"Bihar","state_code":"34","district":"Munger","district_code":"226","address1":"Dharhara","address2":"","latitude":"25.1779","longitude":"86.4265","accuracy":"3"},{"address3":"Orabagicha","state":"Bihar","state_code":"34","district":"Munger","district_code":"226","address1":"Dharhara","address2":"","latitude":"25.1779","longitude":"86.4265","accuracy":"3"}],"811213":[{"address3":"Khaira Doray","state":"Bihar","state_code":"34","district":"Munger","district_code":"226","address1":"Tarapur","address2":"","latitude":"25.1667","longitude":"86.5614","accuracy":"3"},{"address3":"Khaira","state":"Bihar","state_code":"34","district":"Munger","district_code":"226","address1":"H Kharagpur","address2":"","latitude":"25.1253","longitude":"86.6097","accuracy":"4"},{"address3":"Banhara","state":"Bihar","state_code":"34","district":"Munger","district_code":"226","address1":"Haweli Kharagpur","address2":"","latitude":"25.0709","longitude":"86.5169","accuracy":"4"},{"address3":"Haweli Kharagpur","state":"Bihar","state_code":"34","district":"Munger","district_code":"226","address1":"Haweli Kharagpur","address2":"","latitude":"25.1667","longitude":"86.5614","accuracy":"3"},{"address3":"Rathaitha","state":"Bihar","state_code":"34","district":"Munger","district_code":"226","address1":"Hawelikharagpur","address2":"","latitude":"25.1667","longitude":"86.5614","accuracy":"3"},{"address3":"Gobadda","state":"Bihar","state_code":"34","district":"Munger","district_code":"226","address1":"Haweli Kharagpur","address2":"","latitude":"25.1839","longitude":"86.5745","accuracy":"4"},{"address3":"Sadobh","state":"Bihar","state_code":"34","district":"Munger","district_code":"226","address1":"H Kharagpur","address2":"","latitude":"25.1771","longitude":"86.6168","accuracy":"4"},{"address3":"Gangata More","state":"Bihar","state_code":"34","district":"Munger","district_code":"226","address1":"Haweli Kharagpur","address2":"","latitude":"25.1667","longitude":"86.5614","accuracy":"3"},{"address3":"Gaurab Dih","state":"Bihar","state_code":"34","district":"Munger","district_code":"226","address1":"Tetia Bambar","address2":"","latitude":"25.1667","longitude":"86.5614","accuracy":"3"},{"address3":"Bichhichanchar","state":"Bihar","state_code":"34","district":"Munger","district_code":"226","address1":"Tetiya Bambar","address2":"","latitude":"25.1667","longitude":"86.5614","accuracy":"3"},{"address3":"Dariapur","state":"Bihar","state_code":"34","district":"Munger","district_code":"226","address1":"H Kharagpur","address2":"","latitude":"25.1426","longitude":"86.5405","accuracy":"4"},{"address3":"Ramankabad","state":"Bihar","state_code":"34","district":"Munger","district_code":"226","address1":"Haweli Kharagpur","address2":"","latitude":"25.1667","longitude":"86.5614","accuracy":"3"},{"address3":"Shivpur Logain","state":"Bihar","state_code":"34","district":"Munger","district_code":"226","address1":"H Kharagpur","address2":"","latitude":"25.1667","longitude":"86.5614","accuracy":"3"},{"address3":"Muzaffarganj","state":"Bihar","state_code":"34","district":"Munger","district_code":"226","address1":"Hawelikhragpur","address2":"","latitude":"25.1451","longitude":"86.5895","accuracy":"4"},{"address3":"Manjhgay","state":"Bihar","state_code":"34","district":"Munger","district_code":"226","address1":"H Kharagpur","address2":"","latitude":"25.1667","longitude":"86.5614","accuracy":"3"},{"address3":"Lagma","state":"Bihar","state_code":"34","district":"Munger","district_code":"226","address1":"Tetiabambar","address2":"","latitude":"25.3041","longitude":"86.3821","accuracy":"4"},{"address3":"L. Laxmipur","state":"Bihar","state_code":"34","district":"Munger","district_code":"226","address1":"Haweli Kharagpur","address2":"","latitude":"25.1667","longitude":"86.5614","accuracy":"3"},{"address3":"Kendua","state":"Bihar","state_code":"34","district":"Munger","district_code":"226","address1":"Haweli Kharagpur","address2":"","latitude":"25.1747","longitude":"86.6006","accuracy":"4"},{"address3":"Raja Dih","state":"Bihar","state_code":"34","district":"Munger","district_code":"226","address1":"Sangrampur","address2":"","latitude":"25.1667","longitude":"86.5614","accuracy":"3"},{"address3":"Barhauna","state":"Bihar","state_code":"34","district":"Munger","district_code":"226","address1":"H Kharagpur","address2":"","latitude":"25.1882","longitude":"86.6007","accuracy":"4"},{"address3":"Tetia Bambar","state":"Bihar","state_code":"34","district":"Munger","district_code":"226","address1":"Tetia","address2":"","latitude":"25.1667","longitude":"86.5614","accuracy":"3"},{"address3":"Parsando","state":"Bihar","state_code":"34","district":"Munger","district_code":"226","address1":"H Kharagpur","address2":"","latitude":"25.1552","longitude":"86.5825","accuracy":"4"},{"address3":"Teghara","state":"Bihar","state_code":"34","district":"Munger","district_code":"226","address1":"H Kharagpur","address2":"","latitude":"25.1667","longitude":"86.5614","accuracy":"3"},{"address3":"R C.Maidan","state":"Bihar","state_code":"34","district":"Munger","district_code":"226","address1":"Tetiabambar","address2":"","latitude":"25.1667","longitude":"86.5614","accuracy":"3"}],"811214":[{"address3":"Safiabad","state":"Bihar","state_code":"34","district":"Munger","district_code":"226","address1":"Jamalpur","address2":"","latitude":"25.3451","longitude":"86.4916","accuracy":"4"},{"address3":"Ithari","state":"Bihar","state_code":"34","district":"Munger","district_code":"226","address1":"Jamalpur","address2":"","latitude":"25.21","longitude":"86.5274","accuracy":"4"},{"address3":"Sadar Bazar Jamalpur","state":"Bihar","state_code":"34","district":"Munger","district_code":"226","address1":"Jamalpur","address2":"","latitude":"25.4849","longitude":"86.5402","accuracy":"3"},{"address3":"Pattam","state":"Bihar","state_code":"34","district":"Munger","district_code":"226","address1":"Jamalpur","address2":"","latitude":"25.4849","longitude":"86.5402","accuracy":"3"},{"address3":"Halimpur","state":"Bihar","state_code":"34","district":"Munger","district_code":"226","address1":"Jamalpur","address2":"","latitude":"25.3344","longitude":"86.4747","accuracy":"4"},{"address3":"Jamalpur (Munger)","state":"Bihar","state_code":"34","district":"Munger","district_code":"226","address1":"Jamalpur","address2":"","latitude":"25.4849","longitude":"86.5402","accuracy":"3"},{"address3":"Sarobagh","state":"Bihar","state_code":"34","district":"Munger","district_code":"226","address1":"Jamalpur","address2":"","latitude":"25.2787","longitude":"86.4759","accuracy":"4"}],"811301":[{"address3":"Baladih","state":"Bihar","state_code":"34","district":"Jamui","district_code":"238","address1":"Islamnagar","address2":"","latitude":"24.9101","longitude":"86.2459","accuracy":"4"},{"address3":"Markama","state":"Bihar","state_code":"34","district":"Jamui","district_code":"238","address1":"Islamnagar","address2":"","latitude":"24.9409","longitude":"85.9607","accuracy":"3"},{"address3":"Hilsa","state":"Bihar","state_code":"34","district":"Jamui","district_code":"238","address1":"Islam Nagar","address2":"","latitude":"24.9159","longitude":"85.899","accuracy":"4"},{"address3":"Aliganj (Jamui)","state":"Bihar","state_code":"34","district":"Jamui","district_code":"238","address1":"Aliganj","address2":"","latitude":"24.9365","longitude":"85.925","accuracy":"4"},{"address3":"Pursanda","state":"Bihar","state_code":"34","district":"Jamui","district_code":"238","address1":"Islamnagar","address2":"","latitude":"24.9276","longitude":"85.9339","accuracy":"4"},{"address3":"Din Nagar","state":"Bihar","state_code":"34","district":"Jamui","district_code":"238","address1":"Islamnagar","address2":"","latitude":"24.9409","longitude":"85.9607","accuracy":"3"},{"address3":"Mirzaganj","state":"Bihar","state_code":"34","district":"Jamui","district_code":"238","address1":"Islamnagar","address2":"","latitude":"24.9363","longitude":"85.9658","accuracy":"4"},{"address3":"Noni","state":"Bihar","state_code":"34","district":"Jamui","district_code":"238","address1":"Aliganj","address2":"","latitude":"24.9852","longitude":"85.8703","accuracy":"4"},{"address3":"Seway","state":"Bihar","state_code":"34","district":"Jamui","district_code":"238","address1":"Islamnagar","address2":"","latitude":"24.9409","longitude":"85.9607","accuracy":"3"},{"address3":"Darkha","state":"Bihar","state_code":"34","district":"Jamui","district_code":"238","address1":"Islamnagar","address2":"","latitude":"24.9389","longitude":"85.9324","accuracy":"4"},{"address3":"Abgil Chaurama","state":"Bihar","state_code":"34","district":"Jamui","district_code":"238","address1":"Islamnagar","address2":"","latitude":"24.9409","longitude":"85.9607","accuracy":"3"},{"address3":"Sahora","state":"Bihar","state_code":"34","district":"Jamui","district_code":"238","address1":"Islamnagar","address2":"","latitude":"24.9767","longitude":"85.9132","accuracy":"4"},{"address3":"Islam Nagar","state":"Bihar","state_code":"34","district":"Jamui","district_code":"238","address1":"Islamnagar","address2":"","latitude":"24.9409","longitude":"85.9607","accuracy":"3"},{"address3":"Dhanama","state":"Bihar","state_code":"34","district":"Jamui","district_code":"238","address1":"Islamnagar","address2":"","latitude":"24.9409","longitude":"85.9607","accuracy":"3"},{"address3":"Kaiyar","state":"Bihar","state_code":"34","district":"Jamui","district_code":"238","address1":"Islamnagar","address2":"","latitude":"24.9409","longitude":"85.9607","accuracy":"3"}],"811302":[{"address3":"Khutha","state":"Bihar","state_code":"34","district":"Lakhisarai","district_code":"227","address1":"Barhiya","address2":"","latitude":"25.1555","longitude":"86.1312","accuracy":"4"},{"address3":"Jaitpur","state":"Bihar","state_code":"34","district":"Lakhisarai","district_code":"227","address1":"Barhiya","address2":"","latitude":"25.3133","longitude":"86.0794","accuracy":"4"},{"address3":"Pipariya","state":"Bihar","state_code":"34","district":"Lakhisarai","district_code":"227","address1":"Piparia","address2":"","latitude":"25.2593","longitude":"86.1149","accuracy":"4"},{"address3":"Ganga Sarai","state":"Bihar","state_code":"34","district":"Lakhisarai","district_code":"227","address1":"Barhiya","address2":"","latitude":"25.3325","longitude":"86.186","accuracy":"3"},{"address3":"Dumari","state":"Bihar","state_code":"34","district":"Lakhisarai","district_code":"227","address1":"Barhiya","address2":"","latitude":"25.1555","longitude":"86.1312","accuracy":"4"},{"address3":"L. Kalyanpur","state":"Bihar","state_code":"34","district":"Lakhisarai","district_code":"227","address1":"Barhiya","address2":"","latitude":"25.3325","longitude":"86.186","accuracy":"3"},{"address3":"Barhiya","state":"Bihar","state_code":"34","district":"Lakhisarai","district_code":"227","address1":"Barhiya","address2":"","latitude":"25.2881","longitude":"86.0206","accuracy":"4"},{"address3":"B Dariyapur","state":"Bihar","state_code":"34","district":"Lakhisarai","district_code":"227","address1":"Barhiya","address2":"","latitude":"25.3325","longitude":"86.186","accuracy":"3"},{"address3":"Chetan Tola Khutha","state":"Bihar","state_code":"34","district":"Lakhisarai","district_code":"227","address1":"Barhiya","address2":"","latitude":"25.3325","longitude":"86.186","accuracy":"3"},{"address3":"Sadaibigha","state":"Bihar","state_code":"34","district":"Lakhisarai","district_code":"227","address1":"Barhiya","address2":"","latitude":"25.3325","longitude":"86.186","accuracy":"3"},{"address3":"Birupur","state":"Bihar","state_code":"34","district":"Lakhisarai","district_code":"227","address1":"Barhiya","address2":"","latitude":"25.2253","longitude":"85.9873","accuracy":"4"},{"address3":"Talsharama","state":"Bihar","state_code":"34","district":"Lakhisarai","district_code":"227","address1":"Barhiya","address2":"","latitude":"25.3325","longitude":"86.186","accuracy":"3"},{"address3":"Jalal Pur Nauranga","state":"Bihar","state_code":"34","district":"Patna","district_code":"230","address1":"Mokamah","address2":"","latitude":"25.3325","longitude":"86.186","accuracy":"3"}],"811303":[{"address3":"Barmoria","state":"Bihar","state_code":"34","district":"Jamui","district_code":"238","address1":"Chakai","address2":"","latitude":"24.5988","longitude":"86.2645","accuracy":"4"},{"address3":"Saraun","state":"Bihar","state_code":"34","district":"Jamui","district_code":"238","address1":"Chakai","address2":"","latitude":"24.7838","longitude":"86.2952","accuracy":"4"},{"address3":"Pojha","state":"Bihar","state_code":"34","district":"Jamui","district_code":"238","address1":"Chakai","address2":"","latitude":"24.5602","longitude":"86.3654","accuracy":"4"},{"address3":"Madhopur","state":"Bihar","state_code":"34","district":"Jamui","district_code":"238","address1":"Chakai","address2":"","latitude":"24.7838","longitude":"86.2952","accuracy":"4"},{"address3":"Bichkorwa","state":"Bihar","state_code":"34","district":"Jamui","district_code":"238","address1":"Chakai","address2":"","latitude":"24.8011","longitude":"86.0848","accuracy":"4"},{"address3":"Dadhawa","state":"Bihar","state_code":"34","district":"Jamui","district_code":"238","address1":"Chakai","address2":"","latitude":"24.6924","longitude":"86.3771","accuracy":"3"},{"address3":"Korane","state":"Bihar","state_code":"34","district":"Jamui","district_code":"238","address1":"Chakai So","address2":"","latitude":"24.5661","longitude":"86.4441","accuracy":"4"},{"address3":"S Batpar","state":"Bihar","state_code":"34","district":"Jamui","district_code":"238","address1":"Chakai","address2":"","latitude":"24.6924","longitude":"86.3771","accuracy":"3"},{"address3":"Chakai","state":"Bihar","state_code":"34","district":"Jamui","district_code":"238","address1":"Chakai","address2":"","latitude":"24.5493","longitude":"86.3978","accuracy":"4"},{"address3":"Ramchandradih","state":"Bihar","state_code":"34","district":"Jamui","district_code":"238","address1":"Chakai","address2":"","latitude":"24.6924","longitude":"86.3771","accuracy":"3"},{"address3":"Phariatadih","state":"Bihar","state_code":"34","district":"Jamui","district_code":"238","address1":"Chakai","address2":"","latitude":"24.5049","longitude":"86.444","accuracy":"4"},{"address3":"Gaganpur","state":"Bihar","state_code":"34","district":"Jamui","district_code":"238","address1":"Chakai","address2":"","latitude":"24.6924","longitude":"86.3771","accuracy":"3"},{"address3":"Bamdah","state":"Bihar","state_code":"34","district":"Jamui","district_code":"238","address1":"Chakai","address2":"","latitude":"24.6026","longitude":"86.4124","accuracy":"4"},{"address3":"N. Silfari","state":"Bihar","state_code":"34","district":"Jamui","district_code":"238","address1":"Chakai","address2":"","latitude":"24.6924","longitude":"86.3771","accuracy":"3"},{"address3":"Dulampur","state":"Bihar","state_code":"34","district":"Jamui","district_code":"238","address1":"Chakai","address2":"","latitude":"24.4136","longitude":"86.4382","accuracy":"4"},{"address3":"Patauwa","state":"Bihar","state_code":"34","district":"Jamui","district_code":"238","address1":"Chakai","address2":"","latitude":"24.6924","longitude":"86.3771","accuracy":"3"},{"address3":"Tola Urba","state":"Bihar","state_code":"34","district":"Jamui","district_code":"238","address1":"Chakai","address2":"","latitude":"24.6924","longitude":"86.3771","accuracy":"3"},{"address3":"Basbitti-bo","state":"Bihar","state_code":"34","district":"Jamui","district_code":"238","address1":"Chakai","address2":"","latitude":"24.6924","longitude":"86.3771","accuracy":"3"},{"address3":"Koluadih","state":"Bihar","state_code":"34","district":"Jamui","district_code":"238","address1":"Chakai","address2":"","latitude":"24.6924","longitude":"86.3771","accuracy":"3"},{"address3":"Chandra Mandi","state":"Bihar","state_code":"34","district":"Jamui","district_code":"238","address1":"Chakai","address2":"","latitude":"24.6924","longitude":"86.3771","accuracy":"3"},{"address3":"Kiya Jori","state":"Bihar","state_code":"34","district":"Jamui","district_code":"238","address1":"Chakai","address2":"","latitude":"24.6924","longitude":"86.3771","accuracy":"3"}],"811304":[{"address3":"Bahachha","state":"Bihar","state_code":"34","district":"Lakhisarai","district_code":"227","address1":"Halsi","address2":"","latitude":"25.0374","longitude":"85.891","accuracy":"3"},{"address3":"Chhatiara","state":"Bihar","state_code":"34","district":"Sheikhpura","district_code":"228","address1":"Chewara","address2":"","latitude":"25.0307","longitude":"85.9056","accuracy":"4"},{"address3":"Akarha","state":"Bihar","state_code":"34","district":"Sheikhpura","district_code":"228","address1":"Chewara","address2":"","latitude":"25.0374","longitude":"85.891","accuracy":"3"},{"address3":"Sohdi","state":"Bihar","state_code":"34","district":"Sheikhpura","district_code":"228","address1":"Ariyari","address2":"","latitude":"25.0255","longitude":"85.8563","accuracy":"4"},{"address3":"Gagri","state":"Bihar","state_code":"34","district":"Sheikhpura","district_code":"228","address1":"Sheikhpura","address2":"","latitude":"25.0374","longitude":"85.891","accuracy":"3"},{"address3":"Chewara","state":"Bihar","state_code":"34","district":"Sheikhpura","district_code":"228","address1":"Sheikhpur","address2":"","latitude":"25.0756","longitude":"85.9277","accuracy":"4"},{"address3":"Hassari","state":"Bihar","state_code":"34","district":"Sheikhpura","district_code":"228","address1":"Sheikhpura","address2":"","latitude":"25.0374","longitude":"85.891","accuracy":"3"},{"address3":"Lohan","state":"Bihar","state_code":"34","district":"Sheikhpura","district_code":"228","address1":"Ariyari","address2":"","latitude":"25.0179","longitude":"85.8745","accuracy":"4"},{"address3":"Ekrama","state":"Bihar","state_code":"34","district":"Sheikhpura","district_code":"228","address1":"Chewara","address2":"","latitude":"25.0374","longitude":"85.891","accuracy":"3"},{"address3":"Chakandra","state":"Bihar","state_code":"34","district":"Sheikhpura","district_code":"228","address1":"Chewara","address2":"","latitude":"25.0374","longitude":"85.891","accuracy":"3"},{"address3":"Karandey","state":"Bihar","state_code":"34","district":"Sheikhpura","district_code":"228","address1":"Chewara","address2":"","latitude":"25.0374","longitude":"85.891","accuracy":"3"},{"address3":"Asthama","state":"Bihar","state_code":"34","district":"Sheikhpura","district_code":"228","address1":"Chewara","address2":"","latitude":"25.0374","longitude":"85.891","accuracy":"3"},{"address3":"Chordargah","state":"Bihar","state_code":"34","district":"Sheikhpura","district_code":"228","address1":"Ariyari","address2":"","latitude":"25.0374","longitude":"85.891","accuracy":"3"}],"811305":[{"address3":"Gidhaur","state":"Bihar","state_code":"34","district":"Jamui","district_code":"238","address1":"Gidhaur","address2":"","latitude":"24.8651","longitude":"86.3122","accuracy":"4"},{"address3":"Suggi","state":"Bihar","state_code":"34","district":"Jamui","district_code":"238","address1":"Jamui","address2":"","latitude":"24.7838","longitude":"86.2952","accuracy":"4"},{"address3":"Sonpai","state":"Bihar","state_code":"34","district":"Jamui","district_code":"238","address1":"Jamui","address2":"","latitude":"24.9119","longitude":"86.2508","accuracy":"4"},{"address3":"Chuwan","state":"Bihar","state_code":"34","district":"Jamui","district_code":"238","address1":"Khaira","address2":"","latitude":"24.8528","longitude":"86.1065","accuracy":"3"},{"address3":"Keshopur","state":"Bihar","state_code":"34","district":"Jamui","district_code":"238","address1":"Jhajha","address2":"","latitude":"24.8288","longitude":"86.3402","accuracy":"4"},{"address3":"Banpur","state":"Bihar","state_code":"34","district":"Jamui","district_code":"238","address1":"Khaira","address2":"","latitude":"24.8804","longitude":"86.2703","accuracy":"4"},{"address3":"Ratanpur","state":"Bihar","state_code":"34","district":"Jamui","district_code":"238","address1":"Gidhaur","address2":"","latitude":"24.8996","longitude":"86.2888","accuracy":"4"},{"address3":"Chango Dih","state":"Bihar","state_code":"34","district":"Jamui","district_code":"238","address1":"Khira","address2":"","latitude":"24.8528","longitude":"86.1065","accuracy":"3"},{"address3":"Sohjana","state":"Bihar","state_code":"34","district":"Jamui","district_code":"238","address1":"Gidhaur","address2":"","latitude":"24.7838","longitude":"86.2952","accuracy":"4"},{"address3":"Kharhawa","state":"Bihar","state_code":"34","district":"Jamui","district_code":"238","address1":"Gidhaur","address2":"","latitude":"24.8528","longitude":"86.1065","accuracy":"3"},{"address3":"Maura","state":"Bihar","state_code":"34","district":"Jamui","district_code":"238","address1":"Gidhaur","address2":"","latitude":"24.8178","longitude":"86.2914","accuracy":"4"},{"address3":"Gagra","state":"Bihar","state_code":"34","district":"Jamui","district_code":"238","address1":"Gidhaur","address2":"","latitude":"24.8528","longitude":"86.1065","accuracy":"3"},{"address3":"Dabil","state":"Bihar","state_code":"34","district":"Jamui","district_code":"238","address1":"Jamui","address2":"","latitude":"24.8934","longitude":"86.2367","accuracy":"4"},{"address3":"Tihiya","state":"Bihar","state_code":"34","district":"Jamui","district_code":"238","address1":"Khaira","address2":"","latitude":"24.8528","longitude":"86.1065","accuracy":"3"},{"address3":"Dhamna","state":"Bihar","state_code":"34","district":"Jamui","district_code":"238","address1":"Gidhaur","address2":"","latitude":"24.8544","longitude":"86.3587","accuracy":"4"},{"address3":"Ghughuldih","state":"Bihar","state_code":"34","district":"Jamui","district_code":"238","address1":"Barhat","address2":"","latitude":"24.8528","longitude":"86.1065","accuracy":"3"},{"address3":"Garsanda","state":"Bihar","state_code":"34","district":"Jamui","district_code":"238","address1":"Jamui","address2":"","latitude":"24.9023","longitude":"86.244","accuracy":"4"},{"address3":"Teliya Dih","state":"Bihar","state_code":"34","district":"Jamui","district_code":"238","address1":"Jhajha","address2":"","latitude":"24.8528","longitude":"86.1065","accuracy":"3"},{"address3":"Nayagaon","state":"Bihar","state_code":"34","district":"Jamui","district_code":"238","address1":"Gidhaur","address2":"","latitude":"24.9085","longitude":"86.3104","accuracy":"4"},{"address3":"Kewal Fariyatta","state":"Bihar","state_code":"34","district":"Jamui","district_code":"238","address1":"Khira","address2":"","latitude":"24.8528","longitude":"86.1065","accuracy":"3"},{"address3":"Mango Bandar","state":"Bihar","state_code":"34","district":"Jamui","district_code":"238","address1":"Khiara","address2":"","latitude":"24.8528","longitude":"86.1065","accuracy":"3"},{"address3":"Sevai","state":"Bihar","state_code":"34","district":"Jamui","district_code":"238","address1":"Gidhaur","address2":"","latitude":"24.8528","longitude":"86.1065","accuracy":"3"}],"811307":[{"address3":"Jamui H.O","state":"Bihar","state_code":"34","district":"Jamui","district_code":"238","address1":"Jamui","address2":"","latitude":"24.9282","longitude":"86.1992","accuracy":"1"},{"address3":"Jamui Court","state":"Bihar","state_code":"34","district":"Jamui","district_code":"238","address1":"Jamui","address2":"","latitude":"24.9282","longitude":"86.1992","accuracy":"1"}],"811308":[{"address3":"Phulhara","state":"Bihar","state_code":"34","district":"Banka","district_code":"225","address1":"Chandan","address2":"","latitude":"24.8537","longitude":"86.8409","accuracy":"4"},{"address3":"Chain","state":"Bihar","state_code":"34","district":"Jamui","district_code":"238","address1":"Jhajha","address2":"","latitude":"24.7416","longitude":"86.4085","accuracy":"4"},{"address3":"Narganjo","state":"Bihar","state_code":"34","district":"Jamui","district_code":"238","address1":"Jhajha","address2":"","latitude":"24.7419","longitude":"86.4667","accuracy":"4"},{"address3":"Hathia","state":"Bihar","state_code":"34","district":"Jamui","district_code":"238","address1":"Jhajha","address2":"","latitude":"24.7704","longitude":"86.3533","accuracy":"4"},{"address3":"Sugba Urown","state":"Bihar","state_code":"34","district":"Jamui","district_code":"238","address1":"Jhajha","address2":"","latitude":"24.897","longitude":"86.3813","accuracy":"3"},{"address3":"Baijla","state":"Bihar","state_code":"34","district":"Jamui","district_code":"238","address1":"Jhajha","address2":"","latitude":"24.8668","longitude":"86.4534","accuracy":"4"},{"address3":"Batia","state":"Bihar","state_code":"34","district":"Jamui","district_code":"238","address1":"Sono","address2":"","latitude":"24.6432","longitude":"86.3549","accuracy":"4"},{"address3":"Fatehpur","state":"Bihar","state_code":"34","district":"Jamui","district_code":"238","address1":"Jhajha","address2":"","latitude":"24.8167","longitude":"86.4432","accuracy":"4"},{"address3":"T. Barajor","state":"Bihar","state_code":"34","district":"Jamui","district_code":"238","address1":"Jhajha","address2":"","latitude":"24.897","longitude":"86.3813","accuracy":"3"},{"address3":"Karhara","state":"Bihar","state_code":"34","district":"Jamui","district_code":"238","address1":"Jhajha","address2":"","latitude":"24.8273","longitude":"86.4426","accuracy":"4"},{"address3":"T. Chhapa","state":"Bihar","state_code":"34","district":"Jamui","district_code":"238","address1":"Jhajah","address2":"","latitude":"24.897","longitude":"86.3813","accuracy":"3"},{"address3":"Jhajha","state":"Bihar","state_code":"34","district":"Jamui","district_code":"238","address1":"Jhajha","address2":"","latitude":"24.7711","longitude":"86.3789","accuracy":"4"},{"address3":"Karma Borba","state":"Bihar","state_code":"34","district":"Jamui","district_code":"238","address1":"Jhajha","address2":"","latitude":"24.897","longitude":"86.3813","accuracy":"3"},{"address3":"Chhapar Dih","state":"Bihar","state_code":"34","district":"Jamui","district_code":"238","address1":"Sono","address2":"","latitude":"24.897","longitude":"86.3813","accuracy":"3"},{"address3":"Rajala","state":"Bihar","state_code":"34","district":"Jamui","district_code":"238","address1":"Jhajha","address2":"","latitude":"24.897","longitude":"86.3813","accuracy":"3"},{"address3":"Jhajha Bazar","state":"Bihar","state_code":"34","district":"Jamui","district_code":"238","address1":"Jhajha","address2":"","latitude":"24.897","longitude":"86.3813","accuracy":"3"},{"address3":"Tabha","state":"Bihar","state_code":"34","district":"Jamui","district_code":"238","address1":"Jhajha","address2":"","latitude":"24.897","longitude":"86.3813","accuracy":"3"},{"address3":"Sahiya","state":"Bihar","state_code":"34","district":"Jamui","district_code":"238","address1":"Jhajha","address2":"","latitude":"24.897","longitude":"86.3813","accuracy":"3"},{"address3":"T. Barmasia","state":"Bihar","state_code":"34","district":"Jamui","district_code":"238","address1":"Jhajha","address2":"","latitude":"24.897","longitude":"86.3813","accuracy":"3"}],"811309":[{"address3":"Arma","state":"Bihar","state_code":"34","district":"Lakhisarai","district_code":"227","address1":"Surajgarha","address2":"","latitude":"25.1966","longitude":"86.2468","accuracy":"4"},{"address3":"Pawai","state":"Bihar","state_code":"34","district":"Lakhisarai","district_code":"227","address1":"Surajgarha","address2":"","latitude":"25.174","longitude":"86.1975","accuracy":"4"},{"address3":"Urain","state":"Bihar","state_code":"34","district":"Lakhisarai","district_code":"227","address1":"Surajgarha","address2":"","latitude":"25.0733","longitude":"86.4276","accuracy":"3"},{"address3":"Kajra","state":"Bihar","state_code":"34","district":"Lakhisarai","district_code":"227","address1":"Lakhisarai","address2":"","latitude":"25.1555","longitude":"86.1312","accuracy":"4"},{"address3":"Lai","state":"Bihar","state_code":"34","district":"Lakhisarai","district_code":"227","address1":"Surajgarha","address2":"","latitude":"25.1597","longitude":"86.1973","accuracy":"4"},{"address3":"Pokhrama","state":"Bihar","state_code":"34","district":"Lakhisarai","district_code":"227","address1":"Surajgarha","address2":"","latitude":"25.0733","longitude":"86.4276","accuracy":"3"}],"811310":[{"address3":"Singhchak","state":"Bihar","state_code":"34","district":"Lakhisarai","district_code":"227","address1":"NA","address2":"","latitude":"25.0794","longitude":"86.1733","accuracy":"3"},{"address3":"Gopalpur","state":"Bihar","state_code":"34","district":"Lakhisarai","district_code":"227","address1":"Bannu Bagicha","address2":"","latitude":"25.0296","longitude":"86.1991","accuracy":"4"},{"address3":"Malia","state":"Bihar","state_code":"34","district":"Lakhisarai","district_code":"227","address1":"Chanan (bannu Bagicha)","address2":"","latitude":"25.0845","longitude":"86.1408","accuracy":"4"},{"address3":"Sahoor","state":"Bihar","state_code":"34","district":"Lakhisarai","district_code":"227","address1":"Surajgarha","address2":"","latitude":"25.0794","longitude":"86.1733","accuracy":"3"},{"address3":"Kiul-rs","state":"Bihar","state_code":"34","district":"Lakhisarai","district_code":"227","address1":"Lakhisarai","address2":"","latitude":"25.0794","longitude":"86.1733","accuracy":"3"},{"address3":"Rampur","state":"Bihar","state_code":"34","district":"Lakhisarai","district_code":"227","address1":"Lakhisarai","address2":"","latitude":"25.0675","longitude":"86.1594","accuracy":"4"},{"address3":"Mano","state":"Bihar","state_code":"34","district":"Lakhisarai","district_code":"227","address1":"Surajgarha","address2":"","latitude":"25.1814","longitude":"86.1571","accuracy":"4"},{"address3":"Bandhu Bagicha","state":"Bihar","state_code":"34","district":"Lakhisarai","district_code":"227","address1":"Bandhu Bagicha","address2":"","latitude":"25.0794","longitude":"86.1733","accuracy":"3"},{"address3":"Mananpur","state":"Bihar","state_code":"34","district":"Lakhisarai","district_code":"227","address1":"Chanan(bannu Bagicha)","address2":"","latitude":"25.0423","longitude":"86.1961","accuracy":"4"},{"address3":"Sangrampur","state":"Bihar","state_code":"34","district":"Lakhisarai","district_code":"227","address1":"Lakhisarai","address2":"","latitude":"25.0711","longitude":"86.1871","accuracy":"4"},{"address3":"Janki Dih Beldaria","state":"Bihar","state_code":"34","district":"Lakhisarai","district_code":"227","address1":"Bannu Bagicha","address2":"","latitude":"25.0794","longitude":"86.1733","accuracy":"3"},{"address3":"Shobhani","state":"Bihar","state_code":"34","district":"Lakhisarai","district_code":"227","address1":"Lakhisarai","address2":"","latitude":"25.0794","longitude":"86.1733","accuracy":"3"},{"address3":"Bichhwey","state":"Bihar","state_code":"34","district":"Lakhisarai","district_code":"227","address1":"Bannu Bagicha","address2":"","latitude":"25.0794","longitude":"86.1733","accuracy":"3"}],"811311":[{"address3":"Ramgarh","state":"Bihar","state_code":"34","district":"Munger","district_code":"226","address1":"Ramgarh","address2":"","latitude":"25.21","longitude":"86.5274","accuracy":"4"},{"address3":"Belari","state":"Bihar","state_code":"34","district":"Lakhisarai","district_code":"227","address1":"Lakhisarai","address2":"","latitude":"25.1555","longitude":"86.1312","accuracy":"4"},{"address3":"Konag","state":"Bihar","state_code":"34","district":"Lakhisarai","district_code":"227","address1":"Lakhisarai","address2":"","latitude":"25.0295","longitude":"86.0791","accuracy":"4"},{"address3":"C.R.Lakhisarai","state":"Bihar","state_code":"34","district":"Lakhisarai","district_code":"227","address1":"Lakhisarai","address2":"","latitude":"25.1717","longitude":"85.9452","accuracy":"3"},{"address3":"Parsama","state":"Bihar","state_code":"34","district":"Lakhisarai","district_code":"227","address1":"Ramgarh Chowk","address2":"","latitude":"25.1555","longitude":"86.1312","accuracy":"4"},{"address3":"Mankattha","state":"Bihar","state_code":"34","district":"Lakhisarai","district_code":"227","address1":"Lakhisarai","address2":"","latitude":"25.1717","longitude":"85.9452","accuracy":"3"},{"address3":"Walipur","state":"Bihar","state_code":"34","district":"Lakhisarai","district_code":"227","address1":"Piparia","address2":"","latitude":"25.2451","longitude":"86.14","accuracy":"4"},{"address3":"Ramchandrapur","state":"Bihar","state_code":"34","district":"Lakhisarai","district_code":"227","address1":"Pipariya","address2":"","latitude":"25.1555","longitude":"86.1312","accuracy":"4"},{"address3":"Mohanpur","state":"Bihar","state_code":"34","district":"Lakhisarai","district_code":"227","address1":"Lakhisarai","address2":"","latitude":"25.143","longitude":"86.1544","accuracy":"4"},{"address3":"S Salaunja","state":"Bihar","state_code":"34","district":"Lakhisarai","district_code":"227","address1":"Halsi","address2":"","latitude":"25.1717","longitude":"85.9452","accuracy":"3"},{"address3":"Ramnagar","state":"Bihar","state_code":"34","district":"Lakhisarai","district_code":"227","address1":"Pipaia","address2":"","latitude":"25.1206","longitude":"86.1557","accuracy":"4"},{"address3":"Dihra","state":"Bihar","state_code":"34","district":"Lakhisarai","district_code":"227","address1":"Lakhisarai","address2":"","latitude":"25.1555","longitude":"86.1312","accuracy":"4"},{"address3":"Tetarhat","state":"Bihar","state_code":"34","district":"Lakhisarai","district_code":"227","address1":"Ramgarh Chowk","address2":"","latitude":"25.0797","longitude":"86.1227","accuracy":"4"},{"address3":"Mahisona","state":"Bihar","state_code":"34","district":"Lakhisarai","district_code":"227","address1":"Lakhisarai","address2":"","latitude":"25.1717","longitude":"85.9452","accuracy":"3"},{"address3":"Balgudar","state":"Bihar","state_code":"34","district":"Lakhisarai","district_code":"227","address1":"Lakhisarai","address2":"","latitude":"25.208","longitude":"86.0769","accuracy":"4"},{"address3":"Nandnama","state":"Bihar","state_code":"34","district":"Lakhisarai","district_code":"227","address1":"Ramgarh Chowkq","address2":"","latitude":"25.1717","longitude":"85.9452","accuracy":"3"},{"address3":"Baghaur","state":"Bihar","state_code":"34","district":"Lakhisarai","district_code":"227","address1":"Halsi","address2":"","latitude":"25.0448","longitude":"86.0782","accuracy":"4"},{"address3":"S Khairma","state":"Bihar","state_code":"34","district":"Lakhisarai","district_code":"227","address1":"Ramgarh Chowk","address2":"","latitude":"25.1717","longitude":"85.9452","accuracy":"3"},{"address3":"Halsi","state":"Bihar","state_code":"34","district":"Lakhisarai","district_code":"227","address1":"Halsi","address2":"","latitude":"25.0333","longitude":"86.0529","accuracy":"4"},{"address3":"Sharma","state":"Bihar","state_code":"34","district":"Lakhisarai","district_code":"227","address1":"Lakhisarai","address2":"","latitude":"25.1717","longitude":"85.9452","accuracy":"3"},{"address3":"Pacham","state":"Bihar","state_code":"34","district":"Lakhisarai","district_code":"227","address1":"Bannubagicha (chanan)","address2":"","latitude":"25.1269","longitude":"86.1305","accuracy":"4"},{"address3":"Aurey","state":"Bihar","state_code":"34","district":"Lakhisarai","district_code":"227","address1":"Ramgarh Chowk","address2":"","latitude":"25.1717","longitude":"85.9452","accuracy":"3"},{"address3":"Lakhisarai","state":"Bihar","state_code":"34","district":"Lakhisarai","district_code":"227","address1":"Lakhisarai","address2":"","latitude":"25.1765","longitude":"86.0947","accuracy":"4"},{"address3":"Rehua","state":"Bihar","state_code":"34","district":"Lakhisarai","district_code":"227","address1":"Surajgarha","address2":"","latitude":"25.1717","longitude":"85.9452","accuracy":"3"},{"address3":"Shiovsona","state":"Bihar","state_code":"34","district":"Lakhisarai","district_code":"227","address1":"Halsi","address2":"","latitude":"25.1717","longitude":"85.9452","accuracy":"3"},{"address3":"Dhiradar","state":"Bihar","state_code":"34","district":"Lakhisarai","district_code":"227","address1":"Lakhisarai","address2":"","latitude":"25.1717","longitude":"85.9452","accuracy":"3"},{"address3":"G Parsando","state":"Bihar","state_code":"34","district":"Lakhisarai","district_code":"227","address1":"Halsi","address2":"","latitude":"25.1717","longitude":"85.9452","accuracy":"3"},{"address3":"Kisanpur","state":"Bihar","state_code":"34","district":"Lakhisarai","district_code":"227","address1":"Lakhisarai","address2":"","latitude":"25.1717","longitude":"85.9452","accuracy":"3"},{"address3":"Lakhisarai Court","state":"Bihar","state_code":"34","district":"Lakhisarai","district_code":"227","address1":"Lakhisarai","address2":"","latitude":"25.1717","longitude":"85.9452","accuracy":"3"},{"address3":"P.B.Lakhisarai","state":"Bihar","state_code":"34","district":"Lakhisarai","district_code":"227","address1":"Lakhisarai","address2":"","latitude":"25.1717","longitude":"85.9452","accuracy":"3"},{"address3":"Bhabangawan","state":"Bihar","state_code":"34","district":"Lakhisarai","district_code":"227","address1":"Lakhisarai","address2":"","latitude":"25.1717","longitude":"85.9452","accuracy":"3"},{"address3":"Damodar Pur","state":"Bihar","state_code":"34","district":"Lakhisarai","district_code":"227","address1":"Lakhisarai","address2":"","latitude":"25.1717","longitude":"85.9452","accuracy":"3"},{"address3":"Kendi","state":"Bihar","state_code":"34","district":"Lakhisarai","district_code":"227","address1":"Halsi","address2":"","latitude":"25.1717","longitude":"85.9452","accuracy":"3"},{"address3":"Manjhway","state":"Bihar","state_code":"34","district":"Jamui","district_code":"238","address1":"Jamui","address2":"","latitude":"25.1717","longitude":"85.9452","accuracy":"3"}],"811312":[{"address3":"Kala","state":"Bihar","state_code":"34","district":"Jamui","district_code":"238","address1":"Laxmipur","address2":"","latitude":"24.9605","longitude":"86.4063","accuracy":"4"},{"address3":"Telia Dih","state":"Bihar","state_code":"34","district":"Jamui","district_code":"238","address1":"Laxmipur","address2":"","latitude":"24.7838","longitude":"86.2952","accuracy":"4"},{"address3":"Gaura","state":"Bihar","state_code":"34","district":"Jamui","district_code":"238","address1":"Laxmipur","address2":"","latitude":"24.9643","longitude":"86.3739","accuracy":"4"},{"address3":"Domamarhar","state":"Bihar","state_code":"34","district":"Jamui","district_code":"238","address1":"Laxmipur","address2":"","latitude":"25.1014","longitude":"86.0723","accuracy":"3"},{"address3":"Arbaria","state":"Bihar","state_code":"34","district":"Jamui","district_code":"238","address1":"Laxmipur","address2":"","latitude":"24.6709","longitude":"86.3122","accuracy":"4"},{"address3":"Laxmipur (Jamui)","state":"Bihar","state_code":"34","district":"Jamui","district_code":"238","address1":"Laxmipur","address2":"","latitude":"25.1014","longitude":"86.0723","accuracy":"3"},{"address3":"Anandpur","state":"Bihar","state_code":"34","district":"Jamui","district_code":"238","address1":"Laxmipur","address2":"","latitude":"24.7838","longitude":"86.2952","accuracy":"4"},{"address3":"Matia","state":"Bihar","state_code":"34","district":"Jamui","district_code":"238","address1":"Laxmipur","address2":"","latitude":"24.9809","longitude":"86.3409","accuracy":"4"},{"address3":"Dighi","state":"Bihar","state_code":"34","district":"Jamui","district_code":"238","address1":"Laxmipur","address2":"","latitude":"24.9352","longitude":"86.4332","accuracy":"4"}],"811313":[{"address3":"Maniyadda","state":"Bihar","state_code":"34","district":"Jamui","district_code":"238","address1":"Jamui","address2":"","latitude":"24.9477","longitude":"86.2279","accuracy":"3"},{"address3":"Dhand","state":"Bihar","state_code":"34","district":"Jamui","district_code":"238","address1":"Jamui","address2":"","latitude":"24.9477","longitude":"86.2279","accuracy":"3"},{"address3":"Bariarpur","state":"Bihar","state_code":"34","district":"Jamui","district_code":"238","address1":"Laxmipur","address2":"","latitude":"24.9837","longitude":"86.2426","accuracy":"4"},{"address3":"Lohra","state":"Bihar","state_code":"34","district":"Jamui","district_code":"238","address1":"Jamui","address2":"","latitude":"24.9368","longitude":"86.1754","accuracy":"4"},{"address3":"Bukar","state":"Bihar","state_code":"34","district":"Jamui","district_code":"238","address1":"Jamui","address2":"","latitude":"24.8946","longitude":"86.2753","accuracy":"4"},{"address3":"Agahara Barubatta","state":"Bihar","state_code":"34","district":"Jamui","district_code":"238","address1":"Laxmipur","address2":"","latitude":"24.9477","longitude":"86.2279","accuracy":"3"},{"address3":"Daulatpur","state":"Bihar","state_code":"34","district":"Jamui","district_code":"238","address1":"Jamui","address2":"","latitude":"24.7838","longitude":"86.2952","accuracy":"4"},{"address3":"Barahat","state":"Bihar","state_code":"34","district":"Jamui","district_code":"238","address1":"Barahat","address2":"","latitude":"24.7838","longitude":"86.2952","accuracy":"4"},{"address3":"Arsar","state":"Bihar","state_code":"34","district":"Jamui","district_code":"238","address1":"Jamui","address2":"","latitude":"24.9495","longitude":"86.1496","accuracy":"4"},{"address3":"Pathakchak","state":"Bihar","state_code":"34","district":"Jamui","district_code":"238","address1":"Jamui","address2":"","latitude":"24.9477","longitude":"86.2279","accuracy":"3"},{"address3":"Kharsari","state":"Bihar","state_code":"34","district":"Jamui","district_code":"238","address1":"Jamui","address2":"","latitude":"24.9774","longitude":"86.1327","accuracy":"4"},{"address3":"Katauna","state":"Bihar","state_code":"34","district":"Jamui","district_code":"238","address1":"Barhat","address2":"","latitude":"24.9434","longitude":"86.2622","accuracy":"4"},{"address3":"Kolhua","state":"Bihar","state_code":"34","district":"Jamui","district_code":"238","address1":"Jamui","address2":"","latitude":"24.8716","longitude":"86.2718","accuracy":"4"},{"address3":"Mahadeo Simarai","state":"Bihar","state_code":"34","district":"Jamui","district_code":"238","address1":"Jamui","address2":"","latitude":"24.9477","longitude":"86.2279","accuracy":"3"},{"address3":"Amrath","state":"Bihar","state_code":"34","district":"Jamui","district_code":"238","address1":"Jamui","address2":"","latitude":"24.9528","longitude":"86.1878","accuracy":"4"},{"address3":"Konan","state":"Bihar","state_code":"34","district":"Jamui","district_code":"238","address1":"Jamui","address2":"","latitude":"24.9404","longitude":"86.1243","accuracy":"4"},{"address3":"Khadigram","state":"Bihar","state_code":"34","district":"Jamui","district_code":"238","address1":"Barhat","address2":"","latitude":"24.9477","longitude":"86.2279","accuracy":"3"},{"address3":"Kakan","state":"Bihar","state_code":"34","district":"Jamui","district_code":"238","address1":"Jamui","address2":"","latitude":"25.006","longitude":"86.1688","accuracy":"4"},{"address3":"Choura","state":"Bihar","state_code":"34","district":"Jamui","district_code":"238","address1":"Jamui","address2":"","latitude":"24.9477","longitude":"86.2279","accuracy":"3"},{"address3":"Mallehpur","state":"Bihar","state_code":"34","district":"Jamui","district_code":"238","address1":"Laxmipur","address2":"","latitude":"24.974","longitude":"86.2555","accuracy":"4"},{"address3":"Dhadhour","state":"Bihar","state_code":"34","district":"Jamui","district_code":"238","address1":"Jamui","address2":"","latitude":"24.9477","longitude":"86.2279","accuracy":"3"},{"address3":"Darha","state":"Bihar","state_code":"34","district":"Jamui","district_code":"238","address1":"Barahat","address2":"","latitude":"24.9415","longitude":"86.2934","accuracy":"4"},{"address3":"Numar","state":"Bihar","state_code":"34","district":"Jamui","district_code":"238","address1":"Barhat","address2":"","latitude":"24.96","longitude":"86.2936","accuracy":"4"}],"811314":[{"address3":"Sono","state":"Bihar","state_code":"34","district":"Jamui","district_code":"238","address1":"Sono","address2":"","latitude":"24.7375","longitude":"86.3017","accuracy":"4"},{"address3":"Dhodhari","state":"Bihar","state_code":"34","district":"Jamui","district_code":"238","address1":"Sono","address2":"","latitude":"24.7608","longitude":"86.1832","accuracy":"3"},{"address3":"Dumari","state":"Bihar","state_code":"34","district":"Jamui","district_code":"238","address1":"Sono","address2":"","latitude":"24.7838","longitude":"86.2952","accuracy":"4"},{"address3":"Chhuchhnaria","state":"Bihar","state_code":"34","district":"Jamui","district_code":"238","address1":"Sono","address2":"","latitude":"24.7608","longitude":"86.1832","accuracy":"3"},{"address3":"Bishanpur","state":"Bihar","state_code":"34","district":"Jamui","district_code":"238","address1":"Sono","address2":"","latitude":"24.6659","longitude":"86.2411","accuracy":"4"},{"address3":"Maheshwari","state":"Bihar","state_code":"34","district":"Jamui","district_code":"238","address1":"Sono","address2":"","latitude":"24.7608","longitude":"86.1832","accuracy":"3"},{"address3":"Balthar","state":"Bihar","state_code":"34","district":"Jamui","district_code":"238","address1":"Sono","address2":"","latitude":"24.7604","longitude":"86.2981","accuracy":"4"},{"address3":"Dhundo","state":"Bihar","state_code":"34","district":"Jamui","district_code":"238","address1":"Khaira","address2":"","latitude":"24.7608","longitude":"86.1832","accuracy":"3"},{"address3":"Charkapathal","state":"Bihar","state_code":"34","district":"Jamui","district_code":"238","address1":"Sonoi","address2":"","latitude":"24.7908","longitude":"86.1124","accuracy":"4"},{"address3":"Naiyadih","state":"Bihar","state_code":"34","district":"Jamui","district_code":"238","address1":"Sono","address2":"","latitude":"24.7608","longitude":"86.1832","accuracy":"3"},{"address3":"Loha","state":"Bihar","state_code":"34","district":"Jamui","district_code":"238","address1":"Sono","address2":"","latitude":"24.7279","longitude":"86.3487","accuracy":"4"},{"address3":"Aghara So","state":"Bihar","state_code":"34","district":"Jamui","district_code":"238","address1":"Sono","address2":"","latitude":"24.7608","longitude":"86.1832","accuracy":"3"},{"address3":"P. Matihana","state":"Bihar","state_code":"34","district":"Jamui","district_code":"238","address1":"Sono","address2":"","latitude":"24.7608","longitude":"86.1832","accuracy":"3"}],"811315":[{"address3":"Noma","state":"Bihar","state_code":"34","district":"Lakhisarai","district_code":"227","address1":"Halsi","address2":"","latitude":"25.0421","longitude":"86.0029","accuracy":"4"},{"address3":"Tarhari","state":"Bihar","state_code":"34","district":"Lakhisarai","district_code":"227","address1":"Halsi","address2":"","latitude":"25.017","longitude":"85.9888","accuracy":"4"},{"address3":"Matashi","state":"Bihar","state_code":"34","district":"Lakhisarai","district_code":"227","address1":"Halsi","address2":"","latitude":"24.9843","longitude":"86.0109","accuracy":"3"},{"address3":"Dhira","state":"Bihar","state_code":"34","district":"Lakhisarai","district_code":"227","address1":"Halsi","address2":"","latitude":"25.0126","longitude":"86.0423","accuracy":"4"},{"address3":"Ghonghsa","state":"Bihar","state_code":"34","district":"Lakhisarai","district_code":"227","address1":"Halsi","address2":"","latitude":"24.9843","longitude":"86.0109","accuracy":"3"},{"address3":"M. Nagar","state":"Bihar","state_code":"34","district":"Lakhisarai","district_code":"227","address1":"Halsi","address2":"","latitude":"24.9843","longitude":"86.0109","accuracy":"3"},{"address3":"Belchhi","state":"Bihar","state_code":"34","district":"Sheikhpura","district_code":"228","address1":"Chewara","address2":"","latitude":"25.1013","longitude":"85.8404","accuracy":"4"},{"address3":"Tal Saharsa","state":"Bihar","state_code":"34","district":"Jamui","district_code":"238","address1":"Sikandra","address2":"","latitude":"24.7838","longitude":"86.2952","accuracy":"4"},{"address3":"Sijhauri","state":"Bihar","state_code":"34","district":"Jamui","district_code":"238","address1":"Sikandra","address2":"","latitude":"24.9843","longitude":"86.0109","accuracy":"3"},{"address3":"Karma","state":"Bihar","state_code":"34","district":"Jamui","district_code":"238","address1":"Sikandra","address2":"","latitude":"24.9565","longitude":"86.0541","accuracy":"4"},{"address3":"Sikandra (Jamui)","state":"Bihar","state_code":"34","district":"Jamui","district_code":"238","address1":"Sikandra","address2":"","latitude":"24.9564","longitude":"86.0344","accuracy":"4"},{"address3":"Lachhuar","state":"Bihar","state_code":"34","district":"Jamui","district_code":"238","address1":"Sikandra","address2":"","latitude":"24.916","longitude":"86.015","accuracy":"4"},{"address3":"Pirhinda","state":"Bihar","state_code":"34","district":"Jamui","district_code":"238","address1":"Sikandra","address2":"","latitude":"24.9843","longitude":"86.0109","accuracy":"3"},{"address3":"Mathurapur","state":"Bihar","state_code":"34","district":"Jamui","district_code":"238","address1":"Sikandra","address2":"","latitude":"24.9073","longitude":"85.9836","accuracy":"4"},{"address3":"Sarsa Bichwe","state":"Bihar","state_code":"34","district":"Jamui","district_code":"238","address1":"Sikandra","address2":"","latitude":"24.9843","longitude":"86.0109","accuracy":"3"},{"address3":"Khardih","state":"Bihar","state_code":"34","district":"Jamui","district_code":"238","address1":"Sikandra","address2":"","latitude":"24.9779","longitude":"86.0667","accuracy":"4"},{"address3":"Sawal Bigha","state":"Bihar","state_code":"34","district":"Jamui","district_code":"238","address1":"Sikandra","address2":"","latitude":"24.9843","longitude":"86.0109","accuracy":"3"},{"address3":"Kumar","state":"Bihar","state_code":"34","district":"Jamui","district_code":"238","address1":"Sikandra","address2":"","latitude":"24.9585","longitude":"86.0035","accuracy":"4"},{"address3":"B Bahadurpur","state":"Bihar","state_code":"34","district":"Jamui","district_code":"238","address1":"Sikandra","address2":"","latitude":"24.9843","longitude":"86.0109","accuracy":"3"},{"address3":"Rabai","state":"Bihar","state_code":"34","district":"Jamui","district_code":"238","address1":"Sikandra","address2":"","latitude":"24.9843","longitude":"86.0109","accuracy":"3"},{"address3":"Manjosh","state":"Bihar","state_code":"34","district":"Jamui","district_code":"238","address1":"Sikandra","address2":"","latitude":"24.9843","longitude":"86.0109","accuracy":"3"},{"address3":"Patambar","state":"Bihar","state_code":"34","district":"Jamui","district_code":"238","address1":"Sikandra","address2":"","latitude":"24.9843","longitude":"86.0109","accuracy":"3"}],"811316":[{"address3":"Mohanpur","state":"Bihar","state_code":"34","district":"Jamui","district_code":"238","address1":"Chakai","address2":"","latitude":"24.9239","longitude":"86.4206","accuracy":"4"},{"address3":"Kharma","state":"Bihar","state_code":"34","district":"Jamui","district_code":"238","address1":"NA","address2":"","latitude":"24.8626","longitude":"86.3378","accuracy":"3"},{"address3":"Kewal","state":"Bihar","state_code":"34","district":"Jamui","district_code":"238","address1":"Chakai","address2":"","latitude":"24.8013","longitude":"86.255","accuracy":"4"},{"address3":"Khuranda","state":"Bihar","state_code":"34","district":"Jamui","district_code":"238","address1":"Jhajha","address2":"","latitude":"24.8626","longitude":"86.3378","accuracy":"3"},{"address3":"Simultala","state":"Bihar","state_code":"34","district":"Jamui","district_code":"238","address1":"Jhajha","address2":"","latitude":"24.8626","longitude":"86.3378","accuracy":"3"},{"address3":"Bisodah","state":"Bihar","state_code":"34","district":"Jamui","district_code":"238","address1":"Chakai","address2":"","latitude":"24.8626","longitude":"86.3378","accuracy":"3"},{"address3":"Telwa Bazar","state":"Bihar","state_code":"34","district":"Jamui","district_code":"238","address1":"Jhajha","address2":"","latitude":"24.8626","longitude":"86.3378","accuracy":"3"}],"811317":[{"address3":"Amari","state":"Bihar","state_code":"34","district":"Jamui","district_code":"238","address1":"Jamui","address2":"","latitude":"24.9013","longitude":"86.1992","accuracy":"4"},{"address3":"Dumarkola","state":"Bihar","state_code":"34","district":"Jamui","district_code":"238","address1":"Jamui","address2":"","latitude":"24.894","longitude":"86.1756","accuracy":"4"},{"address3":"Harkhar","state":"Bihar","state_code":"34","district":"Jamui","district_code":"238","address1":"Khaira","address2":"","latitude":"24.7999","longitude":"86.0558","accuracy":"4"},{"address3":"Khaira (Jamui)","state":"Bihar","state_code":"34","district":"Jamui","district_code":"238","address1":"Khaira","address2":"","latitude":"24.839","longitude":"86.1605","accuracy":"3"},{"address3":"Garhi","state":"Bihar","state_code":"34","district":"Jamui","district_code":"238","address1":"Khaira","address2":"","latitude":"24.7904","longitude":"86.0768","accuracy":"4"},{"address3":"Nimnawada","state":"Bihar","state_code":"34","district":"Jamui","district_code":"238","address1":"Khaira Bo","address2":"","latitude":"24.839","longitude":"86.1605","accuracy":"3"},{"address3":"Barabandh","state":"Bihar","state_code":"34","district":"Jamui","district_code":"238","address1":"Khaira","address2":"","latitude":"24.8077","longitude":"86.217","accuracy":"4"},{"address3":"Pradhanchak","state":"Bihar","state_code":"34","district":"Jamui","district_code":"238","address1":"Khaira","address2":"","latitude":"24.839","longitude":"86.1605","accuracy":"3"},{"address3":"Gopalpur","state":"Bihar","state_code":"34","district":"Jamui","district_code":"238","address1":"Khaira","address2":"","latitude":"24.8619","longitude":"86.2053","accuracy":"4"},{"address3":"Dundo","state":"Bihar","state_code":"34","district":"Jamui","district_code":"238","address1":"Jamui","address2":"","latitude":"24.839","longitude":"86.1605","accuracy":"3"},{"address3":"Baribag","state":"Bihar","state_code":"34","district":"Jamui","district_code":"238","address1":"Khaira","address2":"","latitude":"24.8182","longitude":"86.1937","accuracy":"4"},{"address3":"Chanashly","state":"Bihar","state_code":"34","district":"Jamui","district_code":"238","address1":"Khiara","address2":"","latitude":"24.839","longitude":"86.1605","accuracy":"3"},{"address3":"Bhour","state":"Bihar","state_code":"34","district":"Jamui","district_code":"238","address1":"Khiara","address2":"","latitude":"24.839","longitude":"86.1605","accuracy":"3"},{"address3":"Jit Jhingoibo","state":"Bihar","state_code":"34","district":"Jamui","district_code":"238","address1":"Khaira","address2":"","latitude":"24.839","longitude":"86.1605","accuracy":"3"},{"address3":"Mundbaro","state":"Bihar","state_code":"34","district":"Jamui","district_code":"238","address1":"Khaira","address2":"","latitude":"24.839","longitude":"86.1605","accuracy":"3"},{"address3":"Nariyana","state":"Bihar","state_code":"34","district":"Jamui","district_code":"238","address1":"Khaira","address2":"","latitude":"24.839","longitude":"86.1605","accuracy":"3"},{"address3":"Khelari","state":"Bihar","state_code":"34","district":"Jamui","district_code":"238","address1":"Khaira","address2":"","latitude":"24.839","longitude":"86.1605","accuracy":"3"},{"address3":"Kharaich","state":"Bihar","state_code":"34","district":"Jamui","district_code":"238","address1":"Khaira","address2":"","latitude":"24.839","longitude":"86.1605","accuracy":"3"},{"address3":"Gadibishanpur","state":"Bihar","state_code":"34","district":"Jamui","district_code":"238","address1":"Khaira","address2":"","latitude":"24.839","longitude":"86.1605","accuracy":"3"}],"credits":[{"name":"geonames","url":"https://www.geonames.org"}],"last_update":"2019-03-01T09:01:37.437Z"}