{"816101":[{"address3":"Atapur","state":"Jharkhand","state_code":"38","district":"Sahibganj","district_code":"352","address1":"Rajmahal","address2":"","latitude":"24.6552","longitude":"87.7409","accuracy":"3"},{"address3":"Jampur","state":"Jharkhand","state_code":"38","district":"Sahibganj","district_code":"352","address1":"Barharwa","address2":"","latitude":"25.0081","longitude":"87.6796","accuracy":"4"},{"address3":"Barharwa (Sahibganj)","state":"Jharkhand","state_code":"38","district":"Sahibganj","district_code":"352","address1":"Barharwa","address2":"","latitude":"24.8571","longitude":"87.779","accuracy":"4"},{"address3":"Baradighi","state":"Jharkhand","state_code":"38","district":"Sahibganj","district_code":"352","address1":"Pathna","address2":"","latitude":"24.6552","longitude":"87.7409","accuracy":"3"},{"address3":"Ganeshpur","state":"Jharkhand","state_code":"38","district":"Sahibganj","district_code":"352","address1":"Barharwa","address2":"","latitude":"25.0081","longitude":"87.6796","accuracy":"4"},{"address3":"Kankjol","state":"Jharkhand","state_code":"38","district":"Sahibganj","district_code":"352","address1":"Barharwa","address2":"","latitude":"25.0081","longitude":"87.6796","accuracy":"4"},{"address3":"Palasbona","state":"Jharkhand","state_code":"38","district":"Sahibganj","district_code":"352","address1":"Barharwa","address2":"","latitude":"24.6552","longitude":"87.7409","accuracy":"3"},{"address3":"Reshore","state":"Jharkhand","state_code":"38","district":"Sahibganj","district_code":"352","address1":"Barharwa","address2":"","latitude":"24.6552","longitude":"87.7409","accuracy":"3"},{"address3":"Radhanager","state":"Jharkhand","state_code":"38","district":"Sahibganj","district_code":"352","address1":"Uedhwa","address2":"","latitude":"24.6552","longitude":"87.7409","accuracy":"3"},{"address3":"Masna","state":"Jharkhand","state_code":"38","district":"Sahibganj","district_code":"352","address1":"Uedhwa","address2":"","latitude":"24.6552","longitude":"87.7409","accuracy":"3"},{"address3":"Kathalbari","state":"Jharkhand","state_code":"38","district":"Sahibganj","district_code":"352","address1":"Udhua","address2":"","latitude":"24.6552","longitude":"87.7409","accuracy":"3"},{"address3":"Goalkhor","state":"Jharkhand","state_code":"38","district":"Sahibganj","district_code":"352","address1":"Barharwa","address2":"","latitude":"24.6552","longitude":"87.7409","accuracy":"3"},{"address3":"Bakudih","state":"Jharkhand","state_code":"38","district":"Sahibganj","district_code":"352","address1":"Taljhari","address2":"","latitude":"24.6552","longitude":"87.7409","accuracy":"3"},{"address3":"Kelabari","state":"Jharkhand","state_code":"38","district":"Sahibganj","district_code":"352","address1":"Udhua","address2":"","latitude":"24.6552","longitude":"87.7409","accuracy":"3"},{"address3":"Aglio","state":"Jharkhand","state_code":"38","district":"Sahibganj","district_code":"352","address1":"Borio","address2":"","latitude":"24.6552","longitude":"87.7409","accuracy":"3"},{"address3":"Ishlampur","state":"Jharkhand","state_code":"38","district":"Sahibganj","district_code":"352","address1":"Barharwa","address2":"","latitude":"24.6552","longitude":"87.7409","accuracy":"3"},{"address3":"Sridhardira","state":"Jharkhand","state_code":"38","district":"Sahibganj","district_code":"352","address1":"Uedhua","address2":"","latitude":"24.6552","longitude":"87.7409","accuracy":"3"},{"address3":"Srikund","state":"Jharkhand","state_code":"38","district":"Sahibganj","district_code":"352","address1":"Barharwa","address2":"","latitude":"24.6552","longitude":"87.7409","accuracy":"3"},{"address3":"Ranigram","state":"Jharkhand","state_code":"38","district":"Sahibganj","district_code":"352","address1":"Barharwa","address2":"","latitude":"24.6552","longitude":"87.7409","accuracy":"3"},{"address3":"Chandsaher","state":"Jharkhand","state_code":"38","district":"Sahibganj","district_code":"352","address1":"Udhua","address2":"","latitude":"24.6552","longitude":"87.7409","accuracy":"3"},{"address3":"Begamganj","state":"Jharkhand","state_code":"38","district":"Sahibganj","district_code":"352","address1":"Rajmahal","address2":"","latitude":"24.6552","longitude":"87.7409","accuracy":"3"}],"816102":[{"address3":"Dhamni","state":"Jharkhand","state_code":"38","district":"Godda","district_code":"351","address1":"Sunderpahari","address2":"","latitude":"24.7943","longitude":"87.477","accuracy":"4"},{"address3":"Simlongcolliery","state":"Jharkhand","state_code":"38","district":"Godda","district_code":"351","address1":"Sunderpahari","address2":"","latitude":"24.6044","longitude":"86.1935","accuracy":"3"},{"address3":"Kusmaha","state":"Jharkhand","state_code":"38","district":"Sahibganj","district_code":"352","address1":"Barhait","address2":"","latitude":"25.0081","longitude":"87.6796","accuracy":"4"},{"address3":"Barhait","state":"Jharkhand","state_code":"38","district":"Sahibganj","district_code":"352","address1":"Barhait","address2":"","latitude":"24.6044","longitude":"86.1935","accuracy":"3"},{"address3":"Bhognadih","state":"Jharkhand","state_code":"38","district":"Sahibganj","district_code":"352","address1":"Barhait","address2":"","latitude":"24.8668","longitude":"87.6007","accuracy":"4"},{"address3":"P.K.Bazar","state":"Jharkhand","state_code":"38","district":"Sahibganj","district_code":"352","address1":"Barhait","address2":"","latitude":"24.6044","longitude":"86.1935","accuracy":"3"},{"address3":"Talbaria","state":"Jharkhand","state_code":"38","district":"Sahibganj","district_code":"352","address1":"Barhit","address2":"","latitude":"25.0081","longitude":"87.6796","accuracy":"4"},{"address3":"Phulbanga","state":"Jharkhand","state_code":"38","district":"Sahibganj","district_code":"352","address1":"Barhait","address2":"","latitude":"24.6044","longitude":"86.1935","accuracy":"3"},{"address3":"Rohra","state":"Jharkhand","state_code":"38","district":"Sahibganj","district_code":"352","address1":"Barhait","address2":"","latitude":"25.0081","longitude":"87.6796","accuracy":"4"},{"address3":"B.Kadma","state":"Jharkhand","state_code":"38","district":"Sahibganj","district_code":"352","address1":"Barhait","address2":"","latitude":"24.6044","longitude":"86.1935","accuracy":"3"},{"address3":"Barmasia","state":"Jharkhand","state_code":"38","district":"Sahibganj","district_code":"352","address1":"NA","address2":"","latitude":"25.0081","longitude":"87.6796","accuracy":"4"},{"address3":"Borbandh","state":"Jharkhand","state_code":"38","district":"Sahibganj","district_code":"352","address1":"Barhait","address2":"","latitude":"24.6044","longitude":"86.1935","accuracy":"3"},{"address3":"Labri","state":"Jharkhand","state_code":"38","district":"Sahibganj","district_code":"352","address1":"Barhait","address2":"","latitude":"24.6044","longitude":"86.1935","accuracy":"3"},{"address3":"J.Kumarjori","state":"Jharkhand","state_code":"38","district":"Sahibganj","district_code":"352","address1":"Borio","address2":"","latitude":"24.6044","longitude":"86.1935","accuracy":"3"},{"address3":"Baraghaghri","state":"Jharkhand","state_code":"38","district":"Pakur","district_code":"353","address1":"Littipara","address2":"","latitude":"24.6044","longitude":"86.1935","accuracy":"3"}],"816103":[{"address3":"Ganpura","state":"Jharkhand","state_code":"38","district":"Pakur","district_code":"353","address1":"Pakuria","address2":"","latitude":"24.3424","longitude":"87.2641","accuracy":"3"},{"address3":"Sarasdangal","state":"Jharkhand","state_code":"38","district":"Dumka","district_code":"362","address1":"Shikaripara","address2":"","latitude":"24.3424","longitude":"87.2641","accuracy":"3"},{"address3":"Daldali","state":"Jharkhand","state_code":"38","district":"Dumka","district_code":"362","address1":"Shikaripara","address2":"","latitude":"24.388","longitude":"87.5131","accuracy":"4"},{"address3":"Kajladaha","state":"Jharkhand","state_code":"38","district":"Dumka","district_code":"362","address1":"Shikaripara","address2":"","latitude":"24.3424","longitude":"87.2641","accuracy":"3"},{"address3":"Manjhladih","state":"Jharkhand","state_code":"38","district":"Dumka","district_code":"362","address1":"Shikaripara","address2":"","latitude":"24.3197","longitude":"87.2666","accuracy":"4"},{"address3":"Pinargaria","state":"Jharkhand","state_code":"38","district":"Dumka","district_code":"362","address1":"Shikaripara","address2":"","latitude":"24.3424","longitude":"87.2641","accuracy":"3"},{"address3":"Benagaria","state":"Jharkhand","state_code":"38","district":"Dumka","district_code":"362","address1":"Shikaripara","address2":"","latitude":"24.1881","longitude":"87.612","accuracy":"4"},{"address3":"Pakdaha","state":"Jharkhand","state_code":"38","district":"Dumka","district_code":"362","address1":"Shikripara","address2":"","latitude":"24.3424","longitude":"87.2641","accuracy":"3"},{"address3":"Maluti","state":"Jharkhand","state_code":"38","district":"Dumka","district_code":"362","address1":"Shikaripara","address2":"","latitude":"24.1587","longitude":"87.6743","accuracy":"4"},{"address3":"Catupara","state":"Jharkhand","state_code":"38","district":"Dumka","district_code":"362","address1":"Shikaripara","address2":"","latitude":"24.3424","longitude":"87.2641","accuracy":"3"},{"address3":"Banspahari","state":"Jharkhand","state_code":"38","district":"Dumka","district_code":"362","address1":"Shikaripara","address2":"","latitude":"24.4248","longitude":"87.5311","accuracy":"4"}],"816104":[{"address3":"Dangapara","state":"Jharkhand","state_code":"38","district":"Pakur","district_code":"353","address1":"Hiranpur","address2":"","latitude":"24.6693","longitude":"87.5466","accuracy":"4"},{"address3":"Hiranpur","state":"Jharkhand","state_code":"38","district":"Pakur","district_code":"353","address1":"Hiranpur","address2":"","latitude":"24.7051","longitude":"87.702","accuracy":"4"},{"address3":"Surajbera","state":"Jharkhand","state_code":"38","district":"Pakur","district_code":"353","address1":"Litipara","address2":"","latitude":"24.6254","longitude":"87.656","accuracy":"3"},{"address3":"Bichmahal","state":"Jharkhand","state_code":"38","district":"Pakur","district_code":"353","address1":"Litipara","address2":"","latitude":"24.6879","longitude":"87.6659","accuracy":"4"},{"address3":"Arjunpur","state":"Jharkhand","state_code":"38","district":"Pakur","district_code":"353","address1":"Hiranpur","address2":"","latitude":"24.6254","longitude":"87.656","accuracy":"3"},{"address3":"Litipara","state":"Jharkhand","state_code":"38","district":"Pakur","district_code":"353","address1":"Litipara","address2":"","latitude":"24.6945","longitude":"87.6165","accuracy":"4"},{"address3":"Dhoadanga","state":"Jharkhand","state_code":"38","district":"Pakur","district_code":"353","address1":"Hiranpur","address2":"","latitude":"24.6254","longitude":"87.656","accuracy":"3"},{"address3":"Mohulbona","state":"Jharkhand","state_code":"38","district":"Pakur","district_code":"353","address1":"Litipara","address2":"","latitude":"24.3717","longitude":"87.7376","accuracy":"4"},{"address3":"Dulmidanga","state":"Jharkhand","state_code":"38","district":"Pakur","district_code":"353","address1":"Hiranpur","address2":"","latitude":"24.6254","longitude":"87.656","accuracy":"3"},{"address3":"Talpahari","state":"Jharkhand","state_code":"38","district":"Pakur","district_code":"353","address1":"NA","address2":"","latitude":"24.6239","longitude":"87.6674","accuracy":"4"},{"address3":"Padarkola","state":"Jharkhand","state_code":"38","district":"Pakur","district_code":"353","address1":"Amrapara","address2":"","latitude":"24.6254","longitude":"87.656","accuracy":"3"}],"816105":[{"address3":"Mayur Kola","state":"Jharkhand","state_code":"38","district":"Sahibganj","district_code":"352","address1":"Barharwa","address2":"","latitude":"24.6723","longitude":"87.8194","accuracy":"3"},{"address3":"Jambad","state":"Jharkhand","state_code":"38","district":"Sahibganj","district_code":"352","address1":"Barharwa","address2":"","latitude":"24.7479","longitude":"87.7675","accuracy":"4"},{"address3":"Kotalpokhar","state":"Jharkhand","state_code":"38","district":"Sahibganj","district_code":"352","address1":"Barharwa","address2":"","latitude":"24.6723","longitude":"87.8194","accuracy":"3"},{"address3":"Patharia","state":"Jharkhand","state_code":"38","district":"Sahibganj","district_code":"352","address1":"Barharwa","address2":"","latitude":"25.0081","longitude":"87.6796","accuracy":"3"},{"address3":"Gaganpahari","state":"Jharkhand","state_code":"38","district":"Sahibganj","district_code":"352","address1":"Barharwa","address2":"","latitude":"25.0081","longitude":"87.6796","accuracy":"4"},{"address3":"Binodpur","state":"Jharkhand","state_code":"38","district":"Sahibganj","district_code":"352","address1":"Barharwa","address2":"","latitude":"25.0081","longitude":"87.6796","accuracy":"4"},{"address3":"Kistonagar","state":"Jharkhand","state_code":"38","district":"Pakur","district_code":"353","address1":"Pakur","address2":"","latitude":"24.6723","longitude":"87.8194","accuracy":"3"}],"816106":[{"address3":"Sagberia","state":"Jharkhand","state_code":"38","district":"Pakur","district_code":"353","address1":"Maheshpur","address2":"","latitude":"24.4307","longitude":"87.5987","accuracy":"4"},{"address3":"Sahargram","state":"Jharkhand","state_code":"38","district":"Pakur","district_code":"353","address1":"Maheshpur","address2":"","latitude":"24.5711","longitude":"87.7143","accuracy":"4"},{"address3":"Debinagar","state":"Jharkhand","state_code":"38","district":"Pakur","district_code":"353","address1":"Maheshpru","address2":"","latitude":"24.4292","longitude":"87.6437","accuracy":"4"},{"address3":"Birkitty","state":"Jharkhand","state_code":"38","district":"Pakur","district_code":"353","address1":"Maheshpur","address2":"","latitude":"24.4912","longitude":"87.705","accuracy":"3"},{"address3":"Tarapur","state":"Jharkhand","state_code":"38","district":"Pakur","district_code":"353","address1":"Maheshpur","address2":"","latitude":"24.5291","longitude":"87.7519","accuracy":"4"},{"address3":"Khanpur","state":"Jharkhand","state_code":"38","district":"Pakur","district_code":"353","address1":"Maheshpur","address2":"","latitude":"24.4912","longitude":"87.705","accuracy":"3"},{"address3":"Dharamkhanpara","state":"Jharkhand","state_code":"38","district":"Pakur","district_code":"353","address1":"Maheshpur","address2":"","latitude":"24.4622","longitude":"87.7795","accuracy":"4"},{"address3":"Maheshpur Raj","state":"Jharkhand","state_code":"38","district":"Pakur","district_code":"353","address1":"Maheshpur","address2":"","latitude":"24.4912","longitude":"87.705","accuracy":"3"},{"address3":"Bathandanga","state":"Jharkhand","state_code":"38","district":"Pakur","district_code":"353","address1":"Maheshpur","address2":"","latitude":"24.525","longitude":"87.7416","accuracy":"4"},{"address3":"Khagra","state":"Jharkhand","state_code":"38","district":"Pakur","district_code":"353","address1":"Maheshpur","address2":"","latitude":"24.4912","longitude":"87.705","accuracy":"3"},{"address3":"Barkiari","state":"Jharkhand","state_code":"38","district":"Pakur","district_code":"353","address1":"Maheshpur","address2":"","latitude":"24.4912","longitude":"87.705","accuracy":"3"},{"address3":"Makdampur","state":"Jharkhand","state_code":"38","district":"Pakur","district_code":"353","address1":"Maheshpur","address2":"","latitude":"24.4912","longitude":"87.705","accuracy":"3"},{"address3":"Radhipur","state":"Jharkhand","state_code":"38","district":"Pakur","district_code":"353","address1":"Maheshpur","address2":"","latitude":"24.4912","longitude":"87.705","accuracy":"3"},{"address3":"Rollagram","state":"Jharkhand","state_code":"38","district":"Pakur","district_code":"353","address1":"Maheshpur","address2":"","latitude":"24.4912","longitude":"87.705","accuracy":"3"},{"address3":"Askandha","state":"Jharkhand","state_code":"38","district":"Pakur","district_code":"353","address1":"Maheshpur","address2":"","latitude":"24.4912","longitude":"87.705","accuracy":"3"}],"816107":[{"address3":"Daldali","state":"Jharkhand","state_code":"38","district":"Pakur","district_code":"353","address1":"Hiranpur","address2":"","latitude":"24.6209","longitude":"87.7174","accuracy":"4"},{"address3":"Jhikarhati","state":"Jharkhand","state_code":"38","district":"Pakur","district_code":"353","address1":"Pakur","address2":"","latitude":"24.601","longitude":"87.8864","accuracy":"4"},{"address3":"Manirampur","state":"Jharkhand","state_code":"38","district":"Pakur","district_code":"353","address1":"Pakur","address2":"","latitude":"24.6581","longitude":"87.877","accuracy":"4"},{"address3":"Sangrampur","state":"Jharkhand","state_code":"38","district":"Pakur","district_code":"353","address1":"Pakur","address2":"","latitude":"24.6739","longitude":"87.8468","accuracy":"4"},{"address3":"Kalidaspur","state":"Jharkhand","state_code":"38","district":"Pakur","district_code":"353","address1":"Pakur","address2":"","latitude":"24.681","longitude":"87.7989","accuracy":"4"},{"address3":"Pakur","state":"Jharkhand","state_code":"38","district":"Pakur","district_code":"353","address1":"Pakur","address2":"","latitude":"24.6393","longitude":"87.8424","accuracy":"4"},{"address3":"Torai","state":"Jharkhand","state_code":"38","district":"Pakur","district_code":"353","address1":"Hiranpur","address2":"","latitude":"24.6516","longitude":"87.762","accuracy":"4"},{"address3":"Illami","state":"Jharkhand","state_code":"38","district":"Pakur","district_code":"353","address1":"Pakur","address2":"","latitude":"24.6508","longitude":"87.8033","accuracy":"3"},{"address3":"Debpur","state":"Jharkhand","state_code":"38","district":"Pakur","district_code":"353","address1":"Pakur","address2":"","latitude":"24.6694","longitude":"87.7621","accuracy":"4"},{"address3":"Gandhaipur","state":"Jharkhand","state_code":"38","district":"Pakur","district_code":"353","address1":"Pakur","address2":"","latitude":"24.6508","longitude":"87.8033","accuracy":"3"},{"address3":"Mohanpur","state":"Jharkhand","state_code":"38","district":"Pakur","district_code":"353","address1":"Hiranpur","address2":"","latitude":"24.6626","longitude":"87.7363","accuracy":"4"},{"address3":"Narottempur","state":"Jharkhand","state_code":"38","district":"Pakur","district_code":"353","address1":"Pakur","address2":"","latitude":"24.6508","longitude":"87.8033","accuracy":"3"},{"address3":"Prithinagar","state":"Jharkhand","state_code":"38","district":"Pakur","district_code":"353","address1":"Pakur","address2":"","latitude":"24.6508","longitude":"87.8033","accuracy":"3"},{"address3":"Rashpur","state":"Jharkhand","state_code":"38","district":"Pakur","district_code":"353","address1":"Pakur","address2":"","latitude":"24.6508","longitude":"87.8033","accuracy":"3"},{"address3":"Sitishnager","state":"Jharkhand","state_code":"38","district":"Pakur","district_code":"353","address1":"Pakur","address2":"","latitude":"24.6508","longitude":"87.8033","accuracy":"3"},{"address3":"Sitapahari","state":"Jharkhand","state_code":"38","district":"Pakur","district_code":"353","address1":"Pakur","address2":"","latitude":"24.6508","longitude":"87.8033","accuracy":"3"},{"address3":"Nagarnabi","state":"Jharkhand","state_code":"38","district":"Pakur","district_code":"353","address1":"Pakur","address2":"","latitude":"24.6508","longitude":"87.8033","accuracy":"3"},{"address3":"Chengadanga","state":"Jharkhand","state_code":"38","district":"Pakur","district_code":"353","address1":"Pakur","address2":"","latitude":"24.6508","longitude":"87.8033","accuracy":"3"},{"address3":"Malpahari Koerisiding","state":"Jharkhand","state_code":"38","district":"Pakur","district_code":"353","address1":"Pakur","address2":"","latitude":"24.6508","longitude":"87.8033","accuracy":"3"},{"address3":"Bhawnipur","state":"Jharkhand","state_code":"38","district":"Pakur","district_code":"353","address1":"Pakaur","address2":"","latitude":"24.6508","longitude":"87.8033","accuracy":"3"},{"address3":"Pakur RS","state":"Jharkhand","state_code":"38","district":"Dumka","district_code":"362","address1":"NA","address2":"","latitude":"24.6508","longitude":"87.8033","accuracy":"3"}],"816108":[{"address3":"Narayanpur","state":"Jharkhand","state_code":"38","district":"Sahibganj","district_code":"352","address1":"Rajmahal","address2":"","latitude":"25.0081","longitude":"87.6796","accuracy":"4"},{"address3":"Udhwa","state":"Jharkhand","state_code":"38","district":"Sahibganj","district_code":"352","address1":"Udhwa","address2":"","latitude":"24.7465","longitude":"87.4117","accuracy":"3"},{"address3":"Phudkipur","state":"Jharkhand","state_code":"38","district":"Sahibganj","district_code":"352","address1":"Rajmahal","address2":"","latitude":"25.0081","longitude":"87.6796","accuracy":"4"},{"address3":"P.K.Bazar","state":"Jharkhand","state_code":"38","district":"Sahibganj","district_code":"352","address1":"Rajmahal","address2":"","latitude":"24.7465","longitude":"87.4117","accuracy":"3"},{"address3":"Kajigoun","state":"Jharkhand","state_code":"38","district":"Sahibganj","district_code":"352","address1":"Rajmahal","address2":"","latitude":"24.7465","longitude":"87.4117","accuracy":"3"},{"address3":"Kassim Bazar","state":"Jharkhand","state_code":"38","district":"Sahibganj","district_code":"352","address1":"Sahibganj","address2":"","latitude":"24.7465","longitude":"87.4117","accuracy":"3"},{"address3":"Narayanpur East Diara","state":"Jharkhand","state_code":"38","district":"Sahibganj","district_code":"352","address1":"NA","address2":"","latitude":"24.7465","longitude":"87.4117","accuracy":"3"},{"address3":"Rajmahal","state":"Jharkhand","state_code":"38","district":"Sahibganj","district_code":"352","address1":"Rajmahal","address2":"","latitude":"24.7465","longitude":"87.4117","accuracy":"3"},{"address3":"Choukidhab","state":"Jharkhand","state_code":"38","district":"Sahibganj","district_code":"352","address1":"Udhua","address2":"","latitude":"24.7465","longitude":"87.4117","accuracy":"3"},{"address3":"Mahasinghpur","state":"Jharkhand","state_code":"38","district":"Sahibganj","district_code":"352","address1":"Rajmahal","address2":"","latitude":"24.7465","longitude":"87.4117","accuracy":"3"},{"address3":"Palasgachi","state":"Jharkhand","state_code":"38","district":"Sahibganj","district_code":"352","address1":"Rajmahal","address2":"","latitude":"24.7465","longitude":"87.4117","accuracy":"3"},{"address3":"Jamnager","state":"Jharkhand","state_code":"38","district":"Sahibganj","district_code":"352","address1":"Udhwa","address2":"","latitude":"24.7465","longitude":"87.4117","accuracy":"3"},{"address3":"Piyarpur","state":"Jharkhand","state_code":"38","district":"Sahibganj","district_code":"352","address1":"Rajmahal","address2":"","latitude":"24.7465","longitude":"87.4117","accuracy":"3"}],"816109":[{"address3":"Rampur","state":"Jharkhand","state_code":"38","district":"Sahibganj","district_code":"352","address1":"Sahibganj","address2":"","latitude":"25.2531","longitude":"87.7147","accuracy":"4"},{"address3":"Banjhi","state":"Jharkhand","state_code":"38","district":"Sahibganj","district_code":"352","address1":"Borio","address2":"","latitude":"25.1298","longitude":"87.6543","accuracy":"4"},{"address3":"Maharajpur","state":"Jharkhand","state_code":"38","district":"Sahibganj","district_code":"352","address1":"Taljhari","address2":"","latitude":"25.2087","longitude":"87.7458","accuracy":"4"},{"address3":"Ganga Prasad Diara","state":"Jharkhand","state_code":"38","district":"Sahibganj","district_code":"352","address1":"Sahibganj","address2":"","latitude":"25.209","longitude":"87.6874","accuracy":"3"},{"address3":"Sahibganj","state":"Jharkhand","state_code":"38","district":"Sahibganj","district_code":"352","address1":"Sahibganj","address2":"","latitude":"25.2443","longitude":"87.6348","accuracy":"4"},{"address3":"Barajirwabari","state":"Jharkhand","state_code":"38","district":"Sahibganj","district_code":"352","address1":"Borio","address2":"","latitude":"25.209","longitude":"87.6874","accuracy":"3"},{"address3":"Mahadeo Ganj","state":"Jharkhand","state_code":"38","district":"Sahibganj","district_code":"352","address1":"Sahibganj","address2":"","latitude":"25.209","longitude":"87.6874","accuracy":"3"},{"address3":"Bara Madansahi","state":"Jharkhand","state_code":"38","district":"Sahibganj","district_code":"352","address1":"Borio","address2":"","latitude":"25.209","longitude":"87.6874","accuracy":"3"},{"address3":"Hariprasad Diara","state":"Jharkhand","state_code":"38","district":"Sahibganj","district_code":"352","address1":"Sahibganj","address2":"","latitude":"25.209","longitude":"87.6874","accuracy":"3"},{"address3":"Baluagairah","state":"Jharkhand","state_code":"38","district":"Sahibganj","district_code":"352","address1":"Sahibganj","address2":"","latitude":"25.209","longitude":"87.6874","accuracy":"3"},{"address3":"Sahibganj College","state":"Jharkhand","state_code":"38","district":"Sahibganj","district_code":"352","address1":"Sahibganj","address2":"","latitude":"25.209","longitude":"87.6874","accuracy":"3"},{"address3":"Sahibganj Court","state":"Jharkhand","state_code":"38","district":"Sahibganj","district_code":"352","address1":"Sahibganj","address2":"","latitude":"25.209","longitude":"87.6874","accuracy":"3"},{"address3":"Balapokhar","state":"Jharkhand","state_code":"38","district":"Sahibganj","district_code":"352","address1":"Sahibganj","address2":"","latitude":"25.209","longitude":"87.6874","accuracy":"3"},{"address3":"Hazipur Bari Kodarjana","state":"Jharkhand","state_code":"38","district":"Sahibganj","district_code":"352","address1":"Sahibganj","address2":"","latitude":"25.209","longitude":"87.6874","accuracy":"3"}],"816110":[{"address3":"Banskola","state":"Jharkhand","state_code":"38","district":"Sahibganj","district_code":"352","address1":"Pathna","address2":"","latitude":"25.2076","longitude":"87.6314","accuracy":"4"},{"address3":"Bishanpur","state":"Jharkhand","state_code":"38","district":"Sahibganj","district_code":"352","address1":"Barharwa","address2":"","latitude":"25.0081","longitude":"87.6796","accuracy":"4"},{"address3":"Lakhipur","state":"Jharkhand","state_code":"38","district":"Sahibganj","district_code":"352","address1":"Pathna","address2":"","latitude":"25.1062","longitude":"87.7232","accuracy":"4"},{"address3":"Pathna","state":"Jharkhand","state_code":"38","district":"Sahibganj","district_code":"352","address1":"Pathna","address2":"","latitude":"24.9602","longitude":"87.3242","accuracy":"3"},{"address3":"Ghatiari","state":"Jharkhand","state_code":"38","district":"Sahibganj","district_code":"352","address1":"Pathna","address2":"","latitude":"25.1834","longitude":"87.5383","accuracy":"4"},{"address3":"B.B. Mangladih","state":"Jharkhand","state_code":"38","district":"Sahibganj","district_code":"352","address1":"Pathna","address2":"","latitude":"24.9602","longitude":"87.3242","accuracy":"3"},{"address3":"Bartalla","state":"Jharkhand","state_code":"38","district":"Sahibganj","district_code":"352","address1":"Pathna","address2":"","latitude":"24.9602","longitude":"87.3242","accuracy":"3"}],"816115":[{"address3":"Sakrigali Ghat","state":"Jharkhand","state_code":"38","district":"Sahibganj","district_code":"352","address1":"Sahibganj","address2":"","latitude":"24.6159","longitude":"87.4398","accuracy":"1"}],"816116":[{"address3":"Jonka","state":"Jharkhand","state_code":"38","district":"Sahibganj","district_code":"352","address1":"Rajmahal","address2":"","latitude":"25.0081","longitude":"87.6796","accuracy":"4"},{"address3":"Kalyanchak","state":"Jharkhand","state_code":"38","district":"Sahibganj","district_code":"352","address1":"Rahmahal","address2":"","latitude":"24.678","longitude":"87.691","accuracy":"3"},{"address3":"Brindaban","state":"Jharkhand","state_code":"38","district":"Sahibganj","district_code":"352","address1":"Taljhari","address2":"","latitude":"25.0153","longitude":"87.7115","accuracy":"4"},{"address3":"Tinpahar RS","state":"Jharkhand","state_code":"38","district":"Sahibganj","district_code":"352","address1":"Rajmahal","address2":"","latitude":"24.678","longitude":"87.691","accuracy":"3"},{"address3":"Bara Durgapur","state":"Jharkhand","state_code":"38","district":"Sahibganj","district_code":"352","address1":"Taljhari","address2":"","latitude":"24.678","longitude":"87.691","accuracy":"3"}],"816117":[{"address3":"Chowkisal","state":"Jharkhand","state_code":"38","district":"Pakur","district_code":"353","address1":"Pakuria","address2":"","latitude":"24.3838","longitude":"87.6419","accuracy":"3"},{"address3":"Balidih","state":"Jharkhand","state_code":"38","district":"Pakur","district_code":"353","address1":"Pakuria","address2":"","latitude":"24.3942","longitude":"87.6144","accuracy":"4"},{"address3":"Khagachua","state":"Jharkhand","state_code":"38","district":"Pakur","district_code":"353","address1":"Pakuria","address2":"","latitude":"24.349","longitude":"87.7424","accuracy":"4"},{"address3":"Pakuria","state":"Jharkhand","state_code":"38","district":"Pakur","district_code":"353","address1":"Pakuria","address2":"","latitude":"24.3336","longitude":"87.653","accuracy":"4"},{"address3":"Paliadaha","state":"Jharkhand","state_code":"38","district":"Pakur","district_code":"353","address1":"Pakuria","address2":"","latitude":"24.311","longitude":"87.6901","accuracy":"4"},{"address3":"Barasinghpur","state":"Jharkhand","state_code":"38","district":"Pakur","district_code":"353","address1":"Pakuria","address2":"","latitude":"24.3838","longitude":"87.6419","accuracy":"3"},{"address3":"Khaksa","state":"Jharkhand","state_code":"38","district":"Pakur","district_code":"353","address1":"Pakuria","address2":"","latitude":"24.2987","longitude":"87.6526","accuracy":"4"},{"address3":"Bondiga","state":"Jharkhand","state_code":"38","district":"Pakur","district_code":"353","address1":"Pakuria","address2":"","latitude":"24.3838","longitude":"87.6419","accuracy":"3"},{"address3":"Moglabandh","state":"Jharkhand","state_code":"38","district":"Pakur","district_code":"353","address1":"Pakuria","address2":"","latitude":"24.3838","longitude":"87.6419","accuracy":"3"},{"address3":"Lagdum","state":"Jharkhand","state_code":"38","district":"Pakur","district_code":"353","address1":"Pakuria","address2":"","latitude":"24.3838","longitude":"87.6419","accuracy":"3"},{"address3":"Raj Daha","state":"Jharkhand","state_code":"38","district":"Pakur","district_code":"353","address1":"Pakuria","address2":"","latitude":"24.3838","longitude":"87.6419","accuracy":"3"},{"address3":"Bannabgram","state":"Jharkhand","state_code":"38","district":"Pakur","district_code":"353","address1":"Pakuria","address2":"","latitude":"24.3838","longitude":"87.6419","accuracy":"3"},{"address3":"Phuljhijhri","state":"Jharkhand","state_code":"38","district":"Pakur","district_code":"353","address1":"Pakuria","address2":"","latitude":"24.3838","longitude":"87.6419","accuracy":"3"},{"address3":"Karudih","state":"Jharkhand","state_code":"38","district":"Dumka","district_code":"362","address1":"Gopikandar","address2":"","latitude":"24.3693","longitude":"87.5613","accuracy":"4"},{"address3":"Karipahari","state":"Jharkhand","state_code":"38","district":"Dumka","district_code":"362","address1":"Gopikander","address2":"","latitude":"24.3197","longitude":"87.2666","accuracy":"4"}],"816118":[{"address3":"Asanbani","state":"Jharkhand","state_code":"38","district":"Dumka","district_code":"362","address1":"Raneswar","address2":"","latitude":"24.1281","longitude":"87.4467","accuracy":"4"},{"address3":"Dhanbasa","state":"Jharkhand","state_code":"38","district":"Dumka","district_code":"362","address1":"NA","address2":"","latitude":"24.3197","longitude":"87.2666","accuracy":"4"},{"address3":"Pratappur","state":"Jharkhand","state_code":"38","district":"Dumka","district_code":"362","address1":"Shikaripara","address2":"","latitude":"24.3197","longitude":"87.2666","accuracy":"3"},{"address3":"Mohal Pahari","state":"Jharkhand","state_code":"38","district":"Dumka","district_code":"362","address1":"Shikaripara","address2":"","latitude":"24.6567","longitude":"86.9551","accuracy":"3"},{"address3":"Barmasia","state":"Jharkhand","state_code":"38","district":"Dumka","district_code":"362","address1":"Shikaripara","address2":"","latitude":"24.3197","longitude":"87.2666","accuracy":"4"},{"address3":"Simaljore","state":"Jharkhand","state_code":"38","district":"Dumka","district_code":"362","address1":"NA","address2":"","latitude":"24.6567","longitude":"86.9551","accuracy":"3"},{"address3":"Dhaka","state":"Jharkhand","state_code":"38","district":"Dumka","district_code":"362","address1":"Sikaripara","address2":"","latitude":"24.6567","longitude":"86.9551","accuracy":"3"},{"address3":"Bankijore","state":"Jharkhand","state_code":"38","district":"Dumka","district_code":"362","address1":"Shikaripara","address2":"","latitude":"24.6567","longitude":"86.9551","accuracy":"3"},{"address3":"Kharu Kadma","state":"Jharkhand","state_code":"38","district":"Dumka","district_code":"362","address1":"Shikaripara","address2":"","latitude":"24.6567","longitude":"86.9551","accuracy":"3"},{"address3":"Shikaripara","state":"Jharkhand","state_code":"38","district":"Dumka","district_code":"362","address1":"Shikaripara","address2":"","latitude":"24.6567","longitude":"86.9551","accuracy":"3"},{"address3":"Kolhabadar","state":"Jharkhand","state_code":"38","district":"Dumka","district_code":"362","address1":"Shikaripara","address2":"","latitude":"24.6567","longitude":"86.9551","accuracy":"3"},{"address3":"P.P. Kadma","state":"Jharkhand","state_code":"38","district":"Dumka","district_code":"362","address1":"Raneswar","address2":"","latitude":"24.6567","longitude":"86.9551","accuracy":"3"},{"address3":"R.B. Palasi","state":"Jharkhand","state_code":"38","district":"Dumka","district_code":"362","address1":"Shikaripara","address2":"","latitude":"24.6567","longitude":"86.9551","accuracy":"3"},{"address3":"Saraidaha","state":"Jharkhand","state_code":"38","district":"Dumka","district_code":"362","address1":"Shikaripara","address2":"","latitude":"24.6567","longitude":"86.9551","accuracy":"3"}],"816120":[{"address3":"Aprol","state":"Jharkhand","state_code":"38","district":"Sahibganj","district_code":"352","address1":"Borio","address2":"","latitude":"25.0809","longitude":"87.6431","accuracy":"4"},{"address3":"Hatigarah","state":"Jharkhand","state_code":"38","district":"Sahibganj","district_code":"352","address1":"Barhait","address2":"","latitude":"25.0367","longitude":"87.5908","accuracy":"3"},{"address3":"Borio","state":"Jharkhand","state_code":"38","district":"Sahibganj","district_code":"352","address1":"Borio","address2":"","latitude":"25.0344","longitude":"87.5925","accuracy":"4"},{"address3":"Chotabangama","state":"Jharkhand","state_code":"38","district":"Sahibganj","district_code":"352","address1":"Borio","address2":"","latitude":"25.0367","longitude":"87.5908","accuracy":"3"},{"address3":"Telo","state":"Jharkhand","state_code":"38","district":"Sahibganj","district_code":"352","address1":"Borio","address2":"","latitude":"25.0066","longitude":"87.5869","accuracy":"4"},{"address3":"Motipahari","state":"Jharkhand","state_code":"38","district":"Sahibganj","district_code":"352","address1":"Borio","address2":"","latitude":"25.0248","longitude":"87.5408","accuracy":"4"}],"816129":[{"address3":"Sarkanda","state":"Jharkhand","state_code":"38","district":"Sahibganj","district_code":"352","address1":"Taljhari","address2":"","latitude":"25.0081","longitude":"87.6796","accuracy":"4"},{"address3":"Mangalhat English","state":"Jharkhand","state_code":"38","district":"Sahibganj","district_code":"352","address1":"Taljhari","address2":"","latitude":"24.7133","longitude":"87.0506","accuracy":"3"},{"address3":"Taljhari","state":"Jharkhand","state_code":"38","district":"Sahibganj","district_code":"352","address1":"Taljhari","address2":"","latitude":"25.0804","longitude":"87.5961","accuracy":"4"},{"address3":"Karanpura","state":"Jharkhand","state_code":"38","district":"Sahibganj","district_code":"352","address1":"Taljhari","address2":"","latitude":"25.0081","longitude":"87.6796","accuracy":"4"}],"credits":[{"name":"geonames","url":"https://www.geonames.org"}],"last_update":"2019-03-01T09:01:40.279Z"}