{"844101":[{"address3":"Yusufpur","state":"Bihar","state_code":"34","district":"Vaishali","district_code":"220","address1":"Hajipur","address2":"","latitude":"25.8172","longitude":"85.2628","accuracy":"4"},{"address3":"Rambhadra","state":"Bihar","state_code":"34","district":"Vaishali","district_code":"220","address1":"Hajipur","address2":"","latitude":"25.8172","longitude":"85.2628","accuracy":"3"},{"address3":"Hajipur H.O","state":"Bihar","state_code":"34","district":"Vaishali","district_code":"220","address1":"Hajipur","address2":"","latitude":"25.8172","longitude":"85.2628","accuracy":"3"},{"address3":"Hajipur Chowk","state":"Bihar","state_code":"34","district":"Vaishali","district_code":"220","address1":"Hajipur","address2":"","latitude":"25.8172","longitude":"85.2628","accuracy":"3"}],"844102":[{"address3":"Subhai","state":"Bihar","state_code":"34","district":"Vaishali","district_code":"220","address1":"Hajipur","address2":"","latitude":"25.7623","longitude":"85.37","accuracy":"4"},{"address3":"Sadullahpur","state":"Bihar","state_code":"34","district":"Vaishali","district_code":"220","address1":"Hajipur","address2":"","latitude":"25.6272","longitude":"85.3366","accuracy":"4"},{"address3":"Rajasan","state":"Bihar","state_code":"34","district":"Vaishali","district_code":"220","address1":"Bidupur","address2":"","latitude":"25.6628","longitude":"85.2795","accuracy":"4"},{"address3":"Hajipur Ind.Area","state":"Bihar","state_code":"34","district":"Vaishali","district_code":"220","address1":"Hajipur","address2":"","latitude":"25.7309","longitude":"85.8861","accuracy":"3"},{"address3":"Bhairopur Deodhi","state":"Bihar","state_code":"34","district":"Vaishali","district_code":"220","address1":"Bidupur","address2":"","latitude":"25.7309","longitude":"85.8861","accuracy":"3"},{"address3":"Jadhua","state":"Bihar","state_code":"34","district":"Vaishali","district_code":"220","address1":"Hajipur","address2":"","latitude":"25.7309","longitude":"85.8861","accuracy":"3"},{"address3":"Panapur Dharampur","state":"Bihar","state_code":"34","district":"Vaishali","district_code":"220","address1":"Hajipur","address2":"","latitude":"25.7309","longitude":"85.8861","accuracy":"3"},{"address3":"Dighi Kala","state":"Bihar","state_code":"34","district":"Vaishali","district_code":"220","address1":"Hajipur","address2":"","latitude":"25.7309","longitude":"85.8861","accuracy":"3"},{"address3":"Rajauli","state":"Bihar","state_code":"34","district":"Vaishali","district_code":"220","address1":"Hajipur","address2":"","latitude":"25.7309","longitude":"85.8861","accuracy":"3"},{"address3":"Ratnakar","state":"Bihar","state_code":"34","district":"Vaishali","district_code":"220","address1":"Raghopur","address2":"","latitude":"25.7309","longitude":"85.8861","accuracy":"3"}],"844103":[{"address3":"Harauli","state":"Bihar","state_code":"34","district":"Vaishali","district_code":"220","address1":"Hajipur","address2":"","latitude":"25.7655","longitude":"85.1919","accuracy":"4"},{"address3":"Gadaisarai","state":"Bihar","state_code":"34","district":"Vaishali","district_code":"220","address1":"Hajipur","address2":"","latitude":"25.7521","longitude":"85.1931","accuracy":"3"},{"address3":"Minapur Rai","state":"Bihar","state_code":"34","district":"Vaishali","district_code":"220","address1":"Hajipur","address2":"","latitude":"25.7386","longitude":"85.1943","accuracy":"4"},{"address3":"Izra","state":"Bihar","state_code":"34","district":"Vaishali","district_code":"220","address1":"Hajipur","address2":"","latitude":"25.7521","longitude":"85.1931","accuracy":"3"},{"address3":"Anzanpeer Chok","state":"Bihar","state_code":"34","district":"Vaishali","district_code":"220","address1":"Hajipur","address2":"","latitude":"25.7521","longitude":"85.1931","accuracy":"3"},{"address3":"Ishmilepur","state":"Bihar","state_code":"34","district":"Vaishali","district_code":"220","address1":"Hajipur","address2":"","latitude":"25.7521","longitude":"85.1931","accuracy":"3"},{"address3":"Balwakuari","state":"Bihar","state_code":"34","district":"Vaishali","district_code":"220","address1":"Hajipur","address2":"","latitude":"25.7521","longitude":"85.1931","accuracy":"3"},{"address3":"Chandralay","state":"Bihar","state_code":"34","district":"Vaishali","district_code":"220","address1":"Hajipur","address2":"","latitude":"25.7521","longitude":"85.1931","accuracy":"3"}],"844111":[{"address3":"Bahilwara Bhual","state":"Bihar","state_code":"34","district":"Muzaffarpur","district_code":"216","address1":"Saraiya","address2":"","latitude":"25.9615","longitude":"85.2299","accuracy":"3"},{"address3":"Bahilwara Roopnath","state":"Bihar","state_code":"34","district":"Muzaffarpur","district_code":"216","address1":"Saraiya","address2":"","latitude":"25.9615","longitude":"85.2299","accuracy":"3"},{"address3":"Bahilwara Govind","state":"Bihar","state_code":"34","district":"Muzaffarpur","district_code":"216","address1":"Saraiya","address2":"","latitude":"25.9615","longitude":"85.2299","accuracy":"3"},{"address3":"Dharampur","state":"Bihar","state_code":"34","district":"Vaishali","district_code":"220","address1":"Vaishali","address2":"","latitude":"25.9746","longitude":"85.1823","accuracy":"4"},{"address3":"Sain","state":"Bihar","state_code":"34","district":"Vaishali","district_code":"220","address1":"Belsar","address2":"","latitude":"25.9904","longitude":"85.1985","accuracy":"4"},{"address3":"Aniruddha Belsar","state":"Bihar","state_code":"34","district":"Vaishali","district_code":"220","address1":"Paedhi Belsar","address2":"","latitude":"25.9615","longitude":"85.2299","accuracy":"3"},{"address3":"Karneji","state":"Bihar","state_code":"34","district":"Vaishali","district_code":"220","address1":"P.belsar","address2":"","latitude":"25.9738","longitude":"85.2034","accuracy":"4"},{"address3":"Hauzpura","state":"Bihar","state_code":"34","district":"Vaishali","district_code":"220","address1":"Belsar","address2":"","latitude":"25.9615","longitude":"85.2299","accuracy":"3"},{"address3":"Paterha Jairam","state":"Bihar","state_code":"34","district":"Vaishali","district_code":"220","address1":"Belsar","address2":"","latitude":"25.9643","longitude":"85.2378","accuracy":"4"},{"address3":"Bibipur","state":"Bihar","state_code":"34","district":"Vaishali","district_code":"220","address1":"P.belsar","address2":"","latitude":"25.9702","longitude":"85.2505","accuracy":"4"},{"address3":"Belwar","state":"Bihar","state_code":"34","district":"Vaishali","district_code":"220","address1":"P. Belsar","address2":"","latitude":"25.8957","longitude":"85.3067","accuracy":"4"}],"844112":[{"address3":"Balra Ismail","state":"Bihar","state_code":"34","district":"Muzaffarpur","district_code":"216","address1":"Kurhani","address2":"","latitude":"25.9575","longitude":"85.4037","accuracy":"4"},{"address3":"Baghi (Muzaffarpur)","state":"Bihar","state_code":"34","district":"Muzaffarpur","district_code":"216","address1":"Kurhani","address2":"","latitude":"25.9416","longitude":"85.4023","accuracy":"4"},{"address3":"Mathna Mallik","state":"Bihar","state_code":"34","district":"Muzaffarpur","district_code":"216","address1":"NA","address2":"","latitude":"25.8887","longitude":"85.4122","accuracy":"3"},{"address3":"Sahpur Maricha","state":"Bihar","state_code":"34","district":"Muzaffarpur","district_code":"216","address1":"Kurhani","address2":"","latitude":"25.8887","longitude":"85.4122","accuracy":"3"},{"address3":"Chapaith","state":"Bihar","state_code":"34","district":"Vaishali","district_code":"220","address1":"Kurhani","address2":"","latitude":"25.8887","longitude":"85.4122","accuracy":"3"},{"address3":"Ababakarpur","state":"Bihar","state_code":"34","district":"Vaishali","district_code":"220","address1":"Kurhani","address2":"","latitude":"25.8562","longitude":"85.5439","accuracy":"4"},{"address3":"Khajechand Chapra","state":"Bihar","state_code":"34","district":"Vaishali","district_code":"220","address1":"Kurhani","address2":"","latitude":"25.8887","longitude":"85.4122","accuracy":"3"},{"address3":"Bishanpur Arara","state":"Bihar","state_code":"34","district":"Vaishali","district_code":"220","address1":"Kurhani","address2":"","latitude":"25.8887","longitude":"85.4122","accuracy":"3"},{"address3":"Sehan","state":"Bihar","state_code":"34","district":"Vaishali","district_code":"220","address1":"Kurhani","address2":"","latitude":"25.7994","longitude":"85.2991","accuracy":"4"},{"address3":"Mansurpur Halaiya","state":"Bihar","state_code":"34","district":"Vaishali","district_code":"220","address1":"Kurhani","address2":"","latitude":"25.8887","longitude":"85.4122","accuracy":"3"},{"address3":"Bherokhara","state":"Bihar","state_code":"34","district":"Vaishali","district_code":"220","address1":"Chehra Kalan","address2":"","latitude":"25.8887","longitude":"85.4122","accuracy":"3"}],"844113":[{"address3":"Daudnagar","state":"Bihar","state_code":"34","district":"Vaishali","district_code":"220","address1":"Vaishali","address2":"","latitude":"25.9593","longitude":"85.1163","accuracy":"4"},{"address3":"Amritpur","state":"Bihar","state_code":"34","district":"Vaishali","district_code":"220","address1":"Vaishali","address2":"","latitude":"25.9124","longitude":"85.1446","accuracy":"4"},{"address3":"Balukaram","state":"Bihar","state_code":"34","district":"Vaishali","district_code":"220","address1":"Vaishali","address2":"","latitude":"25.9388","longitude":"85.1511","accuracy":"3"},{"address3":"Madhopur Ram","state":"Bihar","state_code":"34","district":"Vaishali","district_code":"220","address1":"Vaishali","address2":"","latitude":"25.9251","longitude":"85.2038","accuracy":"4"},{"address3":"Chaklahlad","state":"Bihar","state_code":"34","district":"Vaishali","district_code":"220","address1":"Vaishali","address2":"","latitude":"25.9388","longitude":"85.1511","accuracy":"3"},{"address3":"Madarna","state":"Bihar","state_code":"34","district":"Vaishali","district_code":"220","address1":"Vaishali","address2":"","latitude":"25.9516","longitude":"85.1775","accuracy":"4"},{"address3":"Nandlalpur","state":"Bihar","state_code":"34","district":"Vaishali","district_code":"220","address1":"Vaishali","address2":"","latitude":"25.9456","longitude":"85.1131","accuracy":"4"}],"844114":[{"address3":"Satpura","state":"Bihar","state_code":"34","district":"Vaishali","district_code":"220","address1":"Bhagwanpur","address2":"","latitude":"25.7623","longitude":"85.37","accuracy":"4"},{"address3":"Husaina Khurd","state":"Bihar","state_code":"34","district":"Vaishali","district_code":"220","address1":"Bhagwanpur","address2":"","latitude":"25.8728","longitude":"85.3186","accuracy":"4"},{"address3":"Warispur","state":"Bihar","state_code":"34","district":"Vaishali","district_code":"220","address1":"Bhagwanpur","address2":"","latitude":"25.856","longitude":"85.3025","accuracy":"3"},{"address3":"Rasulpur Enayat","state":"Bihar","state_code":"34","district":"Vaishali","district_code":"220","address1":"Bhagwanpur","address2":"","latitude":"25.856","longitude":"85.3025","accuracy":"3"},{"address3":"Bithauli","state":"Bihar","state_code":"34","district":"Vaishali","district_code":"220","address1":"Bhagwanpur","address2":"","latitude":"25.7623","longitude":"85.37","accuracy":"4"},{"address3":"Piroi","state":"Bihar","state_code":"34","district":"Vaishali","district_code":"220","address1":"Bhaghwanpur","address2":"","latitude":"25.8468","longitude":"85.3564","accuracy":"4"},{"address3":"Bhagwanpur (Vaishali)","state":"Bihar","state_code":"34","district":"Vaishali","district_code":"220","address1":"Bhagwanpur","address2":"","latitude":"25.856","longitude":"85.3025","accuracy":"3"},{"address3":"Pirapur Mathura","state":"Bihar","state_code":"34","district":"Vaishali","district_code":"220","address1":"Bhagwanpur","address2":"","latitude":"25.856","longitude":"85.3025","accuracy":"3"},{"address3":"Boaria","state":"Bihar","state_code":"34","district":"Vaishali","district_code":"220","address1":"Bhagwanpur","address2":"","latitude":"25.7623","longitude":"85.37","accuracy":"4"},{"address3":"Asoi","state":"Bihar","state_code":"34","district":"Vaishali","district_code":"220","address1":"Bhagwanpur","address2":"","latitude":"25.8247","longitude":"85.3301","accuracy":"4"},{"address3":"Hansikewal","state":"Bihar","state_code":"34","district":"Vaishali","district_code":"220","address1":"Bhagwanpur","address2":"","latitude":"25.856","longitude":"85.3025","accuracy":"3"},{"address3":"Rasulpur Korigaon","state":"Bihar","state_code":"34","district":"Vaishali","district_code":"220","address1":"Bhagwanpur","address2":"","latitude":"25.856","longitude":"85.3025","accuracy":"3"},{"address3":"Katarmala","state":"Bihar","state_code":"34","district":"Vaishali","district_code":"220","address1":"Bhagwanpur","address2":"","latitude":"25.9014","longitude":"85.3024","accuracy":"4"},{"address3":"Bishanpur  Bande","state":"Bihar","state_code":"34","district":"Vaishali","district_code":"220","address1":"Bhagwanpur","address2":"","latitude":"25.856","longitude":"85.3025","accuracy":"3"},{"address3":"Garjaul","state":"Bihar","state_code":"34","district":"Vaishali","district_code":"220","address1":"Bhagwanpur","address2":"","latitude":"25.8298","longitude":"85.354","accuracy":"4"},{"address3":"Raghunathpur Imadpur","state":"Bihar","state_code":"34","district":"Vaishali","district_code":"220","address1":"Bhagwanpur","address2":"","latitude":"25.856","longitude":"85.3025","accuracy":"3"},{"address3":"Kiratpur Rajaram","state":"Bihar","state_code":"34","district":"Vaishali","district_code":"220","address1":"Bhagwanpur","address2":"","latitude":"25.8559","longitude":"85.2869","accuracy":"4"}],"844115":[{"address3":"Chaksikandar","state":"Bihar","state_code":"34","district":"Vaishali","district_code":"220","address1":"Bidupur","address2":"","latitude":"25.6686","longitude":"85.3621","accuracy":"3"},{"address3":"Kalyanpur","state":"Bihar","state_code":"34","district":"Vaishali","district_code":"220","address1":"Bidupur","address2":"","latitude":"25.6748","longitude":"85.3716","accuracy":"4"},{"address3":"Bishanpur Said Urf Bakarpur","state":"Bihar","state_code":"34","district":"Vaishali","district_code":"220","address1":"Jhandaha","address2":"","latitude":"25.6686","longitude":"85.3621","accuracy":"3"},{"address3":"Mohanpur","state":"Bihar","state_code":"34","district":"Vaishali","district_code":"220","address1":"Bidupur","address2":"","latitude":"25.6623","longitude":"85.3526","accuracy":"4"},{"address3":"Khanpur Pakari","state":"Bihar","state_code":"34","district":"Vaishali","district_code":"220","address1":"Bidupur","address2":"","latitude":"25.6686","longitude":"85.3621","accuracy":"3"},{"address3":"Gauspur Bariarpur","state":"Bihar","state_code":"34","district":"Vaishali","district_code":"220","address1":"Rajapakar","address2":"","latitude":"25.6686","longitude":"85.3621","accuracy":"3"}],"844116":[{"address3":"Dumari (Vaishali)","state":"Bihar","state_code":"34","district":"Vaishali","district_code":"220","address1":"Rajapakar","address2":"","latitude":"25.7571","longitude":"85.344","accuracy":"3"},{"address3":"Bilandpur","state":"Bihar","state_code":"34","district":"Vaishali","district_code":"220","address1":"Rajapakar","address2":"","latitude":"25.7571","longitude":"85.344","accuracy":"4"},{"address3":"Bishanpur Bejha","state":"Bihar","state_code":"34","district":"Vaishali","district_code":"220","address1":"Goraul","address2":"","latitude":"25.7571","longitude":"85.344","accuracy":"3"},{"address3":"Fatehpur Fulwaria","state":"Bihar","state_code":"34","district":"Vaishali","district_code":"220","address1":"Rajapakar","address2":"","latitude":"25.7571","longitude":"85.344","accuracy":"3"},{"address3":"Rampur Ratnakar","state":"Bihar","state_code":"34","district":"Vaishali","district_code":"220","address1":"Rajapakar","address2":"","latitude":"25.7571","longitude":"85.344","accuracy":"3"}],"844117":[{"address3":"Dharhara (Vaishali)","state":"Bihar","state_code":"34","district":"Vaishali","district_code":"220","address1":"Lalganj","address2":"","latitude":"25.8054","longitude":"85.2314","accuracy":"3"},{"address3":"Paura","state":"Bihar","state_code":"34","district":"Vaishali","district_code":"220","address1":"Lalganj","address2":"","latitude":"25.7917","longitude":"85.2333","accuracy":"4"},{"address3":"Gurmia","state":"Bihar","state_code":"34","district":"Vaishali","district_code":"220","address1":"Lalgang","address2":"","latitude":"25.819","longitude":"85.2295","accuracy":"4"}],"844118":[{"address3":"Padmaul","state":"Bihar","state_code":"34","district":"Muzaffarpur","district_code":"216","address1":"Kurhanni","address2":"","latitude":"25.9496","longitude":"85.3667","accuracy":"4"},{"address3":"Garahua","state":"Bihar","state_code":"34","district":"Muzaffarpur","district_code":"216","address1":"Kurhani","address2":"","latitude":"25.9427","longitude":"85.3491","accuracy":"3"},{"address3":"Kheshramadih","state":"Bihar","state_code":"34","district":"Muzaffarpur","district_code":"216","address1":"Kurhani","address2":"","latitude":"25.9427","longitude":"85.3491","accuracy":"3"},{"address3":"Sondho","state":"Bihar","state_code":"34","district":"Vaishali","district_code":"220","address1":"Goroul","address2":"","latitude":"25.9427","longitude":"85.3491","accuracy":"3"},{"address3":"Goraul","state":"Bihar","state_code":"34","district":"Vaishali","district_code":"220","address1":"Goroul","address2":"","latitude":"25.9358","longitude":"85.3315","accuracy":"4"},{"address3":"Malikpura","state":"Bihar","state_code":"34","district":"Vaishali","district_code":"220","address1":"Goroul","address2":"","latitude":"25.9427","longitude":"85.3491","accuracy":"3"},{"address3":"Chakmaruf","state":"Bihar","state_code":"34","district":"Vaishali","district_code":"220","address1":"Paterhi Belsar","address2":"","latitude":"25.9427","longitude":"85.3491","accuracy":"3"},{"address3":"Bhuwalpur Bahadurpur","state":"Bihar","state_code":"34","district":"Vaishali","district_code":"220","address1":"Goraul","address2":"","latitude":"25.9427","longitude":"85.3491","accuracy":"3"},{"address3":"Maganpur","state":"Bihar","state_code":"34","district":"Vaishali","district_code":"220","address1":"Bhagwanpur","address2":"","latitude":"25.9427","longitude":"85.3491","accuracy":"3"},{"address3":"Bathna Mahodat","state":"Bihar","state_code":"34","district":"Vaishali","district_code":"220","address1":"Goraul","address2":"","latitude":"25.9427","longitude":"85.3491","accuracy":"3"}],"844119":[{"address3":"Kartahan","state":"Bihar","state_code":"34","district":"Vaishali","district_code":"220","address1":"Lalganj","address2":"","latitude":"25.83","longitude":"85.2037","accuracy":"4"},{"address3":"Ghataro","state":"Bihar","state_code":"34","district":"Vaishali","district_code":"220","address1":"Goroul","address2":"","latitude":"25.8146","longitude":"85.1862","accuracy":"4"},{"address3":"Pachdamia","state":"Bihar","state_code":"34","district":"Vaishali","district_code":"220","address1":"Lalganj","address2":"","latitude":"25.8407","longitude":"85.2049","accuracy":"4"}],"844120":[{"address3":"Bhagwanpur","state":"Bihar","state_code":"34","district":"Muzaffarpur","district_code":"216","address1":"Kurhani","address2":"","latitude":"25.9722","longitude":"85.5071","accuracy":"4"},{"address3":"Azizpur","state":"Bihar","state_code":"34","district":"Muzaffarpur","district_code":"216","address1":"Kurhani","address2":"","latitude":"25.9823","longitude":"85.3037","accuracy":"4"},{"address3":"Balaur","state":"Bihar","state_code":"34","district":"Muzaffarpur","district_code":"216","address1":"Kurhani","address2":"","latitude":"26.1511","longitude":"85.3308","accuracy":"4"},{"address3":"Kurhani","state":"Bihar","state_code":"34","district":"Muzaffarpur","district_code":"216","address1":"Kurhani","address2":"","latitude":"25.9803","longitude":"85.3374","accuracy":"4"},{"address3":"Anant Kamtaul","state":"Bihar","state_code":"34","district":"Muzaffarpur","district_code":"216","address1":"Kurhani","address2":"","latitude":"25.8453","longitude":"85.4744","accuracy":"3"},{"address3":"Chakwaja Nagma","state":"Bihar","state_code":"34","district":"Muzaffarpur","district_code":"216","address1":"NA","address2":"","latitude":"25.8453","longitude":"85.4744","accuracy":"3"},{"address3":"Rajala","state":"Bihar","state_code":"34","district":"Muzaffarpur","district_code":"216","address1":"Kurhani","address2":"","latitude":"25.8453","longitude":"85.4744","accuracy":"3"},{"address3":"Chandrahatti","state":"Bihar","state_code":"34","district":"Muzaffarpur","district_code":"216","address1":"Kurhani","address2":"","latitude":"25.8453","longitude":"85.4744","accuracy":"3"},{"address3":"Girigama Dih","state":"Bihar","state_code":"34","district":"Muzaffarpur","district_code":"216","address1":"Kurhani","address2":"","latitude":"25.8453","longitude":"85.4744","accuracy":"3"},{"address3":"M. Afzalpur","state":"Bihar","state_code":"34","district":"Vaishali","district_code":"220","address1":"Kurhani","address2":"","latitude":"25.8453","longitude":"85.4744","accuracy":"3"}],"844121":[{"address3":"Jalalpur","state":"Bihar","state_code":"34","district":"Vaishali","district_code":"220","address1":"Lalganj","address2":"","latitude":"25.8695","longitude":"85.1519","accuracy":"4"},{"address3":"Manikpur Pakri","state":"Bihar","state_code":"34","district":"Vaishali","district_code":"220","address1":"Lalganj","address2":"","latitude":"25.8548","longitude":"85.1994","accuracy":"4"},{"address3":"Jaintipur","state":"Bihar","state_code":"34","district":"Vaishali","district_code":"220","address1":"Lalganj","address2":"","latitude":"25.7623","longitude":"85.37","accuracy":"4"},{"address3":"Sahdullahpur","state":"Bihar","state_code":"34","district":"Vaishali","district_code":"220","address1":"Lalganj","address2":"","latitude":"25.8135","longitude":"85.1321","accuracy":"3"},{"address3":"Purkhauli","state":"Bihar","state_code":"34","district":"Vaishali","district_code":"220","address1":"Lalganj","address2":"","latitude":"25.9005","longitude":"85.1882","accuracy":"4"},{"address3":"Khanjahachak","state":"Bihar","state_code":"34","district":"Vaishali","district_code":"220","address1":"Lalganj","address2":"","latitude":"25.8135","longitude":"85.1321","accuracy":"3"},{"address3":"Lalganj (Vaishali)","state":"Bihar","state_code":"34","district":"Vaishali","district_code":"220","address1":"Lalganj","address2":"","latitude":"25.8689","longitude":"85.1739","accuracy":"4"}],"844122":[{"address3":"Kanhauli","state":"Bihar","state_code":"34","district":"Vaishali","district_code":"220","address1":"Goroul","address2":"","latitude":"25.9016","longitude":"85.2657","accuracy":"3"},{"address3":"Nilkanthpur","state":"Bihar","state_code":"34","district":"Vaishali","district_code":"220","address1":"Mahuwa","address2":"","latitude":"25.7908","longitude":"85.4269","accuracy":"4"},{"address3":"Baksama","state":"Bihar","state_code":"34","district":"Vaishali","district_code":"220","address1":"Chehrakala","address2":"","latitude":"25.9016","longitude":"85.2657","accuracy":"3"},{"address3":"Rasalpur Fatah","state":"Bihar","state_code":"34","district":"Vaishali","district_code":"220","address1":"Goroul","address2":"","latitude":"25.9016","longitude":"85.2657","accuracy":"3"},{"address3":"Bhanborhan","state":"Bihar","state_code":"34","district":"Vaishali","district_code":"220","address1":"Mahuwa","address2":"","latitude":"25.9016","longitude":"85.2657","accuracy":"3"},{"address3":"Naharpur","state":"Bihar","state_code":"34","district":"Vaishali","district_code":"220","address1":"Jhandaha","address2":"","latitude":"25.7623","longitude":"85.37","accuracy":"4"},{"address3":"Chakmajahid","state":"Bihar","state_code":"34","district":"Vaishali","district_code":"220","address1":"Mahuwa","address2":"","latitude":"25.9016","longitude":"85.2657","accuracy":"3"},{"address3":"Karhatia Buzurg","state":"Bihar","state_code":"34","district":"Vaishali","district_code":"220","address1":"Chehrakala","address2":"","latitude":"25.8631","longitude":"85.4181","accuracy":"4"},{"address3":"Chaksaid","state":"Bihar","state_code":"34","district":"Vaishali","district_code":"220","address1":"Chehrakala","address2":"","latitude":"25.9016","longitude":"85.2657","accuracy":"3"},{"address3":"Mahuwa","state":"Bihar","state_code":"34","district":"Vaishali","district_code":"220","address1":"Mahuwa","address2":"","latitude":"25.8092","longitude":"85.3976","accuracy":"4"},{"address3":"Chandsarai Sahdullahchak","state":"Bihar","state_code":"34","district":"Vaishali","district_code":"220","address1":"Mahua","address2":"","latitude":"25.9016","longitude":"85.2657","accuracy":"3"},{"address3":"Bakhri Dua","state":"Bihar","state_code":"34","district":"Vaishali","district_code":"220","address1":"Chehrakala","address2":"","latitude":"25.8518","longitude":"85.4453","accuracy":"4"},{"address3":"Chehrakala","state":"Bihar","state_code":"34","district":"Vaishali","district_code":"220","address1":"Chehrakala","address2":"","latitude":"25.9016","longitude":"85.2657","accuracy":"3"},{"address3":"Phular","state":"Bihar","state_code":"34","district":"Vaishali","district_code":"220","address1":"Mahuwa","address2":"","latitude":"25.8511","longitude":"85.3824","accuracy":"4"},{"address3":"Chhourahi","state":"Bihar","state_code":"34","district":"Vaishali","district_code":"220","address1":"Chehrakala","address2":"","latitude":"25.9016","longitude":"85.2657","accuracy":"3"},{"address3":"Bhagwatpur Taraura","state":"Bihar","state_code":"34","district":"Vaishali","district_code":"220","address1":"Mahuwa","address2":"","latitude":"25.8289","longitude":"85.41","accuracy":"4"},{"address3":"Hasapur Bhadwas","state":"Bihar","state_code":"34","district":"Vaishali","district_code":"220","address1":"Mahuwa","address2":"","latitude":"25.9016","longitude":"85.2657","accuracy":"3"},{"address3":"Salempur Dumaria","state":"Bihar","state_code":"34","district":"Vaishali","district_code":"220","address1":"Goroul","address2":"","latitude":"25.8626","longitude":"85.434","accuracy":"4"},{"address3":"Mirza Nagar","state":"Bihar","state_code":"34","district":"Vaishali","district_code":"220","address1":"Mahua","address2":"","latitude":"25.9016","longitude":"85.2657","accuracy":"3"},{"address3":"Rampur Ramhar","state":"Bihar","state_code":"34","district":"Vaishali","district_code":"220","address1":"Jhandaha","address2":"","latitude":"25.7453","longitude":"85.4602","accuracy":"4"},{"address3":"Laxmanpur","state":"Bihar","state_code":"34","district":"Vaishali","district_code":"220","address1":"Jhandaha","address2":"","latitude":"25.9016","longitude":"85.2657","accuracy":"3"},{"address3":"Madhaul","state":"Bihar","state_code":"34","district":"Vaishali","district_code":"220","address1":"Mahuwa","address2":"","latitude":"25.9016","longitude":"85.2657","accuracy":"3"},{"address3":"Madhopur Nijhma","state":"Bihar","state_code":"34","district":"Vaishali","district_code":"220","address1":"Mahuwa","address2":"","latitude":"25.9016","longitude":"85.2657","accuracy":"3"}],"844123":[{"address3":"Majhauli","state":"Bihar","state_code":"34","district":"Vaishali","district_code":"220","address1":"Vaishali","address2":"","latitude":"25.9282","longitude":"85.2279","accuracy":"4"},{"address3":"Prataptand","state":"Bihar","state_code":"34","district":"Vaishali","district_code":"220","address1":"Bhagwanpur","address2":"","latitude":"25.9118","longitude":"85.225","accuracy":"3"},{"address3":"Abbul Hasanpur","state":"Bihar","state_code":"34","district":"Vaishali","district_code":"220","address1":"Vaishali","address2":"","latitude":"25.9118","longitude":"85.225","accuracy":"3"},{"address3":"Rikhar","state":"Bihar","state_code":"34","district":"Vaishali","district_code":"220","address1":"Lalganj","address2":"","latitude":"25.8955","longitude":"85.2222","accuracy":"4"},{"address3":"Sirsabiran","state":"Bihar","state_code":"34","district":"Vaishali","district_code":"220","address1":"Lalgang","address2":"","latitude":"25.9118","longitude":"85.225","accuracy":"3"},{"address3":"Sathiauta Bhagwan","state":"Bihar","state_code":"34","district":"Vaishali","district_code":"220","address1":"Lalganj","address2":"","latitude":"25.9118","longitude":"85.225","accuracy":"3"},{"address3":"Sahtha","state":"Bihar","state_code":"34","district":"Vaishali","district_code":"220","address1":"Bhagwanpur","address2":"","latitude":"25.9118","longitude":"85.225","accuracy":"3"},{"address3":"Jarang Rampur","state":"Bihar","state_code":"34","district":"Vaishali","district_code":"220","address1":"Paterhi Belsar","address2":"","latitude":"25.9118","longitude":"85.225","accuracy":"3"}],"844124":[{"address3":"Basara","state":"Bihar","state_code":"34","district":"Vaishali","district_code":"220","address1":"Rajapakar","address2":"","latitude":"25.7623","longitude":"85.37","accuracy":"4"},{"address3":"Senduari","state":"Bihar","state_code":"34","district":"Vaishali","district_code":"220","address1":"Hajipur","address2":"","latitude":"25.738","longitude":"85.2806","accuracy":"4"},{"address3":"Rajapakar","state":"Bihar","state_code":"34","district":"Vaishali","district_code":"220","address1":"Rajapakar","address2":"","latitude":"25.9655","longitude":"85.0778","accuracy":"3"},{"address3":"Baikunthpur","state":"Bihar","state_code":"34","district":"Vaishali","district_code":"220","address1":"Rajapakar","address2":"","latitude":"25.7623","longitude":"85.37","accuracy":"4"},{"address3":"Nainha","state":"Bihar","state_code":"34","district":"Vaishali","district_code":"220","address1":"Hajipur","address2":"","latitude":"25.7415","longitude":"85.2899","accuracy":"4"},{"address3":"Panapur Langa","state":"Bihar","state_code":"34","district":"Vaishali","district_code":"220","address1":"Hajipur","address2":"","latitude":"25.7241","longitude":"85.2908","accuracy":"4"}],"844125":[{"address3":"Birna Lakhan Sen","state":"Bihar","state_code":"34","district":"Vaishali","district_code":"220","address1":"NA","address2":"","latitude":"25.7759","longitude":"85.2773","accuracy":"3"},{"address3":"Akhtiyarpur Paterha","state":"Bihar","state_code":"34","district":"Vaishali","district_code":"220","address1":"Bhagwanpur","address2":"","latitude":"25.7759","longitude":"85.2773","accuracy":"3"},{"address3":"Thathan Buzurg","state":"Bihar","state_code":"34","district":"Vaishali","district_code":"220","address1":"Hajipur","address2":"","latitude":"25.7457","longitude":"85.2377","accuracy":"4"},{"address3":"Anjani","state":"Bihar","state_code":"34","district":"Vaishali","district_code":"220","address1":"Bhagwanpur","address2":"","latitude":"25.7945","longitude":"85.2953","accuracy":"4"},{"address3":"Belkunda","state":"Bihar","state_code":"34","district":"Vaishali","district_code":"220","address1":"Rajapakar","address2":"","latitude":"25.7507","longitude":"85.3109","accuracy":"4"},{"address3":"Sarai","state":"Bihar","state_code":"34","district":"Vaishali","district_code":"220","address1":"Bhagwanpur","address2":"","latitude":"25.7822","longitude":"85.2743","accuracy":"4"},{"address3":"Bhojpatti","state":"Bihar","state_code":"34","district":"Vaishali","district_code":"220","address1":"Rajapakar","address2":"","latitude":"25.7667","longitude":"85.2907","accuracy":"4"},{"address3":"Mani Bhakurahar","state":"Bihar","state_code":"34","district":"Vaishali","district_code":"220","address1":"Lalganj","address2":"","latitude":"25.8154","longitude":"85.2551","accuracy":"4"}],"844126":[{"address3":"Jahangirpur Salkhanni","state":"Bihar","state_code":"34","district":"Vaishali","district_code":"220","address1":"Mahuwa","address2":"","latitude":"25.7742","longitude":"85.4994","accuracy":"3"},{"address3":"Serpur Chatwara","state":"Bihar","state_code":"34","district":"Vaishali","district_code":"220","address1":"Mahua","address2":"","latitude":"25.7742","longitude":"85.4994","accuracy":"3"},{"address3":"Chitrauli","state":"Bihar","state_code":"34","district":"Vaishali","district_code":"220","address1":"Mahuwa","address2":"","latitude":"25.7742","longitude":"85.4994","accuracy":"3"},{"address3":"Nari Khurd","state":"Bihar","state_code":"34","district":"Vaishali","district_code":"220","address1":"Jhandaha","address2":"","latitude":"25.7763","longitude":"85.4953","accuracy":"4"},{"address3":"Gara Urf Govindpur Devi","state":"Bihar","state_code":"34","district":"Vaishali","district_code":"220","address1":"Mahuwa","address2":"","latitude":"25.7742","longitude":"85.4994","accuracy":"3"},{"address3":"Mahathi Dharamchand","state":"Bihar","state_code":"34","district":"Vaishali","district_code":"220","address1":"Patepur","address2":"","latitude":"25.7742","longitude":"85.4994","accuracy":"3"},{"address3":"Harpur Belwa","state":"Bihar","state_code":"34","district":"Vaishali","district_code":"220","address1":"Mahuwa","address2":"","latitude":"25.7742","longitude":"85.4994","accuracy":"3"},{"address3":"Adalpur","state":"Bihar","state_code":"34","district":"Vaishali","district_code":"220","address1":"Jhandaha","address2":"","latitude":"25.755","longitude":"85.4659","accuracy":"4"},{"address3":"Tisiuta Dharampur","state":"Bihar","state_code":"34","district":"Vaishali","district_code":"220","address1":"Patepur","address2":"","latitude":"25.7742","longitude":"85.4994","accuracy":"3"},{"address3":"Milki Urf  Chakwaje Khijirpur","state":"Bihar","state_code":"34","district":"Vaishali","district_code":"220","address1":"Mahuwa","address2":"","latitude":"25.7742","longitude":"85.4994","accuracy":"3"},{"address3":"Singhara","state":"Bihar","state_code":"34","district":"Vaishali","district_code":"220","address1":"Mahua","address2":"","latitude":"25.7742","longitude":"85.4994","accuracy":"3"},{"address3":"Chakaiya","state":"Bihar","state_code":"34","district":"Vaishali","district_code":"220","address1":"Mahuwa","address2":"","latitude":"25.7913","longitude":"85.537","accuracy":"4"},{"address3":"Pour","state":"Bihar","state_code":"34","district":"Vaishali","district_code":"220","address1":"Mahuwa","address2":"","latitude":"25.7742","longitude":"85.4994","accuracy":"3"},{"address3":"Sarmaspura","state":"Bihar","state_code":"34","district":"Vaishali","district_code":"220","address1":"Mahuwa","address2":"","latitude":"25.7742","longitude":"85.4994","accuracy":"3"}],"844127":[{"address3":"Charhua","state":"Bihar","state_code":"34","district":"Muzaffarpur","district_code":"216","address1":"Kurhani","address2":"","latitude":"25.9788","longitude":"85.6789","accuracy":"3"},{"address3":"Dubiahi","state":"Bihar","state_code":"34","district":"Muzaffarpur","district_code":"216","address1":"Kurhani","address2":"","latitude":"26.1511","longitude":"85.3308","accuracy":"4"},{"address3":"Ratnauli","state":"Bihar","state_code":"34","district":"Muzaffarpur","district_code":"216","address1":"Kurhani","address2":"","latitude":"25.9788","longitude":"85.6789","accuracy":"3"},{"address3":"K.Mohan","state":"Bihar","state_code":"34","district":"Muzaffarpur","district_code":"216","address1":"Kurhani","address2":"","latitude":"25.9788","longitude":"85.6789","accuracy":"3"},{"address3":"Pupri","state":"Bihar","state_code":"34","district":"Muzaffarpur","district_code":"216","address1":"Kurhani","address2":"","latitude":"26.1511","longitude":"85.3308","accuracy":"4"},{"address3":"Jhikati","state":"Bihar","state_code":"34","district":"Muzaffarpur","district_code":"216","address1":"Kurhani","address2":"","latitude":"25.9788","longitude":"85.6789","accuracy":"3"},{"address3":"Kerma","state":"Bihar","state_code":"34","district":"Muzaffarpur","district_code":"216","address1":"Kurhani","address2":"","latitude":"25.9788","longitude":"85.6789","accuracy":"3"},{"address3":"Turki","state":"Bihar","state_code":"34","district":"Muzaffarpur","district_code":"216","address1":"Kurhani","address2":"","latitude":"26.0381","longitude":"85.3577","accuracy":"4"},{"address3":"K.Madhuban","state":"Bihar","state_code":"34","district":"Muzaffarpur","district_code":"216","address1":"Kurhani","address2":"","latitude":"25.9788","longitude":"85.6789","accuracy":"3"},{"address3":"Sakari Saraiya","state":"Bihar","state_code":"34","district":"Muzaffarpur","district_code":"216","address1":"Kurhani","address2":"","latitude":"25.9788","longitude":"85.6789","accuracy":"3"},{"address3":"Dariyapur Kafen","state":"Bihar","state_code":"34","district":"Muzaffarpur","district_code":"216","address1":"Kurhani","address2":"","latitude":"25.9788","longitude":"85.6789","accuracy":"3"},{"address3":"Basauli","state":"Bihar","state_code":"34","district":"Muzaffarpur","district_code":"216","address1":"Kurhani","address2":"","latitude":"26.1511","longitude":"85.3308","accuracy":"4"},{"address3":"Ch. Harishankar","state":"Bihar","state_code":"34","district":"Muzaffarpur","district_code":"216","address1":"Kurhani","address2":"","latitude":"25.9788","longitude":"85.6789","accuracy":"3"},{"address3":"Kinaru","state":"Bihar","state_code":"34","district":"Muzaffarpur","district_code":"216","address1":"Kurhani","address2":"","latitude":"25.9788","longitude":"85.6789","accuracy":"3"}],"844128":[{"address3":"Rahimpur Jagdish","state":"Bihar","state_code":"34","district":"Vaishali","district_code":"220","address1":"Vaishali","address2":"","latitude":"25.8713","longitude":"85.307","accuracy":"1"},{"address3":"Vaishali","state":"Bihar","state_code":"34","district":"Vaishali","district_code":"220","address1":"Vaishali","address2":"","latitude":"25.8713","longitude":"85.307","accuracy":"1"},{"address3":"Chakramdas","state":"Bihar","state_code":"34","district":"Vaishali","district_code":"220","address1":"Vaishali","address2":"","latitude":"25.8713","longitude":"85.307","accuracy":"1"}],"844501":[{"address3":"Marai","state":"Bihar","state_code":"34","district":"Vaishali","district_code":"220","address1":"Mahnar","address2":"","latitude":"25.6958","longitude":"85.5782","accuracy":"4"},{"address3":"Basudeopur Chandel","state":"Bihar","state_code":"34","district":"Vaishali","district_code":"220","address1":"Mahnar","address2":"","latitude":"25.7223","longitude":"85.6343","accuracy":"3"},{"address3":"Harpur Fatikwara","state":"Bihar","state_code":"34","district":"Vaishali","district_code":"220","address1":"Mahnar","address2":"","latitude":"25.7223","longitude":"85.6343","accuracy":"3"},{"address3":"Karnauti","state":"Bihar","state_code":"34","district":"Vaishali","district_code":"220","address1":"Mahnar","address2":"","latitude":"25.6928","longitude":"85.5597","accuracy":"4"},{"address3":"Hargovindpur","state":"Bihar","state_code":"34","district":"Vaishali","district_code":"220","address1":"Mahnar","address2":"","latitude":"25.7223","longitude":"85.6343","accuracy":"3"},{"address3":"Sarmastpur","state":"Bihar","state_code":"34","district":"Vaishali","district_code":"220","address1":"Mahnar","address2":"","latitude":"25.675","longitude":"85.548","accuracy":"4"},{"address3":"Supaul","state":"Bihar","state_code":"34","district":"Samastipur","district_code":"221","address1":"Patori","address2":"","latitude":"25.8253","longitude":"85.8514","accuracy":"4"}],"844502":[{"address3":"Bajitpur Malahi","state":"Bihar","state_code":"34","district":"Vaishali","district_code":"220","address1":"Bidupur","address2":"","latitude":"25.8154","longitude":"85.4061","accuracy":"3"},{"address3":"Chandpura","state":"Bihar","state_code":"34","district":"Vaishali","district_code":"220","address1":"Bidupur","address2":"","latitude":"25.9263","longitude":"85.3476","accuracy":"4"},{"address3":"Dayalpur Garh","state":"Bihar","state_code":"34","district":"Vaishali","district_code":"220","address1":"Hajipur","address2":"","latitude":"25.8154","longitude":"85.4061","accuracy":"3"},{"address3":"Sahdullpur Dhabouli","state":"Bihar","state_code":"34","district":"Vaishali","district_code":"220","address1":"Bidupur","address2":"","latitude":"25.8154","longitude":"85.4061","accuracy":"3"},{"address3":"Balatand","state":"Bihar","state_code":"34","district":"Vaishali","district_code":"220","address1":"Bidupur","address2":"","latitude":"25.8154","longitude":"85.4061","accuracy":"3"},{"address3":"Bahuara","state":"Bihar","state_code":"34","district":"Vaishali","district_code":"220","address1":"Hajipur","address2":"","latitude":"25.8503","longitude":"85.5964","accuracy":"4"},{"address3":"Bidupur Rs","state":"Bihar","state_code":"34","district":"Vaishali","district_code":"220","address1":"Bidupur","address2":"","latitude":"25.8154","longitude":"85.4061","accuracy":"3"},{"address3":"Bishanpur Titara","state":"Bihar","state_code":"34","district":"Vaishali","district_code":"220","address1":"Bidupur","address2":"","latitude":"25.8154","longitude":"85.4061","accuracy":"3"},{"address3":"Rahimapur","state":"Bihar","state_code":"34","district":"Vaishali","district_code":"220","address1":"Bidupur","address2":"","latitude":"25.6695","longitude":"85.2745","accuracy":"4"},{"address3":"Hilalpur Madarpur","state":"Bihar","state_code":"34","district":"Vaishali","district_code":"220","address1":"Hajipur","address2":"","latitude":"25.8154","longitude":"85.4061","accuracy":"3"},{"address3":"Lakhani","state":"Bihar","state_code":"34","district":"Vaishali","district_code":"220","address1":"Bidupur","address2":"","latitude":"25.8154","longitude":"85.4061","accuracy":"3"}],"844503":[{"address3":"Bidupur Bazar","state":"Bihar","state_code":"34","district":"Vaishali","district_code":"220","address1":"Bidupur","address2":"","latitude":"25.6412","longitude":"85.3557","accuracy":"3"},{"address3":"Khilwat","state":"Bihar","state_code":"34","district":"Vaishali","district_code":"220","address1":"Bidupur","address2":"","latitude":"25.6587","longitude":"85.3149","accuracy":"4"},{"address3":"Bishunpur Rajkhand","state":"Bihar","state_code":"34","district":"Vaishali","district_code":"220","address1":"Bidupur","address2":"","latitude":"25.6412","longitude":"85.3557","accuracy":"3"},{"address3":"Jafrabad","state":"Bihar","state_code":"34","district":"Vaishali","district_code":"220","address1":"Bidupur","address2":"","latitude":"25.6724","longitude":"85.4069","accuracy":"4"},{"address3":"Bajitpur Saidat","state":"Bihar","state_code":"34","district":"Vaishali","district_code":"220","address1":"Bidupur","address2":"","latitude":"25.6412","longitude":"85.3557","accuracy":"3"},{"address3":"Kutubpur Saidpur","state":"Bihar","state_code":"34","district":"Vaishali","district_code":"220","address1":"Bidupur","address2":"","latitude":"25.6412","longitude":"85.3557","accuracy":"3"},{"address3":"Govindpur Gokhula","state":"Bihar","state_code":"34","district":"Vaishali","district_code":"220","address1":"Bidupur","address2":"","latitude":"25.6412","longitude":"85.3557","accuracy":"3"},{"address3":"Chechar","state":"Bihar","state_code":"34","district":"Vaishali","district_code":"220","address1":"Bidupur","address2":"","latitude":"25.611","longitude":"85.3609","accuracy":"4"},{"address3":"Chakgarho Daudnagar","state":"Bihar","state_code":"34","district":"Vaishali","district_code":"220","address1":"Bidupur","address2":"","latitude":"25.6412","longitude":"85.3557","accuracy":"3"},{"address3":"Navanagar","state":"Bihar","state_code":"34","district":"Vaishali","district_code":"220","address1":"Bidupur","address2":"","latitude":"25.6412","longitude":"85.3557","accuracy":"3"},{"address3":"Dilawarpur Govardhan","state":"Bihar","state_code":"34","district":"Vaishali","district_code":"220","address1":"Bidupur","address2":"","latitude":"25.6412","longitude":"85.3557","accuracy":"3"},{"address3":"Madhurapur","state":"Bihar","state_code":"34","district":"Vaishali","district_code":"220","address1":"Bidupur","address2":"","latitude":"25.6225","longitude":"85.3402","accuracy":"4"},{"address3":"Mathurapur Sultan","state":"Bihar","state_code":"34","district":"Vaishali","district_code":"220","address1":"Bidupur","address2":"","latitude":"25.6412","longitude":"85.3557","accuracy":"3"}],"844504":[{"address3":"Jahangirpur Sham","state":"Bihar","state_code":"34","district":"Vaishali","district_code":"220","address1":"Sahdei Buzurg","address2":"","latitude":"25.6253","longitude":"85.4177","accuracy":"4"},{"address3":"Rampur Madhaul","state":"Bihar","state_code":"34","district":"Vaishali","district_code":"220","address1":"Sahdei Bujurg","address2":"","latitude":"25.6488","longitude":"85.4256","accuracy":"4"},{"address3":"Mamrejpur","state":"Bihar","state_code":"34","district":"Vaishali","district_code":"220","address1":"Sahdei Bujurg","address2":"","latitude":"25.6418","longitude":"85.348","accuracy":"3"},{"address3":"Mukundpur Grahi","state":"Bihar","state_code":"34","district":"Vaishali","district_code":"220","address1":"Jandaha","address2":"","latitude":"25.6418","longitude":"85.348","accuracy":"3"},{"address3":"Ufraul","state":"Bihar","state_code":"34","district":"Vaishali","district_code":"220","address1":"Sahdei Bujurg","address2":"","latitude":"25.7623","longitude":"85.37","accuracy":"4"},{"address3":"Bhataulia","state":"Bihar","state_code":"34","district":"Vaishali","district_code":"220","address1":"Sahdei Buzurg","address2":"","latitude":"25.9462","longitude":"85.2871","accuracy":"4"},{"address3":"Chandpura Nankar","state":"Bihar","state_code":"34","district":"Vaishali","district_code":"220","address1":"Desari","address2":"","latitude":"25.6418","longitude":"85.348","accuracy":"3"},{"address3":"Azampur","state":"Bihar","state_code":"34","district":"Vaishali","district_code":"220","address1":"Sahdei Buzurg","address2":"","latitude":"25.6285","longitude":"85.4189","accuracy":"4"},{"address3":"Kadilpur","state":"Bihar","state_code":"34","district":"Vaishali","district_code":"220","address1":"Jhandaha","address2":"","latitude":"25.7623","longitude":"85.37","accuracy":"4"},{"address3":"Jafarpatti","state":"Bihar","state_code":"34","district":"Vaishali","district_code":"220","address1":"Rajapakar","address2":"","latitude":"25.7064","longitude":"85.3917","accuracy":"4"},{"address3":"Khokhsa Bujurg","state":"Bihar","state_code":"34","district":"Vaishali","district_code":"220","address1":"Sahdei Bujurg","address2":"","latitude":"25.6418","longitude":"85.348","accuracy":"3"},{"address3":"Basantpur","state":"Bihar","state_code":"34","district":"Vaishali","district_code":"220","address1":"Desari","address2":"","latitude":"25.7233","longitude":"85.4395","accuracy":"4"},{"address3":"Maniarpur","state":"Bihar","state_code":"34","district":"Vaishali","district_code":"220","address1":"Bidupur","address2":"","latitude":"25.6122","longitude":"85.3935","accuracy":"4"},{"address3":"Dhandhua","state":"Bihar","state_code":"34","district":"Vaishali","district_code":"220","address1":"Jhandaha","address2":"","latitude":"25.6418","longitude":"85.348","accuracy":"3"},{"address3":"Lakhmipur","state":"Bihar","state_code":"34","district":"Vaishali","district_code":"220","address1":"Mahua","address2":"","latitude":"25.8647","longitude":"85.48","accuracy":"4"},{"address3":"Chakamgola","state":"Bihar","state_code":"34","district":"Vaishali","district_code":"220","address1":"Sahdei Buzurg","address2":"","latitude":"25.6418","longitude":"85.348","accuracy":"3"},{"address3":"Bakhari Supayan","state":"Bihar","state_code":"34","district":"Vaishali","district_code":"220","address1":"Rajapakar","address2":"","latitude":"25.6418","longitude":"85.348","accuracy":"3"},{"address3":"Desari","state":"Bihar","state_code":"34","district":"Vaishali","district_code":"220","address1":"Desari","address2":"","latitude":"25.6418","longitude":"85.348","accuracy":"3"}],"844505":[{"address3":"Chansarai","state":"Bihar","state_code":"34","district":"Vaishali","district_code":"220","address1":"Jhandaha","address2":"","latitude":"25.7382","longitude":"85.3919","accuracy":"3"},{"address3":"Loma","state":"Bihar","state_code":"34","district":"Vaishali","district_code":"220","address1":"Jhanda","address2":"","latitude":"25.7438","longitude":"85.5133","accuracy":"4"},{"address3":"Bhathahi","state":"Bihar","state_code":"34","district":"Vaishali","district_code":"220","address1":"Jhandaha","address2":"","latitude":"25.7402","longitude":"85.465","accuracy":"4"},{"address3":"Dih Bichauli","state":"Bihar","state_code":"34","district":"Vaishali","district_code":"220","address1":"Jandaha","address2":"","latitude":"25.7382","longitude":"85.3919","accuracy":"3"},{"address3":"Pirapur","state":"Bihar","state_code":"34","district":"Vaishali","district_code":"220","address1":"Jhandaha","address2":"","latitude":"25.8694","longitude":"85.1269","accuracy":"4"},{"address3":"Murtuzapur","state":"Bihar","state_code":"34","district":"Vaishali","district_code":"220","address1":"Jhandaha","address2":"","latitude":"25.7382","longitude":"85.3919","accuracy":"3"},{"address3":"Salha","state":"Bihar","state_code":"34","district":"Vaishali","district_code":"220","address1":"S Buzurg","address2":"","latitude":"25.7036","longitude":"85.5142","accuracy":"4"},{"address3":"B.Tandipur","state":"Bihar","state_code":"34","district":"Vaishali","district_code":"220","address1":"Jandaha","address2":"","latitude":"25.7382","longitude":"85.3919","accuracy":"3"},{"address3":"Kalapahar","state":"Bihar","state_code":"34","district":"Vaishali","district_code":"220","address1":"Jhandaha","address2":"","latitude":"25.7098","longitude":"85.5128","accuracy":"4"},{"address3":"Mahipura","state":"Bihar","state_code":"34","district":"Vaishali","district_code":"220","address1":"Jhandaha","address2":"","latitude":"25.7382","longitude":"85.3919","accuracy":"3"},{"address3":"Sahpur","state":"Bihar","state_code":"34","district":"Vaishali","district_code":"220","address1":"Jhandaha","address2":"","latitude":"25.6622","longitude":"85.2192","accuracy":"4"},{"address3":"Rasulpur Purusottam","state":"Bihar","state_code":"34","district":"Vaishali","district_code":"220","address1":"Jandaha","address2":"","latitude":"25.7382","longitude":"85.3919","accuracy":"3"},{"address3":"Narainpur .Deopura","state":"Bihar","state_code":"34","district":"Vaishali","district_code":"220","address1":"Mahnar","address2":"","latitude":"25.7382","longitude":"85.3919","accuracy":"3"},{"address3":"Mansingpur Bijhrauli","state":"Bihar","state_code":"34","district":"Vaishali","district_code":"220","address1":"Jhandaha","address2":"","latitude":"25.7382","longitude":"85.3919","accuracy":"3"},{"address3":"Mahisaur","state":"Bihar","state_code":"34","district":"Vaishali","district_code":"220","address1":"Jhandaha","address2":"","latitude":"25.7382","longitude":"85.3919","accuracy":"3"},{"address3":"Jowaj","state":"Bihar","state_code":"34","district":"Vaishali","district_code":"220","address1":"Jhandaha","address2":"","latitude":"25.7382","longitude":"85.3919","accuracy":"3"},{"address3":"Chamarhara Mamsai","state":"Bihar","state_code":"34","district":"Vaishali","district_code":"220","address1":"Sahdei Buzurg","address2":"","latitude":"25.7382","longitude":"85.3919","accuracy":"3"},{"address3":"Bishanpur Bedaulia","state":"Bihar","state_code":"34","district":"Vaishali","district_code":"220","address1":"Jhandaha","address2":"","latitude":"25.7382","longitude":"85.3919","accuracy":"3"},{"address3":"Arnia","state":"Bihar","state_code":"34","district":"Vaishali","district_code":"220","address1":"Jandaha","address2":"","latitude":"25.7382","longitude":"85.3919","accuracy":"3"},{"address3":"Jhandaha","state":"Bihar","state_code":"34","district":"Vaishali","district_code":"220","address1":"Jhandaha","address2":"","latitude":"25.7382","longitude":"85.3919","accuracy":"3"},{"address3":"Shoharthi","state":"Bihar","state_code":"34","district":"Vaishali","district_code":"220","address1":"NA","address2":"","latitude":"25.7382","longitude":"85.3919","accuracy":"3"}],"844506":[{"address3":"Marauatpur","state":"Bihar","state_code":"34","district":"Vaishali","district_code":"220","address1":"Sahdei  Bujurg","address2":"","latitude":"25.6165","longitude":"85.4685","accuracy":"4"},{"address3":"Taibpur","state":"Bihar","state_code":"34","district":"Vaishali","district_code":"220","address1":"Sahdei Bujurg","address2":"","latitude":"25.7623","longitude":"85.37","accuracy":"3"},{"address3":"Sultanpur","state":"Bihar","state_code":"34","district":"Vaishali","district_code":"220","address1":"Sahdei Bujurg","address2":"","latitude":"25.6101","longitude":"85.5137","accuracy":"3"},{"address3":"Lawapur Narain","state":"Bihar","state_code":"34","district":"Vaishali","district_code":"220","address1":"Mahnar","address2":"","latitude":"25.6101","longitude":"85.5137","accuracy":"3"},{"address3":"Dhamaun","state":"Bihar","state_code":"34","district":"Vaishali","district_code":"220","address1":"Mahnar","address2":"","latitude":"25.7623","longitude":"85.37","accuracy":"4"},{"address3":"Nayaganj","state":"Bihar","state_code":"34","district":"Vaishali","district_code":"220","address1":"Sahdei Bujurg","address2":"","latitude":"25.7623","longitude":"85.37","accuracy":"3"},{"address3":"Mahnar","state":"Bihar","state_code":"34","district":"Vaishali","district_code":"220","address1":"Mahnar","address2":"","latitude":"25.6096","longitude":"85.4808","accuracy":"4"},{"address3":"Palwaiya","state":"Bihar","state_code":"34","district":"Vaishali","district_code":"220","address1":"Mahnar","address2":"","latitude":"25.6101","longitude":"85.5137","accuracy":"3"},{"address3":"Hasanpur","state":"Bihar","state_code":"34","district":"Vaishali","district_code":"220","address1":"Mahnar","address2":"","latitude":"25.6704","longitude":"85.4929","accuracy":"4"},{"address3":"Lawapur Mahnar","state":"Bihar","state_code":"34","district":"Vaishali","district_code":"220","address1":"Mahnar","address2":"","latitude":"25.6101","longitude":"85.5137","accuracy":"3"},{"address3":"Alipur Hatta","state":"Bihar","state_code":"34","district":"Vaishali","district_code":"220","address1":"Mahnar","address2":"","latitude":"25.5895","longitude":"85.5102","accuracy":"4"},{"address3":"Hasanpur Gurda","state":"Bihar","state_code":"34","district":"Vaishali","district_code":"220","address1":"Mahnar","address2":"","latitude":"25.6101","longitude":"85.5137","accuracy":"3"},{"address3":"Inayatpur","state":"Bihar","state_code":"34","district":"Samastipur","district_code":"221","address1":"Patori","address2":"","latitude":"25.6024","longitude":"85.5462","accuracy":"4"},{"address3":"Hetanpur","state":"Bihar","state_code":"34","district":"Samastipur","district_code":"221","address1":"Patori","address2":"","latitude":"25.5821","longitude":"85.5495","accuracy":"4"}],"844507":[{"address3":"Parmanandpur","state":"Bihar","state_code":"34","district":"Vaishali","district_code":"220","address1":"Mahnar","address2":"","latitude":"25.7807","longitude":"85.4484","accuracy":"4"},{"address3":"Rampur Bhaghel","state":"Bihar","state_code":"34","district":"Vaishali","district_code":"220","address1":"S Buzurg","address2":"","latitude":"25.7338","longitude":"85.4682","accuracy":"3"},{"address3":"Pohiar","state":"Bihar","state_code":"34","district":"Vaishali","district_code":"220","address1":"Sahdei Buzurg","address2":"","latitude":"25.6981","longitude":"85.4869","accuracy":"4"},{"address3":"Kazari Buzurg","state":"Bihar","state_code":"34","district":"Vaishali","district_code":"220","address1":"Jhandaha","address2":"","latitude":"25.7338","longitude":"85.4682","accuracy":"3"},{"address3":"Khopi","state":"Bihar","state_code":"34","district":"Vaishali","district_code":"220","address1":"Jhandaha","address2":"","latitude":"25.7224","longitude":"85.4692","accuracy":"4"},{"address3":"Gorigama","state":"Bihar","state_code":"34","district":"Vaishali","district_code":"220","address1":"Mahnar","address2":"","latitude":"25.7338","longitude":"85.4682","accuracy":"3"},{"address3":"Mahnar Road Rs","state":"Bihar","state_code":"34","district":"Vaishali","district_code":"220","address1":"Mahnar","address2":"","latitude":"25.7338","longitude":"85.4682","accuracy":"3"},{"address3":"Rampur Kumaharkol","state":"Bihar","state_code":"34","district":"Vaishali","district_code":"220","address1":"S Buzurg","address2":"","latitude":"25.7338","longitude":"85.4682","accuracy":"3"},{"address3":"Mukundpur Bhat","state":"Bihar","state_code":"34","district":"Vaishali","district_code":"220","address1":"Jhandaha","address2":"","latitude":"25.7338","longitude":"85.4682","accuracy":"3"}],"844508":[{"address3":"Paharpur","state":"Bihar","state_code":"34","district":"Vaishali","district_code":"220","address1":"Raghopur","address2":"","latitude":"25.8879","longitude":"85.5373","accuracy":"4"},{"address3":"Bishanpur","state":"Bihar","state_code":"34","district":"Vaishali","district_code":"220","address1":"Raghopur","address2":"","latitude":"25.7623","longitude":"85.37","accuracy":"4"},{"address3":"Raghopur Chandel","state":"Bihar","state_code":"34","district":"Vaishali","district_code":"220","address1":"Raghopur","address2":"","latitude":"25.7587","longitude":"85.6704","accuracy":"3"},{"address3":"Juramanpur Rampur","state":"Bihar","state_code":"34","district":"Vaishali","district_code":"220","address1":"Raghopur","address2":"","latitude":"25.7587","longitude":"85.6704","accuracy":"3"},{"address3":"Jurawanpur Karari","state":"Bihar","state_code":"34","district":"Vaishali","district_code":"220","address1":"Raghopur","address2":"","latitude":"25.5273","longitude":"85.4182","accuracy":"4"},{"address3":"Chandpura Idrak","state":"Bihar","state_code":"34","district":"Vaishali","district_code":"220","address1":"Raghopur","address2":"","latitude":"25.7587","longitude":"85.6704","accuracy":"3"},{"address3":"Mohanpur","state":"Bihar","state_code":"34","district":"Vaishali","district_code":"220","address1":"Raghopur","address2":"","latitude":"25.6623","longitude":"85.3526","accuracy":"4"},{"address3":"Jurawanpur Barari","state":"Bihar","state_code":"34","district":"Vaishali","district_code":"220","address1":"Raghopur","address2":"","latitude":"25.7587","longitude":"85.6704","accuracy":"3"},{"address3":"Rushtampur","state":"Bihar","state_code":"34","district":"Vaishali","district_code":"220","address1":"Raghopur","address2":"","latitude":"25.7587","longitude":"85.6704","accuracy":"3"},{"address3":"Chaksingar","state":"Bihar","state_code":"34","district":"Vaishali","district_code":"220","address1":"Raghopur","address2":"","latitude":"25.7587","longitude":"85.6704","accuracy":"3"},{"address3":"Raghopur","state":"Bihar","state_code":"34","district":"Vaishali","district_code":"220","address1":"Raghopur","address2":"","latitude":"25.5323","longitude":"85.3809","accuracy":"4"},{"address3":"Saistapur","state":"Bihar","state_code":"34","district":"Vaishali","district_code":"220","address1":"Raghopur","address2":"","latitude":"25.7587","longitude":"85.6704","accuracy":"3"},{"address3":"Rampur Shyamchand","state":"Bihar","state_code":"34","district":"Vaishali","district_code":"220","address1":"Raghopur","address2":"","latitude":"25.7587","longitude":"85.6704","accuracy":"3"}],"844509":[{"address3":"Sekhopur","state":"Bihar","state_code":"34","district":"Vaishali","district_code":"220","address1":"Sahdei Buzurg","address2":"","latitude":"25.7623","longitude":"85.37","accuracy":"4"},{"address3":"Sarai Dhanesh","state":"Bihar","state_code":"34","district":"Vaishali","district_code":"220","address1":"Sahdei Buzurg","address2":"","latitude":"25.6777","longitude":"85.4427","accuracy":"4"},{"address3":"Chakjamal","state":"Bihar","state_code":"34","district":"Vaishali","district_code":"220","address1":"Sahdei Buzurg","address2":"","latitude":"25.3883","longitude":"85.5219","accuracy":"3"},{"address3":"Paharpur Toi","state":"Bihar","state_code":"34","district":"Vaishali","district_code":"220","address1":"Sahdei Buzurg","address2":"","latitude":"25.6935","longitude":"85.4487","accuracy":"4"},{"address3":"Bajitpur Kasturi","state":"Bihar","state_code":"34","district":"Vaishali","district_code":"220","address1":"Sahdai Buzurg","address2":"","latitude":"25.3883","longitude":"85.5219","accuracy":"3"},{"address3":"Sahdei Buzurg","state":"Bihar","state_code":"34","district":"Vaishali","district_code":"220","address1":"Sahdei Buzurg","address2":"","latitude":"25.3883","longitude":"85.5219","accuracy":"3"}],"credits":[{"name":"geonames","url":"https://www.geonames.org"}],"last_update":"2019-03-01T09:01:37.300Z"}